time(millisecond),datetime(utc),latitude,longitude,height_above_takeoff(feet),height_above_ground_at_drone_location(feet),ground_elevation_at_drone_location(feet),altitude_above_seaLevel(feet),height_sonar(feet),speed(mph),distance(feet),mileage(feet),satellites,gpslevel,voltage(v),max_altitude(feet),max_ascent(feet),max_speed(mph),max_distance(feet), xSpeed(mph), ySpeed(mph), zSpeed(mph), compass_heading(degrees), pitch(degrees), roll(degrees),isPhoto,isVideo,rc_elevator,rc_aileron,rc_throttle,rc_rudder,rc_elevator(percent),rc_aileron(percent),rc_throttle(percent),rc_rudder(percent),gimbal_heading(degrees),gimbal_pitch(degrees),gimbal_roll(degrees),battery_percent,voltageCell1,voltageCell2,voltageCell3,voltageCell4,voltageCell5,voltageCell6,current(A),battery_temperature(f),altitude(feet),ascent(feet),flycStateRaw,flycState,message
0,2024-02-01 19:16:28,0,0,0,Available with any HD 360 subscription,Available with any HD 360 subscription,622.86143659823,0.656168,0,0,0,0,0,0,622.86143659823,0,0,0,0,0,0,254.6, -13.6, 2.2,0,0,1024,1024,1024,1024,0,0,0,0,254.9,0,0,99,4.062,4.067,0,0,0,0,0,71.78,622.86143659823,0,41,Motors_Started,
100,2024-02-01 19:16:28,0,0,0,,,622.86143659823,0.656168,0,0,0,0,0,0,622.86143659823,0,0,0,0,0,0,254.6, -13.7, 2.2,0,0,1024,1024,1024,1024,0,0,0,0,254.8,0,0,99,4.062,4.067,0,0,0,0,0,71.78,622.86143659823,0,41,Motors_Started,"Gimbal stuck Gimbal stuck. Check whether gimbal cover is removed and make sure gimbal can rotate freely on all three axes (Code: 40028). GPS signal weak. Hovering unstable. Fly with caution (Code: 30002). Remote ID functionality normal (Code: 30331)"
200,2024-02-01 19:16:28,0,0,0,,,622.86143659823,0.328084,0,0,0,0,0,0,622.86143659823,0,0,0,0,0,0,254.7, -13.7, 2.1,0,0,1024,1024,1024,1024,0,0,0,0,254.8,0,0,99,4.062,4.067,0,0,0,0,0,71.78,622.86143659823,0,41,Motors_Started,
300,2024-02-01 19:16:28,0,0,0,,,622.86143659823,0.328084,0,0,0,0,0,0,622.86143659823,0,0,0,0,0,0,254.9, -13.7, 2.2,0,0,1024,1024,1024,1024,0,0,0,0,254.8,0,0,99,4.062,4.067,0,0,0,0,0,71.78,622.86143659823,0,41,Motors_Started,"Aircraft in Warning Zone (Class D Airspace). Fly with caution"
400,2024-02-01 19:16:28,0,0,0,,,622.86143659823,0.328084,0,0,0,0,0,0,622.86143659823,0,0,0,0,0,0,254.7, -13.7, 2.1,0,0,1024,1024,1024,1024,0,0,0,0,254.9,0,0,99,4.062,4.067,0,0,0,0,0,71.78,622.86143659823,0,41,Motors_Started,
500,2024-02-01 19:16:28,0,0,0,,,622.86143659823,0.328084,0,0,0,0,0,0,622.86143659823,0,0,0,0,0,0,254.8, -13.7, 2.2,0,0,1024,1024,1024,1024,0,0,0,0,254.9,0,0,99,4.062,4.067,0,0,0,0,0,71.78,622.86143659823,0,41,Motors_Started,
600,2024-02-01 19:16:29,0,0,0,,,622.86143659823,0.328084,0,0,0,0,0,0,622.86143659823,0,0,0,0,0,0,254.8, -13.7, 2.2,0,0,1024,1024,1024,1024,0,0,0,0,254.9,0,0,99,4.062,4.067,0,0,0,0,0,71.78,622.86143659823,0,41,Motors_Started,
700,2024-02-01 19:16:29,0,0,0,,,622.86143659823,0.328084,0,0,0,0,0,0,622.86143659823,0,0,0,0,0,0,254.8, -13.7, 2.2,0,0,1024,1024,1024,1024,0,0,0,0,254.9,0,0,99,4.062,4.067,0,0,0,0,0,71.78,622.86143659823,0,41,Motors_Started,"Setting new Return-To-Home altitude to 100m (328 ft). Data Recorder File Index is 2. Setting new Maximum Flight Altitude to 30m (98 ft)"
800,2024-02-01 19:16:29,0,0,0,,,622.86143659823,0.328084,0,0,0,0,0,0,622.86143659823,0,0,0,0,0,0,254.8, -13.7, 2.2,0,0,1024,1024,1024,1024,0,0,0,0,254.9,0,0,99,4.062,4.067,0,0,0,0,0,71.78,622.86143659823,0,41,Motors_Started,
900,2024-02-01 19:16:29,0,0,0,,,622.86143659823,0.328084,0,0,0,0,0,0,622.86143659823,0,0,0,0,0,0,254.8, -13.7, 2.2,0,0,1024,1024,1024,1024,0,0,0,0,254.9,0,0,99,4.062,4.067,0,0,0,0,0,71.78,622.86143659823,0,41,Motors_Started,
1000,2024-02-01 19:16:29,0,0,0,,,622.86143659823,0.328084,0,0,0,0,0,0,622.86143659823,0,0,0,0,0,0,254.9, -13.7, 2.2,0,0,1024,1024,1024,1024,0,0,0,0,254.9,0,0,99,4.062,4.067,0,0,0,0,0,71.78,622.86143659823,0,41,Motors_Started,
1100,2024-02-01 19:16:29,0,0,0,,,622.86143659823,0.328084,0,0,0,0,0,8.259,622.86143659823,0,0,0,0,0,0,254.9, -13.8, 2.2,0,0,1024,1024,1024,1024,0,0,0,0,254.9,0,0,99,4.062,4.067,0,0,0,0,0.735,71.78,622.86143659823,0,11,AutoTakeoff,
1200,2024-02-01 19:16:29,0,0,0,,,622.86143659823,0.328084,0,0,0,0,0,8.259,622.86143659823,0,0,0,0,0,0,254.8, -13.6, 2.2,0,0,1024,1024,1024,1024,0,0,0,0,254.9,0,0,99,4.062,4.067,0,0,0,0,0.735,71.78,622.86143659823,0,11,AutoTakeoff,
1300,2024-02-01 19:16:29,0,0,0,,,622.86143659823,0.328084,0,0,0,0,0,8.259,622.86143659823,0,0,0,0,0,0,255.1, -13.4, 2.2,0,0,1024,1024,1024,1024,0,0,0,0,254.9,0,0,99,4.062,4.067,0,0,0,0,0.735,71.78,622.86143659823,0,11,AutoTakeoff,
1400,2024-02-01 19:16:29,0,0,0,,,622.86143659823,0.328084,0,0,0,0,0,8.259,622.86143659823,0,0,0,0,0,0,255.7, -11.9, 2.1,0,0,1024,1024,1024,1024,0,0,0,0,254.9,0,0,99,4.062,4.067,0,0,0,0,0.735,71.78,622.86143659823,0,11,AutoTakeoff,
1500,2024-02-01 19:16:29,0,0,0,,,622.86143659823,0.328084,0,0,0,0,0,8.259,622.86143659823,0,0,0,0,0,0,256.1, -5.1, 1.9,0,0,1024,1024,1024,1024,0,0,0,0,255,0,0,99,4.062,4.067,0,0,0,0,0.735,71.78,622.86143659823,0,11,AutoTakeoff,
1600,2024-02-01 19:16:30,0,0,0,,,622.86143659823,0.328084,0,0,0,0,0,8.259,622.86143659823,0,0,0,0,0,0,256.3, 2.8, 1,0,0,1024,1024,1024,1024,0,0,0,0,255,0,0,99,4.062,4.067,0,0,0,0,0.735,71.78,622.86143659823,0,11,AutoTakeoff,
1700,2024-02-01 19:16:30,0,0,0,,,622.86143659823,0.328084,0,0,0,0,0,8.259,622.86143659823,0,0,0,0,0,-0.223694,256.2, 2.6, -1,0,0,1024,1024,1024,1024,0,0,0,0,255.1,0,0,99,4.062,4.067,0,0,0,0,0.735,71.78,622.86143659823,0,11,AutoTakeoff,
1800,2024-02-01 19:16:30,0,0,0,,,622.86143659823,0.328084,0,0,0,0,0,8.259,622.86143659823,0,0,0,0,0,-0.447388,256.4, 0.5, 0,0,0,1024,1024,1024,1024,0,0,0,0,255.1,0,0,99,4.062,4.067,0,0,0,0,0.735,71.78,622.86143659823,0,11,AutoTakeoff,
1900,2024-02-01 19:16:30,0,0,0.328084,,,623.18952059823,0.656168,0,0,0,0,0,8.259,623.18952059823,0.328084,0,0,0,0,-1.11847,256.3, -0.1, -0.1,0,0,1024,1024,1024,1024,0,0,0,0,255.1,0,0,99,4.062,4.067,0,0,0,0,0.735,71.78,623.18952059823,0.328084,11,AutoTakeoff,
2000,2024-02-01 19:16:30,0,0,0.328084,,,623.18952059823,0.656168,0,0,0,0,0,8.259,623.18952059823,0.328084,0,0,0,0,-1.565858,256.4, -0.9, -0.9,0,0,1024,1024,1024,1024,0,0,0,0,255.2,0,0,99,4.062,4.067,0,0,0,0,0.735,71.78,623.18952059823,0.328084,11,AutoTakeoff,
2100,2024-02-01 19:16:30,0,0,0.656168,,,623.51760459823,0.984252,0,0,0,0,0,8.259,623.51760459823,0.656168,0,0,0,0,-2.013246,256.3, -1.4, -2.9,0,0,1024,1024,1024,1024,0,0,0,0,255.2,0,0,99,4.062,4.067,0,0,0,0,0.735,71.78,623.51760459823,0.656168,11,AutoTakeoff,
2200,2024-02-01 19:16:30,0,0,0.984252,,,623.84568859823,0.984252,0,0,0,0,0,8.259,623.84568859823,0.984252,0,0,0,0,-2.23694,256.3, -2.8, -1.9,0,0,1024,1024,1024,1024,0,0,0,0,255.2,0,0,99,4.062,4.067,0,0,0,0,0.735,71.78,623.84568859823,0.984252,11,AutoTakeoff,
2300,2024-02-01 19:16:30,0,0,1.312336,,,624.17377259823,0.984252,0,0,0,0,0,8.259,624.17377259823,1.312336,0,0,0,0,-2.460634,256.4, -3, -0.8,0,0,1024,1024,1024,1024,0,0,0,0,255.3,0,0,99,4.062,4.067,0,0,0,0,0.735,71.78,624.17377259823,1.312336,11,AutoTakeoff,
2400,2024-02-01 19:16:30,0,0,1.64042,,,624.50185659823,1.312336,0,0,0,0,0,8.259,624.50185659823,1.64042,0,0,0,0,-2.460634,256.4, -3.9, -0.7,0,0,1024,1024,1024,1024,0,0,0,0,255.3,0,0,99,4.062,4.067,0,0,0,0,0.735,71.78,624.50185659823,1.64042,11,AutoTakeoff,
2500,2024-02-01 19:16:30,0,0,1.968504,,,624.82994059823,1.64042,0,0,0,9,0,8.259,624.82994059823,1.968504,0,0,0,0,-2.460634,256.3, -4, -0.9,0,0,1024,1024,1024,1024,0,0,0,0,255.3,0,0,99,4.062,4.067,0,0,0,0,0.735,71.78,624.82994059823,1.968504,11,AutoTakeoff,
2600,2024-02-01 19:16:31,0,0,2.296588,,,625.15802459823,1.968504,0,0,0,10,0,8.259,625.15802459823,2.296588,0,0,0,0,-2.460634,256.3, -4.8, -0.2,0,0,1024,1024,1024,1024,0,0,0,0,255.4,0,0,99,4.062,4.067,0,0,0,0,0.735,71.78,625.15802459823,2.296588,11,AutoTakeoff,
2700,2024-02-01 19:16:31,0,0,2.624672,,,625.48610859823,2.296588,0,0,0,10,0,8.259,625.48610859823,2.624672,0,0,0,0,-2.23694,256.3, -6, 0.1,0,0,1024,1024,1024,1024,0,0,0,0,255.4,0,0,99,4.062,4.067,0,0,0,0,0.735,71.78,625.48610859823,2.624672,11,AutoTakeoff,
2800,2024-02-01 19:16:31,0,0,2.952756,,,625.81419259823,2.296588,0.4921268,0,0,10,0,8.259,625.81419259823,2.952756,0.4921268,0,0.223694,0.447388,-2.23694,256.3, -7.3, 0.4,0,0,1024,1024,1338,1024,0,0,48,0,255.4,0,0,99,4.062,4.067,0,0,0,0,0.735,71.78,625.81419259823,2.952756,6,P-GPS,
2900,2024-02-01 19:16:31,0,0,2.952756,,,625.81419259823,0.656168,0.4921268,0,0,10,0,8.259,625.81419259823,2.952756,0.4921268,0,0.223694,0.447388,-1.789552,256.3, -7.7, 0,0,0,1024,1024,1206,1024,0,0,28,0,255.4,0,0,99,4.062,4.067,0,0,0,0,0.735,71.78,625.81419259823,2.952756,6,P-GPS,"Gimbal stuck. Check whether gimbal cover is removed and make sure gimbal can rotate freely on all three axes (Code: 40028). GPS signal weak. Hovering unstable. Fly with caution (Code: 30002)"
3000,2024-02-01 19:16:31,0,0,3.28084,,,626.14227659823,0.656168,0.7158208,0,0,10,0,7.976,626.14227659823,3.28084,0.7158208,0,0.223694,0.671082,-1.565858,256.1, -8, -0.3,0,0,1024,1024,1024,1024,0,0,0,0,255.4,0,0,99,4.009,4.017,0,0,0,0,4.023,71.78,626.14227659823,3.28084,6,P-GPS,
3100,2024-02-01 19:16:31,0,0,3.28084,,,626.14227659823,0.656168,0.7158208,0,0,10,0,7.976,626.14227659823,3.28084,0.7158208,0,0.223694,0.671082,-1.342164,255.9, -8.2, -0.1,0,0,1024,1024,1024,1024,0,0,0,0,255.4,0,0,99,4.009,4.017,0,0,0,0,4.023,71.78,626.14227659823,3.28084,6,P-GPS,
3200,2024-02-01 19:16:31,0,0,3.608924,,,626.47036059823,0.656168,0.8052984,0,0,10,0,7.976,626.47036059823,3.608924,0.8052984,0,0.447388,0.671082,-1.11847,255.7, -8.9, -0.2,0,0,1024,1024,1024,1024,0,0,0,0,255.4,0,0,99,4.009,4.017,0,0,0,0,4.023,71.78,626.47036059823,3.608924,6,P-GPS,
3300,2024-02-01 19:16:31,0,0,3.937008,,,626.79844459823,0.656168,0.8052984,0,0,10,0,7.976,626.79844459823,3.937008,0.8052984,0,0.447388,0.671082,-1.11847,255.5, -8.3, -0.3,0,0,1024,1024,1024,1024,0,0,0,0,255.4,0,0,99,4.009,4.017,0,0,0,0,4.023,71.78,626.79844459823,3.937008,6,P-GPS,
3400,2024-02-01 19:16:31,0,0,3.937008,,,626.79844459823,0.656168,0.4921268,0,0,10,0,7.976,626.79844459823,3.937008,0.8052984,0,0.223694,0.447388,-1.11847,255.4, -7.8, -0.5,0,0,1024,1024,1024,1024,0,0,0,0,255.4,0,0,99,4.009,4.017,0,0,0,0,4.023,71.78,626.79844459823,3.937008,6,P-GPS,
3500,2024-02-01 19:16:31,0,0,4.265092,,,627.12652859823,0.984252,0.4921268,0,0,10,0,7.976,627.12652859823,4.265092,0.8052984,0,0.223694,0.447388,-1.11847,255.4, -7.2, 0.1,0,0,1024,1024,1270,1024,0,0,37,0,255.4,0,0,99,4.009,4.017,0,0,0,0,4.023,71.78,627.12652859823,4.265092,6,P-GPS,
3600,2024-02-01 19:16:31,0,0,4.265092,,,627.12652859823,0.984252,0.4921268,0,0,10,0,7.976,627.12652859823,4.265092,0.8052984,0,0,0.447388,-1.11847,255.4, -7.5, -0.1,0,0,1024,1024,1308,1024,0,0,43,0,255.4,0,0,99,4.009,4.017,0,0,0,0,4.023,71.78,627.12652859823,4.265092,6,P-GPS,
3700,2024-02-01 19:16:32,0,0,4.265092,,,627.12652859823,0.984252,0.447388,0,0,10,0,7.976,627.12652859823,4.265092,0.8052984,0,0,0.447388,-1.11847,255.5, -7.8, 0,0,0,1024,1024,1223,1024,0,0,30,0,255.4,0,0,99,4.009,4.017,0,0,0,0,4.023,71.78,627.12652859823,4.265092,6,P-GPS,
3800,2024-02-01 19:16:32,0,0,4.593176,,,627.45461259823,0.984252,0.447388,0,0,10,2,7.976,627.45461259823,4.593176,0.8052984,0,0,0.447388,-1.11847,255.4, -7.3, -0.2,0,0,1024,1024,1207,1024,0,0,28,0,255.4,0,0,99,4.009,4.017,0,0,0,0,4.023,71.78,627.45461259823,4.593176,6,P-GPS,
3900,2024-02-01 19:16:32,0,0,4.593176,,,627.45461259823,0.984252,0.447388,0,0,10,2,7.976,627.45461259823,4.593176,0.8052984,0,0,0.447388,-0.894776,255.5, -7.3, 0.3,0,0,1024,1024,1123,1024,0,0,15,0,255.4,0,0,99,4.009,4.017,0,0,0,0,4.023,71.78,627.45461259823,4.593176,6,P-GPS,
4000,2024-02-01 19:16:32,0,0,4.92126,,,627.78269659823,0.984252,0.447388,0,0,10,2,7.976,627.78269659823,4.92126,0.8052984,0,0,0.447388,-0.671082,255.4, -7.3, 0.1,0,0,1024,1024,1111,1024,0,0,13,0,255.4,0,0,99,4.009,4.017,0,0,0,0,4.023,71.78,627.78269659823,4.92126,6,P-GPS,
4100,2024-02-01 19:16:32,0,0,4.92126,,,627.78269659823,0.656168,0.447388,0,0,10,2,7.976,627.78269659823,4.92126,0.8052984,0,0,0.447388,-0.447388,255.5, -7, 0.1,0,0,1024,1024,1271,1024,0,0,37,0,255.4,0,0,99,4.009,4.017,0,0,0,0,4.023,71.78,627.78269659823,4.92126,6,P-GPS,
4200,2024-02-01 19:16:32,0,0,4.92126,,,627.78269659823,0.656168,0.447388,0,0,10,2,7.976,627.78269659823,4.92126,0.8052984,0,0,0.447388,-0.223694,255.5, -7.1, -0.1,0,0,1024,1024,1271,1024,0,0,37,0,255.4,0,0,99,4.009,4.017,0,0,0,0,4.023,71.78,627.78269659823,4.92126,6,P-GPS,
4300,2024-02-01 19:16:32,0,0,4.92126,,,627.78269659823,0.656168,0.223694,0,0,10,2,7.976,627.78269659823,4.92126,0.8052984,0,0,0.223694,-0.223694,255.6, -7, -0.1,0,0,1024,1024,1273,1024,0,0,38,0,255.4,0,0,99,4.009,4.017,0,0,0,0,4.023,71.78,627.78269659823,4.92126,6,P-GPS,
4400,2024-02-01 19:16:32,0,0,5.249344,,,628.11078059823,0.656168,0.223694,0,0,10,2,7.976,628.11078059823,5.249344,0.8052984,0,0,0.223694,-0.447388,255.7, -6.4, 0,0,0,1024,1024,1143,1024,0,0,18,0,255.4,0,0,99,4.009,4.017,0,0,0,0,4.023,71.78,628.11078059823,5.249344,6,P-GPS,
4500,2024-02-01 19:16:32,0,0,5.249344,,,628.11078059823,0.656168,0.223694,0,0,10,2,7.976,628.11078059823,5.249344,0.8052984,0,0,0.223694,-0.447388,255.6, -5.7, -0.8,0,0,1024,1024,1368,1024,0,0,52,0,255.4,0,0,99,4.009,4.017,0,0,0,0,4.023,71.78,628.11078059823,5.249344,6,P-GPS,
4600,2024-02-01 19:16:33,0,0,5.249344,,,628.11078059823,0.656168,0.223694,0,0,10,2,7.976,628.11078059823,5.249344,0.8052984,0,0,0.223694,-0.447388,255.5, -6.1, -0.4,0,0,1024,1024,1260,1024,0,0,36,0,255.4,0,0,99,4.009,4.017,0,0,0,0,4.023,71.78,628.11078059823,5.249344,6,P-GPS,
4700,2024-02-01 19:16:33,0,0,5.577428,,,628.43886459823,0.656168,0,0,0,10,2,7.976,628.43886459823,5.577428,0.8052984,0,0,0,-0.894776,255.6, -5.4, -0.5,0,0,1024,1024,1198,1024,0,0,26,0,255.4,0,0,99,4.009,4.017,0,0,0,0,4.023,71.78,628.43886459823,5.577428,6,P-GPS,"Setting new Maximum Flight Altitude to 120m (394 ft)"
4800,2024-02-01 19:16:33,0,0,5.577428,,,628.43886459823,0.656168,0,0,0,10,2,7.999,628.43886459823,5.577428,0.8052984,0,0,0,-0.894776,255.4, -3.2, -2,0,0,1024,1024,1127,1024,0,0,16,0,255.4,0,0,99,3.989,3.979,0,0,0,0,4.008,71.78,628.43886459823,5.577428,6,P-GPS,
4900,2024-02-01 19:16:33,0,0,5.905512,,,628.76694859823,0.656168,0.223694,0,0,10,2,7.999,628.76694859823,5.905512,0.8052984,0,0,0.223694,-0.671082,255.4, -4.3, -1.7,0,0,1024,1024,1024,1024,0,0,0,0,255.4,0,0,99,3.989,3.979,0,0,0,0,4.008,71.78,628.76694859823,5.905512,6,P-GPS,
5000,2024-02-01 19:16:33,0,0,5.905512,,,628.76694859823,0.656168,0.223694,0,0,10,2,7.999,628.76694859823,5.905512,0.8052984,0,0,0.223694,-0.447388,255.4, -5.2, -1,0,0,1024,1024,1024,1024,0,0,0,0,255.4,0,0,99,3.989,3.979,0,0,0,0,4.008,71.78,628.76694859823,5.905512,6,P-GPS,
5100,2024-02-01 19:16:33,0,0,5.905512,,,628.76694859823,0.656168,0.223694,0,0,10,2,7.999,628.76694859823,5.905512,0.8052984,0,0,0.223694,-0.223694,255.4, -5.3, -1.5,0,0,1024,1024,1024,1024,0,0,0,0,255.4,0,0,99,3.989,3.979,0,0,0,0,4.008,71.78,628.76694859823,5.905512,6,P-GPS,
5200,2024-02-01 19:16:33,0,0,5.905512,,,628.76694859823,0.656168,0.223694,0,0,10,2,7.999,628.76694859823,5.905512,0.8052984,0,0,0.223694,0,255.4, -5.5, -0.1,0,0,1024,1024,1024,1024,0,0,0,0,255.4,0,0,99,3.989,3.979,0,0,0,0,4.008,71.78,628.76694859823,5.905512,6,P-GPS,
5300,2024-02-01 19:16:33,0,0,6.233596,,,629.09503259823,0.656168,0.223694,0,0,10,2,7.999,629.09503259823,6.233596,0.8052984,0,0,0.223694,0,255.4, -5.3, 0.3,0,0,1024,1024,1024,1024,0,0,0,0,255.4,0,0,99,3.989,3.979,0,0,0,0,4.008,71.78,629.09503259823,6.233596,6,P-GPS,
5400,2024-02-01 19:16:33,0,0,6.233596,,,629.09503259823,0.328084,0.223694,0,0,10,2,7.999,629.09503259823,6.233596,0.8052984,0,0,0.223694,0,255.4, -5, -0.3,0,0,1024,1024,1024,1024,0,0,0,0,255.4,0,0,99,3.989,3.979,0,0,0,0,4.008,71.78,629.09503259823,6.233596,6,P-GPS,
5500,2024-02-01 19:16:33,0,0,6.233596,,,629.09503259823,0.328084,0.223694,0,0,10,2,7.999,629.09503259823,6.233596,0.8052984,0,0,0.223694,0,255.4, -5.3, -0.5,0,0,1024,1024,1024,1024,0,0,0,0,255.4,0,0,99,3.989,3.979,0,0,0,0,4.008,71.78,629.09503259823,6.233596,6,P-GPS,
5600,2024-02-01 19:16:33,0,0,6.233596,,,629.09503259823,0.328084,0.223694,0,0,10,2,7.999,629.09503259823,6.233596,0.8052984,0,0,0.223694,0,255.4, -5.5, -1,0,0,1024,1024,1024,1024,0,0,0,0,255.4,0,0,99,3.989,3.979,0,0,0,0,4.008,71.78,629.09503259823,6.233596,6,P-GPS,
5700,2024-02-01 19:16:34,0,0,6.233596,,,629.09503259823,0.328084,0.223694,0,0,10,2,7.999,629.09503259823,6.233596,0.8052984,0,0,0.223694,0,255.4, -5.3, -0.8,0,0,1024,1024,1024,1024,0,0,0,0,255.4,0,0,99,3.989,3.979,0,0,0,0,4.008,71.78,629.09503259823,6.233596,6,P-GPS,
5800,2024-02-01 19:16:34,0,0,6.233596,,,629.09503259823,0.328084,0.223694,0,0,10,2,7.999,629.09503259823,6.233596,0.8052984,0,0,0.223694,0,255.5, -5.3, 0,0,0,1024,1024,1024,1024,0,0,0,0,255.4,0,0,99,3.989,3.979,0,0,0,0,4.008,71.78,629.09503259823,6.233596,6,P-GPS,
5900,2024-02-01 19:16:34,0,0,6.233596,,,629.09503259823,0.328084,0.223694,0,0,10,2,7.999,629.09503259823,6.233596,0.8052984,0,0,0.223694,0,255.5, -5.3, 0,0,0,1024,1024,1024,1024,0,0,0,0,255.4,0,0,99,3.989,3.979,0,0,0,0,4.008,71.78,629.09503259823,6.233596,6,P-GPS,
6000,2024-02-01 19:16:34,0,0,6.233596,,,629.09503259823,0.328084,0.223694,0,0,10,2,7.999,629.09503259823,6.233596,0.8052984,0,0,0.223694,0,255.4, -6.1, 0.1,0,0,1024,1024,1024,1024,0,0,0,0,255.4,0,0,99,4.006,4.012,0,0,0,0,4.008,71.78,629.09503259823,6.233596,6,P-GPS,
6100,2024-02-01 19:16:34,0,0,6.233596,,,629.09503259823,0.328084,0,0,0,10,2,7.999,629.09503259823,6.233596,0.8052984,0,0,0,0,255.4, -5.3, -0.4,0,0,1024,1024,1024,1024,0,0,0,0,255.4,0,0,99,4.006,4.012,0,0,0,0,4.008,71.78,629.09503259823,6.233596,6,P-GPS,
6200,2024-02-01 19:16:34,0,0,6.233596,,,629.09503259823,0.328084,0,0,0,10,2,7.999,629.09503259823,6.233596,0.8052984,0,0,0,0,255.4, -5.4, -0.6,0,0,1024,1024,1024,1024,0,0,0,0,255.4,0,0,99,4.006,4.012,0,0,0,0,4.008,71.78,629.09503259823,6.233596,6,P-GPS,
6300,2024-02-01 19:16:34,0,0,6.233596,,,629.09503259823,0.328084,0,0,0,10,2,7.999,629.09503259823,6.233596,0.8052984,0,0,0,0,255.5, -5, -0.1,0,0,1024,1024,1024,1024,0,0,0,0,255.4,0,0,99,4.006,4.012,0,0,0,0,4.008,71.78,629.09503259823,6.233596,6,P-GPS,
6400,2024-02-01 19:16:34,0,0,6.233596,,,629.09503259823,0.328084,0.223694,0,0,10,2,7.999,629.09503259823,6.233596,0.8052984,0,0,0.223694,0,255.5, -5.3, 0,0,0,1024,1024,1024,1024,0,0,0,0,255.4,0,0,99,4.006,4.012,0,0,0,0,4.008,71.78,629.09503259823,6.233596,6,P-GPS,
6500,2024-02-01 19:16:34,0,0,6.233596,,,629.09503259823,0.328084,0,0,0,10,2,7.999,629.09503259823,6.233596,0.8052984,0,0,0,0,255.5, -5, 0,0,0,1024,1024,1024,1024,0,0,0,0,255.4,0,0,99,4.006,4.012,0,0,0,0,4.008,71.78,629.09503259823,6.233596,6,P-GPS,
6600,2024-02-01 19:16:35,40.4290869498043,-86.92869006224,6.233596,,,629.09503259823,0.328084,0.223694,0,0,10,2,7.999,629.09503259823,6.233596,0.8052984,0,0,0.223694,0,255.5, -5.1, -0.3,0,0,1024,1024,1024,1024,0,0,0,0,255.4,0,0,99,4.006,4.012,0,0,0,0,4.008,71.78,629.09503259823,6.233596,6,P-GPS,
6700,2024-02-01 19:16:35,40.4290865190027,-86.9286876840118,6.233596,,,629.09503259823,0.328084,0.223694,0.67894031044,0.67894031044,10,2,7.999,629.09503259823,6.233596,0.8052984,0.67894031044,0,0.223694,0,255.5, -4.6, -1.2,0,0,1024,1024,1024,1024,0,0,0,0,255.4,0,0,99,4.006,4.012,0,0,0,0,4.008,71.78,629.09503259823,6.233596,6,P-GPS,
6800,2024-02-01 19:16:35,40.4290861018996,-86.9286853206842,6.56168,,,629.42311659823,0.328084,0.223694,1.3527067362,1.35271329788,10,2,7.999,629.42311659823,6.56168,0.8052984,1.3527067362,0,0.223694,0,255.5, -5.4, -1.6,0,0,1024,1024,1024,1024,0,0,0,0,255.4,0,0,99,4.006,4.012,0,0,0,0,4.008,71.78,629.42311659823,6.56168,6,P-GPS,
6900,2024-02-01 19:16:35,40.4290856837803,-86.9286829697812,6.56168,,,629.42311659823,0.328084,0,2.02319888364,2.02320544532,10,2,7.999,629.42311659823,6.56168,0.8052984,2.02319888364,0,0,0,255.6, -5.6, -0.9,0,0,1024,1024,1024,1024,0,0,0,0,255.4,0,0,99,4.006,4.012,0,0,0,0,4.008,71.78,629.42311659823,6.56168,6,P-GPS,
7000,2024-02-01 19:16:35,40.4290852689505,-86.9286806493994,6.56168,,,629.42311659823,0.328084,0,2.68516412792,2.6851706896,10,2,7.999,629.42311659823,6.56168,0.8052984,2.68516412792,0,0,0,255.6, -4.9, -0.9,0,0,1024,1024,1024,1024,0,0,0,0,255.4,0,0,99,4.006,4.012,0,0,0,0,4.008,71.78,629.42311659823,6.56168,6,P-GPS,
7100,2024-02-01 19:16:35,40.4290520335973,-86.9289138460104,6.56168,,,629.42311659823,0.328084,0,63.442915416,68.575461512,10,2,7.999,629.42311659823,6.56168,0.8052984,63.442915416,0,0,0,255.5, -4.7, -1.6,0,0,1024,1024,1024,1024,0,0,0,0,255.4,0,0,99,4.006,4.012,0,0,0,0,4.008,71.78,629.42311659823,6.56168,6,P-GPS,
7200,2024-02-01 19:16:35,40.4290118347749,-86.929196773496,6.56168,,,629.42311659823,0.328084,0,143.37106758,148.509191104,10,2,7.999,629.42311659823,6.56168,0.8052984,143.37106758,0,0,0,255.6, -3.7, -1.3,0,0,1024,1024,1024,1024,0,0,0,0,255.4,0,0,99,4.006,4.012,0,0,0,0,4.008,71.78,629.42311659823,6.56168,6,P-GPS,
7300,2024-02-01 19:16:35,40.429004149914,-86.9292536939331,6.56168,,,629.42311659823,0.328084,0,159.4242177,164.564309728,10,2,7.999,629.42311659823,6.56168,0.8052984,159.4242177,0,0,0,255.5, -3.7, -0.3,0,0,1024,1024,1024,1024,0,0,0,0,255.4,0,0,99,4.006,4.012,0,0,0,0,4.008,71.78,629.42311659823,6.56168,6,P-GPS,
7400,2024-02-01 19:16:35,40.4290045733734,-86.9292540723196,6.889764,,,629.75120059823,0.328084,0,159.4980366,164.750989524,10,2,7.999,629.75120059823,6.889764,0.8052984,159.4980366,0,0,0,255.5, -3.9, -0.7,0,0,1024,1024,1024,1024,0,0,0,0,255.4,0,0,99,4.006,4.012,0,0,0,0,4.008,71.78,629.75120059823,6.889764,6,P-GPS,
7500,2024-02-01 19:16:35,40.4290069872356,-86.929256340137,6.889764,,,629.75120059823,0.328084,0,159.953745276,165.833666724,10,2,7.999,629.75120059823,6.889764,0.8052984,159.953745276,0,0,0,255.5, -4.3, -1.1,0,0,1024,1024,1024,1024,0,0,0,0,255.4,0,0,99,4.006,4.012,0,0,0,0,4.008,71.78,629.75120059823,6.889764,6,P-GPS,
7600,2024-02-01 19:16:36,40.4290069976396,-86.9292563514761,6.889764,,,629.75120059823,0.328084,0,159.956041864,165.838587984,10,2,7.999,629.75120059823,6.889764,0.8052984,159.956041864,0,0,0,255.5, -4.2, -0.8,0,0,1024,1024,1024,1024,0,0,0,0,255.4,0,0,99,4.006,4.012,0,0,0,0,4.008,71.78,629.75120059823,6.889764,6,P-GPS,
7700,2024-02-01 19:16:36,40.4290066309235,-86.929256388723,6.889764,,,629.75120059823,0.328084,0,159.990818768,165.97277434,10,2,8.007,629.75120059823,6.889764,0.8052984,159.990818768,0,0,0,255.5, -3.9, -0.3,0,0,1024,1024,1024,1024,0,0,0,0,255.4,0,0,99,3.992,3.997,0,0,0,0,3.92,71.96,629.75120059823,6.889764,6,P-GPS,
7800,2024-02-01 19:16:36,40.4290062913446,-86.9292564329117,6.889764,,,629.75120059823,0.328084,0,160.025595672,166.09744626,10,2,8.007,629.75120059823,6.889764,0.8052984,160.025595672,0,0,0,255.5, -3.8, -0.9,0,0,1024,1024,1024,1024,0,0,0,0,255.4,0,0,99,3.992,3.997,0,0,0,0,3.92,71.96,629.75120059823,6.889764,6,P-GPS,
7900,2024-02-01 19:16:36,40.429005332329,-86.9292567223663,6.889764,,,629.75120059823,0.328084,0,160.169296464,166.456370156,10,2,8.007,629.75120059823,6.889764,0.8052984,160.169296464,0,0,0,255.6, -3.6, -0.3,0,0,1024,1024,1024,1024,0,0,0,0,255.4,0,0,99,3.992,3.997,0,0,0,0,3.92,71.96,629.75120059823,6.889764,6,P-GPS,
8000,2024-02-01 19:16:36,40.4290051144778,-86.9292567834709,7.217848,,,630.07928459823,0.328084,0.223694,160.200792528,166.537734988,10,2,8.007,630.07928459823,7.217848,0.8052984,160.200792528,0.223694,0,0,255.5, -3.1, -1.3,0,0,1024,1024,1024,1024,0,0,0,0,255.4,0,0,99,3.992,3.997,0,0,0,0,3.92,71.96,630.07928459823,7.217848,6,P-GPS,
8100,2024-02-01 19:16:36,40.4290050259002,-86.9292568434397,7.217848,,,630.07928459823,0.328084,0.223694,160.22310224,166.574152312,10,2,8.007,630.07928459823,7.217848,0.8052984,160.22310224,0.223694,0,0,255.5, -3.2, -1.2,0,0,1024,1024,1024,1024,0,0,0,0,255.4,0,0,99,3.992,3.997,0,0,0,0,3.92,71.96,630.07928459823,7.217848,6,P-GPS,
8200,2024-02-01 19:16:36,40.4290049582449,-86.929256905913,7.217848,,,630.07928459823,0.328084,0.223694,160.244755784,166.60433604,10,2,8.007,630.07928459823,7.217848,0.8052984,160.244755784,0.223694,0,0,255.5, -2.2, -2.2,0,0,1024,1024,1024,1024,0,0,0,0,255.4,0,0,99,3.992,3.997,0,0,0,0,3.92,71.96,630.07928459823,7.217848,6,P-GPS,
8300,2024-02-01 19:16:36,40.4290049743301,-86.9292569864799,7.217848,,,630.07928459823,0.328084,0.223694,160.26575316,166.62730192,10,2,8.007,630.07928459823,7.217848,0.8052984,160.26575316,0.223694,0,0,255.6, -2.3, -1.8,0,0,1024,1024,1024,1024,0,0,0,0,255.4,0,0,99,3.992,3.997,0,0,0,0,3.92,71.96,630.07928459823,7.217848,6,P-GPS,
8400,2024-02-01 19:16:36,40.4290051662784,-86.9292571718492,7.217848,,,630.07928459823,0.328084,0.223694,160.303154736,166.71424418,10,2,8.007,630.07928459823,7.217848,0.8052984,160.303154736,0.223694,0,0,255.5, -1.6, -2,0,0,1024,1024,1024,1024,0,0,0,0,255.4,0,0,99,3.992,3.997,0,0,0,0,3.92,71.96,630.07928459823,7.217848,6,P-GPS,
8500,2024-02-01 19:16:36,40.4290051723822,-86.9292572734571,7.217848,,,630.07928459823,0.328084,0.223694,160.330385708,166.742459404,10,2,8.007,630.07928459823,7.217848,0.8052984,160.330385708,0.223694,0,0,255.4, -1.4, -2,0,0,1024,1024,1024,1024,0,0,0,0,255.4,0,0,99,3.992,3.997,0,0,0,0,3.92,71.96,630.07928459823,7.217848,6,P-GPS,
8600,2024-02-01 19:16:37,40.4290051845156,-86.9292573579458,7.545932,,,630.40736859823,0.328084,0.223694,160.35269542,166.766409536,10,2,8.007,630.40736859823,7.545932,0.8052984,160.35269542,0.223694,0,0,255.4, -0.9, -2.5,0,0,1024,1024,1024,1024,0,0,0,0,255.4,0,0,99,3.992,3.997,0,0,0,0,3.92,71.96,630.40736859823,7.545932,6,P-GPS,
8700,2024-02-01 19:16:37,40.4290052404282,-86.9292574196921,7.545932,,,630.40736859823,0.328084,0.223694,160.36581878,166.79298434,10,2,8.007,630.40736859823,7.545932,0.8052984,160.36581878,0.223694,0,0,255.5, -1, -2.2,0,0,1024,1024,1024,1024,0,0,0,0,255.4,0,0,99,3.992,3.997,0,0,0,0,3.92,71.96,630.40736859823,7.545932,6,P-GPS,
8800,2024-02-01 19:16:37,40.4290054366475,-86.9292576442961,7.545932,,,630.40736859823,0.328084,0.223694,160.413719044,166.8881287,10,2,8.007,630.40736859823,7.545932,0.8052984,160.413719044,0.223694,0,0,255.4, -0.2, -3.2,0,0,1024,1024,1024,1024,0,0,0,0,255.4,0,0,99,3.992,3.997,0,0,0,0,3.92,71.96,630.40736859823,7.545932,6,P-GPS,
8900,2024-02-01 19:16:37,40.4290055697643,-86.9292577019899,7.545932,,,630.40736859823,0.328084,0,160.420608808,166.939309804,10,2,8.007,630.40736859823,7.545932,0.8052984,160.420608808,0,0,0,255.3, 0, -2.6,0,0,1024,1024,1024,1024,0,0,0,0,255.4,0,0,99,3.992,3.997,0,0,0,0,3.92,71.96,630.40736859823,7.545932,6,P-GPS,
9000,2024-02-01 19:16:37,40.4290056925903,-86.9292577207873,7.545932,,,630.40736859823,0.328084,0,160.417327968,166.984257312,10,2,8.007,630.40736859823,7.545932,0.8052984,160.420608808,0,0,0,255, 1, -2.9,0,0,1024,1024,1024,1024,0,0,0,0,255.4,0,0,99,3.996,4.001,0,0,0,0,3.92,71.96,630.40736859823,7.545932,6,P-GPS,
9100,2024-02-01 19:16:37,40.4290058047484,-86.9292576980669,7.545932,,,630.40736859823,0.328084,0,160.40354844,167.025595896,10,2,8.007,630.40736859823,7.545932,0.8052984,160.420608808,0,0,0,255.1, -0.2, -2,0,0,1024,1024,1024,1024,0,0,0,0,255.4,0,0,99,3.996,4.001,0,0,0,0,3.92,71.96,630.40736859823,7.545932,6,P-GPS,
9200,2024-02-01 19:16:37,40.4290062194401,-86.9292578880323,7.545932,,,630.40736859823,0.328084,0.223694,160.427498572,167.186028972,10,2,8.007,630.40736859823,7.545932,0.8052984,160.427498572,0,0.223694,0.223694,255.3, -2.8, -1.7,0,0,1024,1024,1024,1024,0,0,0,0,255.4,0,0,99,3.996,4.001,0,0,0,0,3.92,71.96,630.40736859823,7.545932,6,P-GPS,
9300,2024-02-01 19:16:37,40.4290062925712,-86.9292577103736,7.217848,,,630.07928459823,0.328084,0.223694,160.37402088,167.242131336,10,2,8.007,630.40736859823,7.545932,0.8052984,160.427498572,0,0.223694,0,255.3, -3.3, 0.9,0,0,1024,1024,1024,1024,0,0,0,0,255.4,0,0,99,3.996,4.001,0,0,0,0,3.92,71.96,630.07928459823,7.217848,6,P-GPS,
9400,2024-02-01 19:16:37,40.4290063476347,-86.9292575401604,7.217848,,,630.07928459823,0.328084,0.223694,160.324152112,167.29331244,10,2,8.007,630.40736859823,7.545932,0.8052984,160.427498572,0,0.223694,0,255.3, -3.7, 1.6,0,0,1024,1024,1024,1024,0,0,0,0,255.4,0,0,99,3.996,4.001,0,0,0,0,3.92,71.96,630.07928459823,7.217848,6,P-GPS,
9500,2024-02-01 19:16:37,40.4290065162388,-86.9292573545425,7.217848,,,630.07928459823,0.328084,0.223694,160.262144236,167.37369302,10,2,8.007,630.40736859823,7.545932,0.8052984,160.427498572,0,0.223694,0,255.3, -3.3, 1.3,0,0,1024,1024,1024,1024,0,0,0,0,255.4,0,0,99,3.996,4.001,0,0,0,0,3.92,71.96,630.07928459823,7.217848,6,P-GPS,
9600,2024-02-01 19:16:38,40.4290066809296,-86.9292571832125,7.217848,,,630.07928459823,0.328084,0,160.204401452,167.450464676,10,2,8.007,630.40736859823,7.545932,0.8052984,160.427498572,0,0,0,255.3, -3.5, 0.3,0,0,1024,1024,1024,1024,0,0,0,0,255.4,0,0,99,3.996,4.001,0,0,0,0,3.92,71.96,630.07928459823,7.217848,6,P-GPS,
9700,2024-02-01 19:16:38,40.4290069640056,-86.9292570958496,7.217848,,,630.07928459823,0.328084,0.223694,160.161750532,167.556435808,10,2,8.007,630.40736859823,7.545932,0.8052984,160.427498572,0,0.223694,0,255.3, -3.4, 0.6,0,0,1024,1024,1024,1024,0,0,0,0,255.4,0,0,99,3.996,4.001,0,0,0,0,3.92,71.96,630.07928459823,7.217848,6,P-GPS,
9800,2024-02-01 19:16:38,40.429007226731,-86.9292570219769,7.217848,,,630.07928459823,0.328084,0,160.124020872,167.654532924,10,2,8.007,630.40736859823,7.545932,0.8052984,160.427498572,0,0,0,255.3, -4.6, -0.2,0,0,1024,1024,1024,1024,0,0,0,0,255.4,0,0,99,3.996,4.001,0,0,0,0,3.92,71.96,630.07928459823,7.217848,6,P-GPS,
9900,2024-02-01 19:16:38,40.4290072034316,-86.9292568866286,7.217848,,,630.07928459823,0.328084,0.223694,160.0885878,167.692918752,10,2,8.007,630.40736859823,7.545932,0.8052984,160.427498572,0,0.223694,0.223694,255.3, -4.1, 0.3,0,0,1024,1024,1024,1024,0,0,0,0,255.4,0,0,99,3.996,4.001,0,0,0,0,3.92,71.96,630.07928459823,7.217848,6,P-GPS,
10000,2024-02-01 19:16:38,40.429007155135,-86.929256779035,6.889764,,,629.75120059823,0.328084,0,160.06234108,167.727695656,10,2,8.007,630.40736859823,7.545932,0.8052984,160.427498572,0,0,0,255.3, -4.3, 0.9,0,0,1024,1024,1024,1024,0,0,0,0,255.4,0,0,99,3.996,4.001,0,0,0,0,3.92,71.96,629.75120059823,6.889764,6,P-GPS,
10100,2024-02-01 19:16:38,40.4290070706692,-86.9292565259459,6.889764,,,629.75120059823,0.328084,0,159.999020868,167.804467312,10,2,8.007,630.40736859823,7.545932,0.8052984,160.427498572,0,0,0,255.3, -4.2, 0.9,0,0,1024,1024,1024,1024,0,0,0,0,255.4,0,0,99,3.996,4.001,0,0,0,0,3.92,71.96,629.75120059823,6.889764,6,P-GPS,
10200,2024-02-01 19:16:38,40.4290069994694,-86.9292564316891,6.889764,,,629.75120059823,0.328084,0,159.978023492,167.84121272,10,2,8.007,630.40736859823,7.545932,0.8052984,160.427498572,0,0,0,255.3, -3.2, 1.8,0,0,1024,1024,1024,1024,0,0,0,0,255.4,0,0,99,3.996,4.001,0,0,0,0,3.92,71.96,629.75120059823,6.889764,6,P-GPS,
10300,2024-02-01 19:16:38,40.4290068384125,-86.9292564323083,6.889764,,,629.75120059823,0.328084,0,159.988850264,167.899939756,10,2,8.007,630.40736859823,7.545932,0.8052984,160.427498572,0,0,0,255.4, -2.7, 2.7,0,0,1024,1024,1024,1024,0,0,0,0,255.4,0,0,99,3.996,4.001,0,0,0,0,3.92,71.96,629.75120059823,6.889764,6,P-GPS,
10400,2024-02-01 19:16:38,40.4290066933533,-86.9292564425749,6.889764,,,629.75120059823,0.328084,0,160.001317456,167.953089364,10,2,8.007,630.40736859823,7.545932,0.8052984,160.427498572,0,0,0,255.4, -3.2, 2.9,0,0,1024,1024,1024,1024,0,0,0,0,255.4,0,0,99,3.996,4.001,0,0,0,0,3.92,71.96,629.75120059823,6.889764,6,P-GPS,
10500,2024-02-01 19:16:38,40.4290061769617,-86.9292564125669,6.889764,,,629.75120059823,0.328084,0,160.027564176,168.141737664,10,2,8.007,630.40736859823,7.545932,0.8052984,160.427498572,0,0,0,255.4, -3.2, 2.4,0,0,1024,1024,1024,1024,0,0,0,0,255.4,0,0,99,3.996,4.001,0,0,0,0,3.92,71.96,629.75120059823,6.889764,6,P-GPS,
10600,2024-02-01 19:16:38,40.429005996677,-86.9292563905877,6.56168,,,629.42311659823,0.328084,0,160.033797772,168.207682548,10,2,8.007,630.40736859823,7.545932,0.8052984,160.427498572,0,0,0,255.4, -4.6, 1.9,0,0,1024,1024,1024,1024,0,0,0,0,255.4,0,0,99,3.996,4.001,0,0,0,0,3.92,71.96,629.42311659823,6.56168,6,P-GPS,
10700,2024-02-01 19:16:39,40.4290058356658,-86.9292563170901,6.56168,,,629.42311659823,0.328084,0,160.02461142,168.270018508,10,2,8.007,630.40736859823,7.545932,0.8052984,160.427498572,0,0,0,255.3, -4.8, 2,0,0,1024,1024,1024,1024,0,0,0,0,255.4,0,0,99,3.996,4.001,0,0,0,0,3.92,71.96,629.42311659823,6.56168,6,P-GPS,
10800,2024-02-01 19:16:39,40.4290056824127,-86.9292562708873,6.56168,,,629.42311659823,0.328084,0,160.022314832,168.327433208,10,2,7.991,630.40736859823,7.545932,0.8052984,160.427498572,0,0,0,255.3, -5.2, 1.5,0,0,1024,1024,1024,1024,0,0,0,0,255.4,0,0,99,3.994,4,0,0,0,0,3.921,71.96,629.42311659823,6.56168,6,P-GPS,
10900,2024-02-01 19:16:39,40.4290055716647,-86.9292558711703,6.56168,,,629.42311659823,0.328084,0,159.920608792,168.445543448,10,2,7.991,630.40736859823,7.545932,0.8052984,160.427498572,0,0,0,255.3, -4.9, 1.7,0,0,1024,1024,1024,1024,0,0,0,0,255.4,0,0,99,3.994,4,0,0,0,0,3.921,71.96,629.42311659823,6.56168,6,P-GPS,
11000,2024-02-01 19:16:39,40.4290055101048,-86.9292558127,6.56168,,,629.42311659823,0.328084,0,159.908797768,168.473102504,10,2,7.991,630.40736859823,7.545932,0.8052984,160.427498572,0,0,0,255.3, -5, 1.2,0,0,1024,1024,1024,1024,0,0,0,0,255.4,0,0,99,3.994,4,0,0,0,0,3.921,71.96,629.42311659823,6.56168,6,P-GPS,
11100,2024-02-01 19:16:39,40.4290053406133,-86.9292558352266,6.56168,,,629.42311659823,0.328084,0,159.926514304,168.535438464,10,2,7.991,630.40736859823,7.545932,0.8052984,160.427498572,0,0,0,255.3, -5.3, 1.6,0,0,1024,1024,1024,1024,0,0,0,0,255.4,0,0,99,3.994,4,0,0,0,0,3.921,71.96,629.42311659823,6.56168,6,P-GPS,
11200,2024-02-01 19:16:39,40.4290051765486,-86.929255868795,6.233596,,,629.09503259823,0.328084,0,159.946855512,168.59580592,10,2,7.991,630.40736859823,7.545932,0.8052984,160.427498572,0,0,0,255.2, -4.9, 2.3,0,0,1024,1057,1024,1024,0,5,0,0,255.4,0,0,99,3.994,4,0,0,0,0,3.921,71.96,629.09503259823,6.233596,6,P-GPS,
11300,2024-02-01 19:16:39,40.4290048181716,-86.9292558976011,6.233596,,,629.09503259823,0.328084,0,159.979335828,168.72703952,10,2,7.991,630.40736859823,7.545932,0.8052984,160.427498572,0,0,0,255.3, -4.3, 2.9,0,0,1024,1684,1024,1024,0,100,0,0,255.4,0,0,99,3.994,4,0,0,0,0,3.921,71.96,629.09503259823,6.233596,6,P-GPS,
11400,2024-02-01 19:16:39,40.4290046749317,-86.9292559353176,6.233596,,,629.09503259823,0.328084,0,159.999348952,168.780189128,10,2,7.991,630.40736859823,7.545932,0.8052984,160.427498572,0,0,0,254.9, -4.7, 5.3,0,0,1024,1684,1024,1024,0,100,0,0,255.4,0,0,99,3.994,4,0,0,0,0,3.921,71.96,629.09503259823,6.233596,6,P-GPS,
11500,2024-02-01 19:16:39,40.4290045284627,-86.9292560397621,6.233596,,,629.09503259823,0.328084,0,160.03773478,168.840884668,10,2,7.991,630.40736859823,7.545932,0.8052984,160.427498572,0,0,0,254.4, -4.6, 18.2,0,0,1024,1024,1024,1024,0,0,0,0,255.4,0,0,99,3.994,4,0,0,0,0,3.921,71.96,629.09503259823,6.233596,6,P-GPS,
11600,2024-02-01 19:16:40,40.4290045459308,-86.9292561924695,6.233596,,,629.09503259823,0.328084,0.7158208,160.078417196,168.883863672,11,2,7.991,630.40736859823,7.545932,0.8052984,160.427498572,0.671082,-0.223694,0,254.2, -4.6, 22.7,0,0,1024,1024,1024,1024,0,0,0,0,255.4,0,0,99,3.994,4,0,0,0,0,3.921,71.96,629.09503259823,6.233596,6,P-GPS,
11700,2024-02-01 19:16:40,40.4290048904473,-86.9292564023617,6.233596,,,629.09503259823,0.328084,1.4092722,160.111881764,169.02231512,11,4,7.991,630.40736859823,7.545932,1.4092722,160.427498572,1.342164,-0.447388,0,254.7, -5.3, 7.2,0,0,1024,1024,1024,1024,0,0,0,0,255.4,0,0,99,3.994,4,0,0,0,0,3.921,71.96,629.09503259823,6.233596,6,P-GPS,"Gimbal stuck. Check whether gimbal cover is removed and make sure gimbal can rotate freely on all three axes (Code: 40028). Home Point updated. RTH altitude adjusted to 100 m (Code: 120852)"
11800,2024-02-01 19:16:40,40.4290052038535,-86.9292567040306,6.233596,,,629.09503259823,0.328084,1.4092722,160.172905388,169.164047408,11,4,7.991,630.40736859823,7.545932,1.4092722,160.427498572,1.342164,-0.447388,0,255.2, -2.2, -5.8,0,0,1024,1024,1024,1024,0,0,0,0,255.4,0,0,99,3.994,4,0,0,0,0,3.921,71.96,629.09503259823,6.233596,6,P-GPS,
11900,2024-02-01 19:16:40,40.429005615374,-86.9292568974155,6.233596,,,629.09503259823,0.328084,0.9171454,160.197839772,169.323496232,11,4,7.991,630.40736859823,7.545932,1.4092722,160.427498572,0.894776,-0.223694,0,255.4, -1.4, -7.6,0,0,1024,1024,1024,1024,0,0,0,0,255.4,0,0,99,3.994,4,0,0,0,0,3.921,71.96,629.09503259823,6.233596,6,P-GPS,
12000,2024-02-01 19:16:40,40.4290058718421,-86.9292569866141,6.233596,,,629.09503259823,0.328084,0.671082,160.204729536,169.420281012,11,4,7.991,630.40736859823,7.545932,1.4092722,160.427498572,0.671082,0,0,255.4, -1.6, -5.7,0,0,1024,1024,1024,1024,0,0,0,0,255.4,0,0,99,3.994,4,0,0,0,0,3.921,71.96,629.09503259823,6.233596,6,P-GPS,
12100,2024-02-01 19:16:40,40.4290060472444,-86.9292570375017,6.233596,,,629.09503259823,0.328084,0.223694,160.207026124,169.485897812,11,4,7.991,630.40736859823,7.545932,1.4092722,160.427498572,0,-0.223694,0,255.4, -2.5, -3.3,0,0,1024,1301,1024,1024,0,42,0,0,255.4,0,0,99,3.992,3.998,0,0,0,0,3.921,71.96,629.09503259823,6.233596,6,P-GPS,
12200,2024-02-01 19:16:40,40.4290061553159,-86.9292569644073,5.905512,,,628.76694859823,0.328084,0,160.179795152,169.530189152,11,4,7.991,630.40736859823,7.545932,1.4092722,160.427498572,0,0,0,255.4, -3.2, -1.5,0,0,1024,1684,1024,1024,0,100,0,0,255.4,0,0,99,3.992,3.998,0,0,0,0,3.921,71.96,628.76694859823,5.905512,6,P-GPS,
12300,2024-02-01 19:16:40,40.4290061226302,-86.9292570912708,5.905512,,,628.76694859823,0.328084,0.223694,160.21654056,169.567590728,11,4,7.991,630.40736859823,7.545932,1.4092722,160.427498572,0,-0.223694,0,255, -3.6, 7,0,0,1024,1024,1024,1024,0,0,0,0,255.4,0,0,99,3.992,3.998,0,0,0,0,3.921,71.96,628.76694859823,5.905512,6,P-GPS,
12400,2024-02-01 19:16:40,40.4290061396291,-86.9292572197457,5.905512,,,628.76694859823,0.328084,0.3131716,160.250333212,169.603679968,17,4,7.991,630.40736859823,7.545932,1.4092722,160.427498572,0.223694,-0.223694,0,254.7, -2.4, 21,0,0,1024,1024,1024,1024,0,0,0,0,255.4,0,0,99,3.992,3.998,0,0,0,0,3.921,71.96,628.76694859823,5.905512,6,P-GPS,
12500,2024-02-01 19:16:40,40.4290063148328,-86.9292575903102,5.905512,,,628.76694859823,0.328084,1.1408394,160.339900144,169.724742964,17,4,7.991,630.40736859823,7.545932,1.4092722,160.427498572,1.11847,-0.223694,0,257.2, -4.8, 9.7,0,0,1024,1024,1024,1024,0,0,0,0,255.4,0,0,99,3.992,3.998,0,0,0,0,3.921,71.96,628.76694859823,5.905512,6,P-GPS,
12600,2024-02-01 19:16:41,40.4290066999504,-86.9292584497552,5.905512,,,628.76694859823,0.328084,1.5882274,160.548889652,170.001973944,17,4,7.991,630.40736859823,7.545932,1.5882274,160.548889652,1.565858,-0.223694,0,257.9, -3.6, -3.6,0,0,1024,1024,1024,1024,0,0,0,0,255.4,0,0,99,3.992,3.998,0,0,0,0,3.921,71.96,628.76694859823,5.905512,6,P-GPS,
12700,2024-02-01 19:16:41,40.4290073507358,-86.929258626827,6.233596,,,629.09503259823,0.328084,1.5882274,160.554138996,170.24442802,17,4,7.991,630.40736859823,7.545932,1.5882274,160.554138996,1.342164,-0.223694,0,257.7, -2.8, -8.1,0,0,1024,1024,1024,1024,0,0,0,0,255.4,0,0,98,3.992,3.998,0,0,0,0,3.921,71.96,629.09503259823,6.233596,6,P-GPS,
12800,2024-02-01 19:16:41,40.4290078689098,-86.9292587319897,6.233596,,,629.09503259823,0.328084,1.11847,160.548889652,170.435700992,17,4,7.991,630.40736859823,7.545932,1.5882274,160.554138996,1.11847,0,0,257.5, -3.1, -7.6,0,0,1024,1024,1024,1024,0,0,0,0,255.4,0,0,98,3.992,3.998,0,0,0,0,3.921,71.96,629.09503259823,6.233596,6,P-GPS,
12900,2024-02-01 19:16:41,40.4290082974664,-86.9292587825812,6.233596,,,629.09503259823,0.328084,0.671082,160.534453956,170.592525144,17,4,7.991,630.40736859823,7.545932,1.5882274,160.554138996,0.671082,0,0,257.8, -3.9, -6.3,0,0,1024,1024,1024,1024,0,0,0,0,255.4,0,0,98,3.992,3.998,0,0,0,0,3.921,71.96,629.09503259823,6.233596,6,P-GPS,
13000,2024-02-01 19:16:41,40.429008628292,-86.9292587795197,6.233596,,,629.09503259823,0.328084,0.447388,160.512144244,170.713260056,17,4,7.991,630.40736859823,7.545932,1.5882274,160.554138996,0.447388,0,0,257.8, -4.5, -4.6,0,0,1024,1024,1024,1024,0,0,0,0,255.4,0,0,98,3.992,3.998,0,0,0,0,3.921,71.96,629.09503259823,6.233596,6,P-GPS,
13100,2024-02-01 19:16:41,40.429008924772,-86.9292592246023,6.233596,,,629.09503259823,0.328084,0.3131716,160.614506452,170.87763014,17,4,7.991,630.40736859823,7.545932,1.5882274,160.614506452,0.223694,-0.223694,0,257.7, -4.1, -3.3,0,0,1024,1024,1024,1024,0,0,0,0,255.4,0,0,98,3.992,3.998,0,0,0,0,3.921,71.96,629.09503259823,6.233596,6,P-GPS,
13200,2024-02-01 19:16:41,40.4290091701472,-86.9292596519032,6.233596,,,629.09503259823,0.328084,0.223694,160.715556324,171.026252192,17,4,7.991,630.40736859823,7.545932,1.5882274,160.715556324,0,-0.223694,0,257.4, -3.2, -2.2,0,0,1024,1024,1024,1024,0,0,0,0,255.4,0,0,98,3.992,3.998,0,0,0,0,3.921,71.96,629.09503259823,6.233596,6,P-GPS,
13300,2024-02-01 19:16:41,40.4290092281451,-86.9292599600889,6.233596,,,629.09503259823,0.328084,0,160.795936904,171.114506788,17,4,7.991,630.40736859823,7.545932,1.5882274,160.795936904,0,0,0,257.6, -3.1, -2,0,0,1024,1024,1024,1024,0,0,0,0,255.4,0,0,98,3.992,3.998,0,0,0,0,3.921,71.96,629.09503259823,6.233596,6,P-GPS,
13400,2024-02-01 19:16:41,40.4290092608421,-86.9292602332457,6.56168,,,629.42311659823,0.328084,0,160.868771552,171.191278444,17,4,7.991,630.40736859823,7.545932,1.5882274,160.868771552,0,0,0,257.6, -3, -1.7,0,0,1024,1024,1024,1024,0,0,0,0,255.4,0,0,98,3.992,3.998,0,0,0,0,3.921,71.96,629.42311659823,6.56168,6,P-GPS,
13500,2024-02-01 19:16:41,40.4290091948739,-86.9292606136265,6.56168,,,629.42311659823,0.328084,0,160.977039272,171.299546164,17,4,7.991,630.40736859823,7.545932,1.5882274,160.977039272,0,0,0,257.4, -3.2, -1,0,0,1024,1024,1024,1024,0,0,0,0,255.4,0,0,98,3.992,3.998,0,0,0,0,3.921,71.96,629.42311659823,6.56168,6,P-GPS,
13600,2024-02-01 19:16:42,40.4290092336203,-86.9292606160377,6.56168,,,629.42311659823,0.328084,0,160.975070768,171.313653776,17,4,7.991,630.40736859823,7.545932,1.5882274,160.977039272,0,0,0,257.4, -4.3, -1.5,0,0,1024,1024,1024,1024,0,0,0,0,255.4,0,0,98,3.992,3.998,0,0,0,0,3.921,71.96,629.42311659823,6.56168,6,P-GPS,
13700,2024-02-01 19:16:42,40.4290092861117,-86.929260547086,6.56168,,,629.42311659823,0.328084,0,160.952761056,171.340884748,17,4,7.979,630.40736859823,7.545932,1.5882274,160.977039272,0,0,0,257.3, -4.4, -1.9,0,0,1024,1024,1024,1024,0,0,0,0,255.4,0,0,98,3.985,3.991,0,0,0,0,4.165,72.14,629.42311659823,6.56168,6,P-GPS,
13800,2024-02-01 19:16:42,40.4290093273948,-86.9292604856031,6.56168,,,629.42311659823,0.328084,0,160.9334041,171.363522544,17,4,7.979,630.40736859823,7.545932,1.5882274,160.977039272,0,0,0,257.2, -5, -1.9,0,0,1024,1024,1024,1024,0,0,0,0,255.4,0,0,98,3.985,3.991,0,0,0,0,4.165,72.14,629.42311659823,6.56168,6,P-GPS,
14000,2024-02-01 19:16:42,40.4290093012912,-86.9292601045824,6.56168,,,629.42311659823,0.328084,0,160.831041892,171.46982176,17,4,7.979,630.40736859823,7.545932,1.5882274,160.977039272,0,0,0,256.9, -4.5, -1.4,0,0,1024,1024,1024,1024,0,0,0,0,255.4,0,0,98,3.985,3.991,0,0,0,0,4.165,72.14,629.42311659823,6.56168,6,P-GPS,
14100,2024-02-01 19:16:42,40.4290093512764,-86.9292600667978,6.56168,,,629.42311659823,0.328084,0,160.817262364,171.490819136,17,4,7.979,630.40736859823,7.545932,1.5882274,160.977039272,0,0,0,256.8, -4.3, -1.2,0,0,1024,1024,1024,869,0,0,0,-23,255.4,0,0,98,3.985,3.991,0,0,0,0,4.165,72.14,629.42311659823,6.56168,6,P-GPS,
14200,2024-02-01 19:16:42,40.4290093849261,-86.9292600363326,6.56168,,,629.42311659823,0.328084,0,160.806763676,171.505911,17,4,7.979,630.40736859823,7.545932,1.5882274,160.977039272,0,0,0,256.7, -4.6, -0.2,0,0,1024,1024,1024,642,0,0,0,-58,255.4,0,0,98,3.985,3.991,0,0,0,0,4.165,72.14,629.42311659823,6.56168,6,P-GPS,
14300,2024-02-01 19:16:42,40.4290094043478,-86.9292599463778,6.56168,,,629.42311659823,0.328084,0,160.781173124,171.531829636,17,4,7.979,630.40736859823,7.545932,1.5882274,160.977039272,0,0,0,256.4, -4, 0.9,0,0,1024,1024,1024,1024,0,0,0,0,255,0,0,98,3.985,3.991,0,0,0,0,4.165,72.14,629.42311659823,6.56168,6,P-GPS,
14400,2024-02-01 19:16:42,40.4290093997799,-86.9292599645274,6.56168,,,629.42311659823,0.328084,0,160.786422468,171.53707898,17,4,7.979,630.40736859823,7.545932,1.5882274,160.977039272,0,0,0,255.9, -4.1, 1.5,0,0,1024,1024,1024,1024,0,0,0,0,253.8,0,0,98,3.985,3.991,0,0,0,0,4.165,72.14,629.42311659823,6.56168,6,P-GPS,
14500,2024-02-01 19:16:42,40.429009336075,-86.9292600438754,6.56168,,,629.42311659823,0.328084,0,160.81201302,171.569231212,17,4,7.979,630.40736859823,7.545932,1.5882274,160.977039272,0,0,0,254.9, -3.3, 1,0,0,1024,1024,1024,1024,0,0,0,0,253.3,0,0,98,3.985,3.991,0,0,0,0,4.165,72.14,629.42311659823,6.56168,6,P-GPS,
14600,2024-02-01 19:16:43,40.4290092959421,-86.9292601249924,6.56168,,,629.42311659823,0.328084,0,160.836947404,171.595806016,17,4,7.979,630.40736859823,7.545932,1.5882274,160.977039272,0,0,0,254.3, -3.4, 0.6,0,0,1024,1024,1024,1024,0,0,0,0,253.3,0,0,98,3.985,3.991,0,0,0,0,4.165,72.14,629.42311659823,6.56168,6,P-GPS,
14700,2024-02-01 19:16:43,40.4290090419765,-86.9292602273041,6.233596,,,629.09503259823,0.328084,0,160.881238744,171.69291888,17,4,7.979,630.40736859823,7.545932,1.5882274,160.977039272,0,0,0,254.1, -3.8, 1,0,0,1024,1024,1024,714,0,0,0,-47,253.3,0,0,98,3.985,3.991,0,0,0,0,4.165,72.14,629.09503259823,6.233596,6,P-GPS,
14800,2024-02-01 19:16:43,40.4290090180189,-86.9292602796053,6.233596,,,629.09503259823,0.328084,0,160.896986776,171.709651164,17,4,7.979,630.40736859823,7.545932,1.5882274,160.977039272,0,0,0,254.1, -4.7, 1.9,0,0,1024,1024,1024,617,0,0,0,-62,253.3,0,0,98,3.985,3.991,0,0,0,0,4.165,72.14,629.09503259823,6.233596,6,P-GPS,
14900,2024-02-01 19:16:43,40.4290089921954,-86.929260254812,6.233596,,,629.09503259823,0.328084,0,160.891737432,171.721462188,17,4,7.979,630.40736859823,7.545932,1.5882274,160.977039272,0,0,0,254.1, -4.6, 2.6,0,0,1024,1024,1024,617,0,0,0,-62,253.1,0,0,98,3.985,3.991,0,0,0,0,4.165,72.14,629.09503259823,6.233596,6,P-GPS,
15000,2024-02-01 19:16:43,40.429008989817,-86.9292602346277,6.233596,,,629.09503259823,0.328084,0,160.886488088,171.727039616,17,4,7.979,630.40736859823,7.545932,1.5882274,160.977039272,0,0,0,253.7, -3.6, 3.6,0,0,1024,1024,1024,596,0,0,0,-65,252,0,0,98,3.985,3.991,0,0,0,0,4.165,72.14,629.09503259823,6.233596,6,P-GPS,
15100,2024-02-01 19:16:43,40.4290090401389,-86.9292602450105,6.233596,,,629.09503259823,0.328084,0,160.886160004,171.745740404,17,4,7.979,630.40736859823,7.545932,1.5882274,160.977039272,0,0,0,252.4, -3.6, 3.5,0,0,1024,1024,1024,596,0,0,0,-65,250.1,0,0,98,3.985,3.991,0,0,0,0,4.165,72.14,629.09503259823,6.233596,6,P-GPS,
15200,2024-02-01 19:16:43,40.4290089378317,-86.9292601721693,5.905512,,,628.76694859823,0.328084,0,160.87270856,171.78806324,17,4,7.979,630.40736859823,7.545932,1.5882274,160.977039272,0,0,0,250.5, -3.9, 3.4,0,0,1024,1024,1024,523,0,0,0,-76,248,0,0,98,3.993,3.996,0,0,0,0,4.165,72.14,628.76694859823,5.905512,6,P-GPS,
15300,2024-02-01 19:16:43,40.429008998793,-86.9292601317332,5.905512,,,628.76694859823,0.328084,0,160.857616696,171.812997624,17,4,7.979,630.40736859823,7.545932,1.5882274,160.977039272,0,0,0,248.4, -4.6, 2.7,0,0,1024,1024,1024,466,0,0,0,-85,245.7,0,0,98,3.993,3.996,0,0,0,0,4.165,72.14,628.76694859823,5.905512,6,P-GPS,
15400,2024-02-01 19:16:43,40.4290090855862,-86.9292600844336,5.905512,,,628.76694859823,0.328084,0.223694,160.839243992,171.847446444,17,4,7.979,630.40736859823,7.545932,1.5882274,160.977039272,0.223694,0,0,246, -4.5, 2.2,0,0,1024,1024,1024,441,0,0,0,-88,242.7,0,0,98,3.993,3.996,0,0,0,0,4.165,72.14,628.76694859823,5.905512,6,P-GPS,
15500,2024-02-01 19:16:43,40.4290092099806,-86.929260170702,5.577428,,,628.43886459823,0.328084,0.223694,160.85466394,171.898627548,17,4,7.979,630.40736859823,7.545932,1.5882274,160.977039272,0.223694,0,0,242.9, -4.2, 2.4,0,0,1024,1024,1024,364,0,0,0,-100,238.9,0,0,98,3.993,3.996,0,0,0,0,4.165,72.14,628.43886459823,5.577428,6,P-GPS,
15600,2024-02-01 19:16:44,40.4290091355955,-86.9292604755855,5.577428,,,628.43886459823,0.328084,0.223694,160.942918536,171.987538312,17,4,7.979,630.40736859823,7.545932,1.5882274,160.977039272,0.223694,0,0,238.9, -4.1, 2.4,0,0,1024,1024,1024,585,0,0,0,-67,234.5,0,0,98,3.993,3.996,0,0,0,0,4.165,72.14,628.43886459823,5.577428,6,P-GPS,
15700,2024-02-01 19:16:44,40.4290093048718,-86.9292606424452,5.577428,,,628.43886459823,0.328084,0.223694,160.97769544,172.064966136,17,4,7.979,630.40736859823,7.545932,1.5882274,160.97769544,0.223694,0,0,234.2, -5.2, 2,0,0,1024,1024,1024,1024,0,0,0,0,228.9,0,0,98,3.993,3.996,0,0,0,0,4.165,72.14,628.43886459823,5.577428,6,P-GPS,
15800,2024-02-01 19:16:44,40.4290094812294,-86.9292607769299,5.577428,,,628.43886459823,0.328084,0.223694,161.003285992,172.13911312,17,4,7.979,630.40736859823,7.545932,1.5882274,161.003285992,0.223694,0,0,228.8, -5.5, 1.5,0,0,1024,1024,1024,1024,0,0,0,0,223.9,0,0,98,3.993,3.996,0,0,0,0,4.165,72.14,628.43886459823,5.577428,6,P-GPS,
15900,2024-02-01 19:16:44,40.4290096330506,-86.9292609105723,5.905512,,,628.76694859823,0.328084,0.223694,161.029860796,172.206042256,17,4,7.979,630.40736859823,7.545932,1.5882274,161.029860796,0.223694,0,0,224.5, -5.6, 1.6,0,0,1024,1024,1024,1024,0,0,0,0,222.5,0,0,98,3.993,3.996,0,0,0,0,4.165,72.14,628.76694859823,5.905512,6,P-GPS,
16000,2024-02-01 19:16:44,40.4290096421937,-86.9292615654643,5.905512,,,628.76694859823,0.328084,0.223694,161.208338492,172.387800792,17,4,7.979,630.40736859823,7.545932,1.5882274,161.208338492,0.223694,0,0,223.1, -4.2, 2.1,0,0,1024,1024,1024,1291,0,0,0,40,222.4,0,0,98,3.993,3.996,0,0,0,0,4.165,72.14,628.76694859823,5.905512,6,P-GPS,
16100,2024-02-01 19:16:44,40.429009819493,-86.9292615886099,5.905512,,,628.76694859823,0.328084,0.223694,161.203417232,172.452761424,17,4,7.979,630.40736859823,7.545932,1.5882274,161.208338492,0.223694,0,0,222.9, -4.3, 3,0,0,1024,1024,1024,1573,0,0,0,83,222.4,0,0,98,3.993,3.996,0,0,0,0,4.165,72.14,628.76694859823,5.905512,6,P-GPS,
16200,2024-02-01 19:16:44,40.4290100043727,-86.9292615884646,6.233596,,,629.09503259823,0.328084,0.223694,161.191606208,172.520346728,17,4,7.979,630.40736859823,7.545932,1.5882274,161.208338492,0.223694,0,0,223.2, -4.8, 2.2,0,0,1024,1024,1024,1565,0,0,0,82,223.7,0,0,98,3.993,3.996,0,0,0,0,4.165,72.14,629.09503259823,6.233596,6,P-GPS,
16300,2024-02-01 19:16:44,40.4290101744138,-86.9292616207007,6.233596,,,629.09503259823,0.328084,0.223694,161.189637704,172.583010772,17,4,7.979,630.40736859823,7.545932,1.5882274,161.208338492,0.223694,0,-0.223694,224.9, -5.4, 2.3,0,0,1024,1024,1024,1564,0,0,0,82,227,0,0,98,3.993,3.996,0,0,0,0,4.165,72.14,629.09503259823,6.233596,6,P-GPS,
16400,2024-02-01 19:16:44,40.4290103358563,-86.9292616365853,6.233596,,,629.09503259823,0.328084,0.223694,161.183732192,172.642065892,17,4,7.979,630.40736859823,7.545932,1.5882274,161.208338492,0.223694,0,-0.223694,228.1, -7.2, 1,0,0,1024,1024,1024,1565,0,0,0,82,230.7,0,0,98,3.993,3.996,0,0,0,0,4.165,72.14,629.09503259823,6.233596,6,P-GPS,
16500,2024-02-01 19:16:44,40.4290105325259,-86.9292617010607,6.233596,,,629.09503259823,0.328084,0.223694,161.188981536,172.715884792,17,4,7.979,630.40736859823,7.545932,1.5882274,161.208338492,0.223694,0,-0.223694,231.9, -6.3, 1.2,0,0,1024,1024,1024,1658,0,0,0,96,234.4,0,0,98,3.993,3.996,0,0,0,0,4.165,72.14,629.09503259823,6.233596,6,P-GPS,
16600,2024-02-01 19:16:44,40.4290107020024,-86.929261766295,6.233596,,,629.09503259823,0.328084,0.223694,161.196199384,172.78051734,17,4,7.979,630.40736859823,7.545932,1.5882274,161.208338492,0.223694,0,0,235.6, -5.8, 0.3,0,0,1024,1024,1024,1684,0,0,0,100,238.2,0,0,98,3.993,3.996,0,0,0,0,4.165,72.14,629.09503259823,6.233596,6,P-GPS,
16700,2024-02-01 19:16:45,40.4290109293289,-86.9292616893402,6.233596,,,629.09503259823,0.328084,0.223694,161.160766312,172.866147264,17,4,7.993,630.40736859823,7.545932,1.5882274,161.208338492,0.223694,0,0,239.5, -6.3, -0.6,0,0,1024,1024,1024,1684,0,0,0,100,242.4,0,0,98,3.99,3.993,0,0,0,0,3.716,72.32,629.09503259823,6.233596,6,P-GPS,
16800,2024-02-01 19:16:45,40.4290111239508,-86.9292616006462,6.233596,,,629.09503259823,0.328084,0,161.124348988,172.9412785,17,4,7.993,630.40736859823,7.545932,1.5882274,161.208338492,0,0,0,244, -6.4, -1.3,0,0,1024,1024,1024,1684,0,0,0,100,247.9,0,0,98,3.99,3.993,0,0,0,0,3.716,72.32,629.09503259823,6.233596,6,P-GPS,
16900,2024-02-01 19:16:45,40.4290113950169,-86.9292615619488,6.233596,,,629.09503259823,0.328084,0,161.096789932,173.040687952,17,4,7.993,630.40736859823,7.545932,1.5882274,161.208338492,0,0,0,249.5, -6, -1.2,0,0,1024,1024,1024,1684,0,0,0,100,253.8,0,0,98,3.99,3.993,0,0,0,0,3.716,72.32,629.09503259823,6.233596,6,P-GPS,
17000,2024-02-01 19:16:45,40.4290114900756,-86.929261506323,6.233596,,,629.09503259823,0.328084,0,161.075792556,173.078745696,17,4,7.993,630.40736859823,7.545932,1.5882274,161.208338492,0,0,0,255.3, -4.7, -1.8,0,0,1024,1024,1024,1684,0,0,0,100,259.8,0,0,98,3.99,3.993,0,0,0,0,3.716,72.32,629.09503259823,6.233596,6,P-GPS,
17100,2024-02-01 19:16:45,40.4290115719457,-86.9292614204882,6.233596,,,629.09503259823,0.328084,0,161.047249248,173.11680344,17,4,7.993,630.40736859823,7.545932,1.5882274,161.208338492,0,0,0,261.4, -5.6, -2.4,0,0,1024,1024,1024,1684,0,0,0,100,265.8,0,0,98,3.99,3.993,0,0,0,0,3.716,72.32,629.09503259823,6.233596,6,P-GPS,
17200,2024-02-01 19:16:45,40.4290116274471,-86.9292613233072,6.233596,,,629.09503259823,0.328084,0.223694,161.01706552,173.150596092,17,4,7.993,630.40736859823,7.545932,1.5882274,161.208338492,0,0.223694,0,267.5, -7.3, -3.3,0,0,1024,1024,1024,1684,0,0,0,100,271.8,0,0,98,3.99,3.993,0,0,0,0,3.716,72.32,629.09503259823,6.233596,6,P-GPS,
17300,2024-02-01 19:16:45,40.4290117765963,-86.9292609589399,6.233596,,,629.09503259823,0.328084,0.223694,160.908141632,173.265425492,17,4,7.993,630.40736859823,7.545932,1.5882274,161.208338492,0,0.223694,0,273.5, -6.7, -3.2,0,0,1024,1024,1024,1684,0,0,0,100,277.8,0,0,98,3.99,3.993,0,0,0,0,3.716,72.32,629.09503259823,6.233596,6,P-GPS,
17400,2024-02-01 19:16:45,40.4290118277327,-86.9292607753234,6.233596,,,629.09503259823,0.328084,0,160.85466394,173.319887436,17,5,7.993,630.40736859823,7.545932,1.5882274,161.208338492,0,0,0,279.5, -7, -4.6,0,0,1024,1024,1024,1684,0,0,0,100,283.8,0,0,98,3.99,3.993,0,0,0,0,3.716,72.32,629.09503259823,6.233596,6,P-GPS,
17500,2024-02-01 19:16:45,40.429011821341,-86.9292606019637,6.233596,,,629.09503259823,0.328084,0,160.807419844,173.368115784,17,5,7.993,630.40736859823,7.545932,1.5882274,161.208338492,0,0,0,285.6, -7, -3.5,0,0,1024,1024,1024,1272,0,0,0,38,289.8,0,0,98,3.99,3.993,0,0,0,0,3.716,72.32,629.09503259823,6.233596,6,P-GPS,
17600,2024-02-01 19:16:45,40.4290118021042,-86.9292604664795,6.56168,,,629.42311659823,0.328084,0,160.771658688,173.406173528,17,5,7.993,630.40736859823,7.545932,1.5882274,161.208338492,0,0,0,291.5, -7.1, -2.4,0,0,1024,1024,1024,1024,0,0,0,0,295.8,0,0,98,3.99,3.993,0,0,0,0,3.716,72.32,629.42311659823,6.56168,6,P-GPS,
17700,2024-02-01 19:16:46,40.4290118484774,-86.9292601187373,6.56168,,,629.42311659823,0.328084,0,160.673561572,173.504270644,17,5,7.993,630.40736859823,7.545932,1.5882274,161.208338492,0,0,0,297.2, -6, -2.9,0,0,1024,1024,1024,1024,0,0,0,0,299.9,0,0,98,3.99,3.993,0,0,0,0,3.716,72.32,629.42311659823,6.56168,6,P-GPS,
17800,2024-02-01 19:16:46,40.4290118922272,-86.9292600157274,6.56168,,,629.42311659823,0.328084,0,160.642721676,173.537079044,17,5,7.993,630.40736859823,7.545932,1.5882274,161.208338492,0,0,0,300.7, -5.5, -4.2,0,0,1024,1024,1024,1024,0,0,0,0,300.7,0,0,98,3.99,3.993,0,0,0,0,3.716,72.32,629.42311659823,6.56168,6,P-GPS,
17900,2024-02-01 19:16:46,40.4290119231082,-86.9292598842698,6.889764,,,629.75120059823,0.328084,0,160.604992016,173.575464872,17,5,7.993,630.40736859823,7.545932,1.5882274,161.208338492,0,0,0,301.5, -3.8, -5.6,0,0,1024,1024,1024,1024,0,0,0,0,300.7,0,0,98,3.99,3.993,0,0,0,0,3.716,72.32,629.75120059823,6.889764,6,P-GPS,
18000,2024-02-01 19:16:46,40.4290119446354,-86.9292597738263,6.889764,,,629.75120059823,0.328084,0,160.573167868,173.606960936,17,5,7.993,630.40736859823,7.545932,1.5882274,161.208338492,0,0,0,301.4, -3.5, -6.2,0,0,1024,1024,1024,1024,0,0,0,0,300.7,0,0,98,3.988,3.992,0,0,0,0,3.716,72.32,629.75120059823,6.889764,6,P-GPS,
18100,2024-02-01 19:16:46,40.4290119295613,-86.9292597478781,6.889764,,,629.75120059823,0.328084,0,160.567262356,173.616147288,17,5,7.993,630.40736859823,7.545932,1.5882274,161.208338492,0,0,0,301.4, -3.7, -5.8,0,0,1024,1024,1024,1024,0,0,0,0,300.7,0,0,98,3.988,3.992,0,0,0,0,3.716,72.32,629.75120059823,6.889764,6,P-GPS,
18200,2024-02-01 19:16:46,40.4290119208597,-86.9292597796887,6.889764,,,629.75120059823,0.328084,0,160.576448708,173.62533364,17,5,7.993,630.40736859823,7.545932,1.5882274,161.208338492,0,0,0,301.4, -4.3, -4.3,0,0,1024,1024,1024,1649,0,0,0,95,300.7,0,0,98,3.988,3.992,0,0,0,0,3.716,72.32,629.75120059823,6.889764,6,P-GPS,
18300,2024-02-01 19:16:46,40.4290118553185,-86.929259796105,7.217848,,,630.07928459823,0.328084,0,160.584978892,173.64993994,17,5,7.993,630.40736859823,7.545932,1.5882274,161.208338492,0,0,0,301.3, -4.4, -3.8,0,0,1024,1024,1024,1684,0,0,0,100,300.9,0,0,98,3.988,3.992,0,0,0,0,3.716,72.32,630.07928459823,7.217848,6,P-GPS,
18400,2024-02-01 19:16:46,40.4290118035792,-86.9292598196406,7.217848,,,630.07928459823,0.328084,0,160.594493328,173.66962498,17,5,7.993,630.40736859823,7.545932,1.5882274,161.208338492,0,0,0,301.9, -4, -4,0,0,1024,1024,1024,1684,0,0,0,100,304,0,0,98,3.988,3.992,0,0,0,0,3.716,72.32,630.07928459823,7.217848,6,P-GPS,
18500,2024-02-01 19:16:46,40.4290117463504,-86.9292598966601,7.217848,,,630.07928459823,0.328084,0,160.619099628,173.699808708,17,5,7.993,630.40736859823,7.545932,1.5882274,161.208338492,0,0,0,305.4, -3.6, -4.4,0,0,1024,1024,1024,1684,0,0,0,100,309.5,0,0,98,3.988,3.992,0,0,0,0,3.716,72.32,630.07928459823,7.217848,6,P-GPS,
18600,2024-02-01 19:16:47,40.4290115482034,-86.9292600481516,7.217848,,,630.07928459823,0.328084,0,160.672905404,173.783470128,17,5,7.993,630.40736859823,7.545932,1.5882274,161.208338492,0,0,0,310.9, -3.6, -3.4,0,0,1024,1024,1024,1684,0,0,0,100,315.4,0,0,98,3.988,3.992,0,0,0,0,3.716,72.32,630.07928459823,7.217848,6,P-GPS,
18700,2024-02-01 19:16:47,40.4290114694359,-86.9292601246878,7.217848,,,630.07928459823,0.328084,0,160.69882404,173.8189032,17,5,7.993,630.40736859823,7.545932,1.5882274,161.208338492,0,0,0,316.9, -3.2, -3.2,0,0,1024,1024,1024,1101,0,0,0,12,321.4,0,0,98,3.988,3.992,0,0,0,0,3.716,72.32,630.07928459823,7.217848,6,P-GPS,
18800,2024-02-01 19:16:47,40.4290114151037,-86.9292601970786,7.217848,,,630.07928459823,0.328084,0,160.722118004,173.847446508,17,5,7.993,630.40736859823,7.545932,1.5882274,161.208338492,0,0,0,322.8, -2.4, -3.2,0,0,1024,1024,1024,1101,0,0,0,12,327.3,0,0,98,3.988,3.992,0,0,0,0,3.716,72.32,630.07928459823,7.217848,6,P-GPS,
18900,2024-02-01 19:16:47,40.429011350849,-86.9292602709716,7.217848,,,630.07928459823,0.328084,0,160.74639622,173.878286404,17,5,7.993,630.40736859823,7.545932,1.5882274,161.208338492,0,0,0,328.4, -2.1, -5,0,0,1528,1024,1024,1024,76,0,0,0,330.9,0,0,98,3.988,3.992,0,0,0,0,3.716,72.32,630.07928459823,7.217848,6,P-GPS,
19000,2024-02-01 19:16:47,40.4290111358058,-86.9292603696216,7.545932,,,630.40736859823,0.328084,0,160.786750552,173.96161974,17,5,7.993,630.40736859823,7.545932,1.5882274,161.208338492,0,0,0,331.5, -4.4, -4.3,0,0,1684,1024,1024,1024,100,0,0,0,331.6,0,0,98,3.988,3.992,0,0,0,0,3.716,72.32,630.40736859823,7.545932,6,P-GPS,
19100,2024-02-01 19:16:47,40.4290110660097,-86.929260415272,7.545932,,,630.40736859823,0.328084,0,160.80381092,173.990163048,17,5,7.993,630.40736859823,7.545932,1.5882274,161.208338492,0,0,0,332.6, -14.5, -4.8,0,0,1684,1024,1024,1024,100,0,0,0,331.8,-4.3,0,98,3.988,3.992,0,0,0,0,3.716,72.32,630.40736859823,7.545932,6,P-GPS,
19200,2024-02-01 19:16:47,40.4290111312617,-86.9292605296993,7.545932,,,630.40736859823,0.328084,0.4921268,160.831041892,174.029861212,17,5,7.993,630.40736859823,7.545932,1.5882274,161.208338492,0.447388,-0.223694,0.223694,333.2, -23.8, -5,0,0,1684,1024,1024,1024,100,0,0,0,332,-8,0,98,3.988,3.992,0,0,0,0,3.716,72.32,630.40736859823,7.545932,6,P-GPS,
