time(millisecond),datetime(utc),latitude,longitude,height_above_takeoff(feet),height_above_ground_at_drone_location(feet),ground_elevation_at_drone_location(feet),altitude_above_seaLevel(feet),height_sonar(feet),speed(mph),distance(feet),mileage(feet),satellites,gpslevel,voltage(v),max_altitude(feet),max_ascent(feet),max_speed(mph),max_distance(feet), xSpeed(mph), ySpeed(mph), zSpeed(mph), compass_heading(degrees), pitch(degrees), roll(degrees),isPhoto,isVideo,rc_elevator,rc_aileron,rc_throttle,rc_rudder,rc_elevator(percent),rc_aileron(percent),rc_throttle(percent),rc_rudder(percent),gimbal_heading(degrees),gimbal_pitch(degrees),gimbal_roll(degrees),battery_percent,voltageCell1,voltageCell2,voltageCell3,voltageCell4,voltageCell5,voltageCell6,current(A),battery_temperature(f),altitude(feet),ascent(feet),flycStateRaw,flycState,message
0,2024-02-04 17:09:05,40.4290080390871,-86.92927639075,0,Available with any HD 360 subscription,Available with any HD 360 subscription,622.85853305483,0.328084,0,0,0,25,5,0,622.85853305483,0,0,0,0,0,0,356.5, -9.1, -1.5,0,0,1024,1024,1024,1024,0,0,0,0,0.2,0,0,99,4.077,4.08,0,0,0,0,0,70.34,622.85853305483,0,41,Motors_Started,"Gimbal stuck Gimbal stuck. Check whether gimbal cover is removed and make sure gimbal can rotate freely on all three axes (Code: 40028). Remote ID functionality normal (Code: 30331)"
100,2024-02-04 17:09:05,40.4290080446889,-86.9292763866883,0,,,622.85853305483,0.328084,0,0.0023344652978,0.0023344652978,25,5,0,622.85853305483,0,0,0.0023344652978,0,0,0,356.5, -9, -1.5,0,0,1024,1024,1024,1024,0,0,0,0,0.2,0,0,99,4.077,4.08,0,0,0,0,0,70.34,622.85853305483,0,41,Motors_Started,
200,2024-02-04 17:09:05,40.4290079712884,-86.9292763325928,0,,,622.85853305483,0.328084,0,0.0295426190556,0.033041011556,25,5,0,622.85853305483,0,0,0.0295426190556,0,0,0,356.6, -9.1, -1.6,0,0,1024,1024,1024,1024,0,0,0,0,0.2,0,0,99,4.077,4.08,0,0,0,0,0,70.34,622.85853305483,0,41,Motors_Started,"Aircraft in Warning Zone (Class D Airspace). Fly with caution"
300,2024-02-04 17:09:05,40.4290079618272,-86.9292763313355,0,,,622.85853305483,0.328084,0,0.0326628291292,0.036510499856,25,5,0,622.85853305483,0,0,0.0326628291292,0,0,0,356.8, -9.1, -1.5,0,0,1024,1024,1024,1024,0,0,0,0,0.2,0,0,99,4.077,4.08,0,0,0,0,0,70.34,622.85853305483,0,41,Motors_Started,
400,2024-02-04 17:09:05,40.4290079905432,-86.9292763296505,0,,,622.85853305483,0.328084,0,0.024528216008,0.046998033,25,5,0,622.85853305483,0,0,0.0326628291292,0,0,0,356.8, -9, -1.5,0,0,1024,1024,1024,1024,0,0,0,0,0.2,0,0,99,4.077,4.08,0,0,0,0,0,70.34,622.85853305483,0,41,Motors_Started,
500,2024-02-04 17:09:05,40.4290080314138,-86.9292763275611,0,,,622.85853305483,0.328084,0,0.017771161986,0.06192093374,25,5,0,622.85853305483,0,0,0.0326628291292,0,0,0,356.9, -9.1, -1.5,0,0,1024,1024,1024,1024,0,0,0,0,0.2,0,0,99,4.077,4.08,0,0,0,0,0,70.34,622.85853305483,0,41,Motors_Started,
600,2024-02-04 17:09:06,40.4290080824167,-86.9292764203031,0,,,622.85853305483,0.328084,0,0.0178124677616,0.093696525308,25,5,0,622.85853305483,0,0,0.0326628291292,0,0,0,356.9, -9.1, -1.5,0,0,1024,1024,1024,1024,0,0,0,0,0.2,0,0,99,4.077,4.08,0,0,0,0,0,70.34,622.85853305483,0,41,Motors_Started,"Setting new Return-To-Home altitude to 100m (328 ft). Data Recorder File Index is 3. Setting new Maximum Flight Altitude to 120m (394 ft)"
700,2024-02-04 17:09:06,40.4290080923535,-86.9292764697454,0,,,622.85853305483,0.328084,0,0.0293089576308,0.1078986255,25,5,0,622.85853305483,0,0,0.0326628291292,0,0,0,356.9, -9.1, -1.6,0,0,1024,1024,1024,1024,0,0,0,0,0.2,0,0,99,4.077,4.08,0,0,0,0,0,70.34,622.85853305483,0,41,Motors_Started,
800,2024-02-04 17:09:06,40.4290081256519,-86.9292764941292,0,,,622.85853305483,0.328084,0,0.042682744148,0.121807418596,25,5,0,622.85853305483,0,0,0.042682744148,0,0,0,356.9, -9.1, -1.5,0,0,1024,1024,1024,1024,0,0,0,0,0.2,0,0,99,4.077,4.08,0,0,0,0,0,70.34,622.85853305483,0,41,Motors_Started,
900,2024-02-04 17:09:06,40.4290081718671,-86.9292765094296,0,,,622.85853305483,0.328084,0,0.05859416198,0.13919619868,25,5,8.271,622.85853305483,0,0,0.05859416198,0,0,0,356.9, -9.1, -1.5,0,0,1024,1024,1024,1024,0,0,0,0,0.3,0,0,99,4.077,4.08,0,0,0,0,0.691,70.34,622.85853305483,0,41,Motors_Started,
1000,2024-02-04 17:09:06,40.4290081905356,-86.9292765139063,0,,,622.85853305483,0.328084,0,0.064985566384,0.146120083416,25,5,8.271,622.85853305483,0,0,0.064985566384,0,0,0,357.1, -9.1, -1.6,0,0,1024,1024,1024,1024,0,0,0,0,0.3,0,0,99,4.077,4.08,0,0,0,0,0.691,70.34,622.85853305483,0,41,Motors_Started,
1100,2024-02-04 17:09:06,40.4290082159687,-86.9292764765879,0,,,622.85853305483,0.328084,0,0.06879757438,0.1600311731,25,5,8.271,622.85853305483,0,0,0.06879757438,0,0,0,357.3, -9.1, -1.6,0,0,1024,1024,1024,1024,0,0,0,0,0.3,0,0,99,4.077,4.08,0,0,0,0,0.691,70.34,622.85853305483,0,11,AutoTakeoff,
1200,2024-02-04 17:09:06,40.4290082136595,-86.9292764756119,0,,,622.85853305483,0.328084,0,0.067913388,0.160916343732,25,5,8.271,622.85853305483,0,0,0.06879757438,0,0,0,357.2, -9, -1.6,0,0,1024,1024,1024,1024,0,0,0,0,0.3,0,0,99,4.077,4.08,0,0,0,0,0.691,70.34,622.85853305483,0,11,AutoTakeoff,
1300,2024-02-04 17:09:06,40.4290082105101,-86.9292764809179,0,,,622.85853305483,0.328084,0,0.067370737064,0.162784782112,25,5,8.271,622.85853305483,0,0,0.06879757438,0,0,0,356.7, -8.9, -1.6,0,0,1024,1024,1024,1024,0,0,0,0,0.3,0,0,99,4.077,4.08,0,0,0,0,0.691,70.34,622.85853305483,0,11,AutoTakeoff,
1400,2024-02-04 17:09:06,40.4290082647764,-86.9292765237431,0,,,622.85853305483,0.328084,0,0.090247050132,0.185881567628,25,5,8.271,622.85853305483,0,0,0.090247050132,0,0,0,355.8, -8.2, -2,0,0,1024,1024,1024,1024,0,0,0,0,0.3,0,0,99,4.077,4.08,0,0,0,0,0.691,70.34,622.85853305483,0,11,AutoTakeoff,
1500,2024-02-04 17:09:06,40.4290083802624,-86.9292766103568,0,,,622.85853305483,0.328084,0,0.138616474252,0.2343996138,25,5,8.271,622.85853305483,0,0,0.138616474252,0,-0.223694,0,355.1, -2.3, -2.3,0,0,1024,1024,1024,1024,0,0,0,0,0.3,0,0,99,4.077,4.08,0,0,0,0,0.691,70.34,622.85853305483,0,11,AutoTakeoff,
1600,2024-02-04 17:09:07,40.4290084792555,-86.9292768575145,0,,,622.85853305483,0.328084,0.447388,0.206386817628,0.311964248828,25,5,8.271,622.85853305483,0,0.447388,0.206386817628,0,-0.447388,0,355, 1.6, -1.3,0,0,1024,1024,1024,1024,0,0,0,0,0.3,0,0,99,4.077,4.08,0,0,0,0,0.691,70.34,622.85853305483,0,11,AutoTakeoff,
1700,2024-02-04 17:09:07,40.4290085527244,-86.9292772477641,0,,,622.85853305483,0.328084,0.671082,0.3029363614,0.42361221828,25,5,8.271,622.85853305483,0,0.671082,0.3029363614,0,-0.671082,-0.447388,355.1, 0.1, 0.6,0,0,1024,1024,1024,1024,0,0,0,0,0.2,0,0,99,4.077,4.08,0,0,0,0,0.691,70.34,622.85853305483,0,11,AutoTakeoff,
1800,2024-02-04 17:09:07,40.4290086260434,-86.9292776944758,0.328084,,,623.18661705483,0.656168,0.894776,0.4206693048,0.55052823284,25,5,8.271,623.18661705483,0.328084,0.894776,0.4206693048,0,-0.894776,-0.894776,355.2, 0.6, 2,0,0,1024,1024,1024,1024,0,0,0,0,0.2,0,0,99,4.077,4.08,0,0,0,0,0.691,70.34,623.18661705483,0.328084,11,AutoTakeoff,
1900,2024-02-04 17:09:07,40.4290087104261,-86.9292782059017,0.328084,,,623.18661705483,0.656168,0.894776,0.56047245888,0.69586288316,25,5,8.271,623.18661705483,0.328084,0.894776,0.56047245888,0,-0.894776,-1.342164,355.2, -0.8, 4,0,0,1024,1024,1024,1024,0,0,0,0,0.2,0,0,99,4.077,4.08,0,0,0,0,0.691,70.34,623.18661705483,0.328084,11,AutoTakeoff,
2000,2024-02-04 17:09:07,40.4290087202684,-86.9292787284609,0.656168,,,623.51470105483,0.984252,0.894776,0.69518703012,0.84103677232,25,5,8.271,623.51470105483,0.656168,0.894776,0.69518703012,0,-0.894776,-1.789552,355, -0.7, 7,0,0,1024,1024,1024,1024,0,0,0,0,0.1,0,0,99,4.077,4.08,0,0,0,0,0.691,70.34,623.51470105483,0.656168,11,AutoTakeoff,
2100,2024-02-04 17:09:07,40.4290087154255,-86.9292792684016,0.984252,,,623.84278505483,1.312336,0.894776,0.83643047296,0.99100396872,25,5,8.271,623.84278505483,0.984252,0.894776,0.83643047296,0,-0.894776,-2.013246,355.1, -0.1, 8.3,0,0,1024,1024,1024,1024,0,0,0,0,0.1,0,0,99,4.077,4.08,0,0,0,0,0.691,70.34,623.84278505483,0.984252,11,AutoTakeoff,
2200,2024-02-04 17:09:07,40.4290087408846,-86.9292797597958,0.984252,,,623.84278505483,1.64042,0.671082,0.9700787712,1.12779203084,25,5,8.271,623.84278505483,0.984252,0.894776,0.9700787712,0,-0.671082,-2.23694,355.2, 0, 8.6,0,0,1024,1024,1024,1024,0,0,0,0,0.1,0,0,99,4.077,4.08,0,0,0,0,0.691,70.34,623.84278505483,0.984252,11,AutoTakeoff,
2300,2024-02-04 17:09:07,40.4290088411153,-86.9292802927259,1.312336,,,624.17086905483,1.968504,0.671082,1.12249675508,1.28025266564,25,5,8.175,624.17086905483,1.312336,0.894776,1.12249675508,0,-0.671082,-2.23694,355.1, -0.6, 7.3,0,0,1024,1024,1024,1024,0,0,0,0,0.1,0,0,99,3.99,3.993,0,0,0,0,2.396,70.16,624.17086905483,1.312336,11,AutoTakeoff,
2400,2024-02-04 17:09:07,40.4290088963782,-86.9292807551981,1.64042,,,624.49895305483,2.296588,0.671082,1.25183074872,1.41026579316,25,5,8.175,624.49895305483,1.64042,0.894776,1.25183074872,0,-0.671082,-2.23694,354.9, -1, 7.4,0,0,1024,1024,1024,1024,0,0,0,0,0.1,0,0,99,3.99,3.993,0,0,0,0,2.396,70.16,624.49895305483,1.64042,11,AutoTakeoff,
2500,2024-02-04 17:09:08,40.4290089800118,-86.9292812380309,1.968504,,,624.82703705483,2.624672,0.671082,1.3893045064,1.54778876344,25,5,8.175,624.82703705483,1.968504,0.894776,1.3893045064,0,-0.671082,-2.23694,355, 0.2, 7.4,0,0,1024,1024,1024,1024,0,0,0,0,0,0,0,99,3.99,3.993,0,0,0,0,2.396,70.16,624.82703705483,1.968504,11,AutoTakeoff,
2600,2024-02-04 17:09:08,40.4290090662412,-86.9292816722701,2.296588,,,625.15512105483,2.952756,0.671082,1.51393705632,1.6724245942,25,5,8.175,625.15512105483,2.296588,0.894776,1.51393705632,0,-0.671082,-2.23694,355.2, 1.1, 7.8,0,0,1024,1024,1024,1024,0,0,0,0,0,0,0,99,3.99,3.993,0,0,0,0,2.396,70.16,625.15512105483,2.296588,6,P-GPS,
2700,2024-02-04 17:09:08,40.4290091417749,-86.9292821255086,2.296588,,,625.15512105483,3.28084,0.671082,1.64272314968,1.80128286604,25,5,8.175,625.15512105483,2.296588,0.894776,1.64272314968,0,-0.671082,-1.789552,355.4, 1.7, 8.4,0,0,1024,1024,1024,1024,0,0,0,0,0,0,0,99,3.99,3.993,0,0,0,0,2.396,70.16,625.15512105483,2.296588,6,P-GPS,"Gimbal stuck. Check whether gimbal cover is removed and make sure gimbal can rotate freely on all three axes (Code: 40028)"
2800,2024-02-04 17:09:08,40.4290093490432,-86.9292826227023,2.624672,,,625.48320505483,3.608924,0.671082,1.79555780024,1.95871725428,25,5,8.175,625.48320505483,2.624672,0.894776,1.79555780024,0,-0.671082,-1.11847,355.5, 1.1, 8.1,0,0,1024,1024,1024,1024,0,0,0,0,0,0,0,99,3.99,3.993,0,0,0,0,2.396,70.16,625.48320505483,2.624672,6,P-GPS,
2900,2024-02-04 17:09:08,40.4290094423922,-86.9292830228053,2.624672,,,625.48320505483,3.608924,0.671082,1.91173562548,2.07494101128,25,5,8.175,625.48320505483,2.624672,0.894776,1.91173562548,0,-0.671082,-0.671082,355.6, 0.1, 8.5,0,0,1024,1024,1024,1024,0,0,0,0,0,0,0,99,3.99,3.993,0,0,0,0,2.396,70.16,625.48320505483,2.624672,6,P-GPS,
3000,2024-02-04 17:09:08,40.4290095593307,-86.9292833912479,2.624672,,,625.48320505483,3.937008,0.671082,2.02179796496,2.18580387572,25,5,8.175,625.48320505483,2.624672,0.894776,2.02179796496,0,-0.671082,-0.223694,355.9, -0.5, 8,0,0,1024,1024,1024,1024,0,0,0,0,0,0,0,99,3.99,3.993,0,0,0,0,2.396,70.16,625.48320505483,2.624672,6,P-GPS,
3100,2024-02-04 17:09:08,40.4290096842812,-86.9292837768784,2.624672,,,625.48320505483,3.937008,0.671082,2.13734586892,2.30220479808,25,5,8.175,625.48320505483,2.624672,0.894776,2.13734586892,0,-0.671082,-0.223694,355.9, -0.9, 8.1,0,0,1024,1024,1024,1024,0,0,0,0,0,0,0,99,3.99,3.993,0,0,0,0,2.396,70.16,625.48320505483,2.624672,6,P-GPS,
3200,2024-02-04 17:09:08,40.4290098079778,-86.9292841139754,2.624672,,,625.48320505483,3.937008,0.671082,2.23993773572,2.4061352476,25,5,8.175,625.48320505483,2.624672,0.894776,2.23993773572,0,-0.671082,0,355.9, -1.1, 8.1,0,0,1024,1024,1024,1024,0,0,0,0,0,0,0,99,3.99,3.993,0,0,0,0,2.396,70.16,625.48320505483,2.624672,6,P-GPS,
3300,2024-02-04 17:09:08,40.4290097514513,-86.9292845569472,2.624672,,,625.48320505483,3.937008,0.671082,2.35245086268,2.53087606524,25,5,8.175,625.48320505483,2.624672,0.894776,2.35245086268,0,-0.671082,0,355.8, -0.8, 8.4,0,0,1024,1024,1024,1024,0,0,0,0,0.1,0,0,99,3.99,3.993,0,0,0,0,2.396,70.16,625.48320505483,2.624672,6,P-GPS,
3400,2024-02-04 17:09:08,40.429009667632,-86.92928497794,2.624672,,,625.48320505483,3.937008,0.671082,2.45779863508,2.65173236832,25,5,8.175,625.48320505483,2.624672,0.894776,2.45779863508,0,-0.671082,0,355.6, -0.6, 7.6,0,0,1024,1024,1024,1024,0,0,0,0,0,0,0,99,3.99,3.993,0,0,0,0,2.396,70.16,625.48320505483,2.624672,6,P-GPS,
3500,2024-02-04 17:09:08,40.4290095578065,-86.9292854258397,2.624672,,,625.48320505483,3.937008,0.7158208,2.56974089588,2.78241806804,25,5,8.175,625.48320505483,2.624672,0.894776,2.56974089588,-0.223694,-0.671082,0,355.4, -1.2, 7.8,0,0,1024,1024,1024,1024,0,0,0,0,0,0,0,99,4.02,4.025,0,0,0,0,2.396,70.16,625.48320505483,2.624672,6,P-GPS,
3600,2024-02-04 17:09:09,40.4290095228536,-86.9292858728194,2.624672,,,625.48320505483,3.937008,0.7158208,2.68849418052,2.90721137912,25,5,8.175,625.48320505483,2.624672,0.894776,2.68849418052,-0.223694,-0.671082,0,355.4, -1.7, 9.6,0,0,1024,1024,1024,1024,0,0,0,0,0,0,0,99,4.02,4.025,0,0,0,0,2.396,70.16,625.48320505483,2.624672,6,P-GPS,
3700,2024-02-04 17:09:09,40.4290095372588,-86.9292862954469,2.624672,,,625.48320505483,3.937008,0.7158208,2.80458342308,3.0247048212,25,5,8.175,625.48320505483,2.624672,0.894776,2.80458342308,-0.223694,-0.671082,0,355.2, -2.5, 8.6,0,0,1024,1024,1024,1024,0,0,0,0,0,0,0,99,4.02,4.025,0,0,0,0,2.396,70.16,625.48320505483,2.624672,6,P-GPS,
3800,2024-02-04 17:09:09,40.4290095063672,-86.9292867247449,2.624672,,,625.48320505483,3.937008,0.7158208,2.91953093332,3.14446204288,25,5,8.175,625.48320505483,2.624672,0.894776,2.91953093332,-0.223694,-0.671082,0,355.3, -1.8, 9.2,0,0,1024,1024,1024,1024,0,0,0,0,0,0,0,99,4.02,4.025,0,0,0,0,2.396,70.16,625.48320505483,2.624672,6,P-GPS,
3900,2024-02-04 17:09:09,40.4290094572273,-86.929287182831,2.624672,,,625.48320505483,3.937008,0.7158208,3.041584743,3.27294301812,25,5,8.175,625.48320505483,2.624672,0.894776,3.041584743,-0.223694,-0.671082,0,355.3, -1.7, 10,0,0,1037,1024,1024,1024,2,0,0,0,0,0,0,99,4.02,4.025,0,0,0,0,2.396,70.16,625.48320505483,2.624672,6,P-GPS,
4000,2024-02-04 17:09:09,40.4290093075603,-86.9292877492756,2.624672,,,625.48320505483,3.937008,0.7158208,3.1883367162,3.439468614,25,5,8.175,625.48320505483,2.624672,0.894776,3.1883367162,-0.223694,-0.671082,0,355.3, -1.4, 10.3,0,0,1295,1024,1024,1024,41,0,0,0,0,0,0,99,4.02,4.025,0,0,0,0,2.396,70.16,625.48320505483,2.624672,6,P-GPS,
4100,2024-02-04 17:09:09,40.4290092523918,-86.9292882129438,2.624672,,,625.48320505483,3.937008,0.7158208,3.3130578488,3.5698163872,25,5,8.175,625.48320505483,2.624672,0.894776,3.3130578488,-0.223694,-0.671082,0,355.2, -1.4, 10.2,0,0,1684,1024,1024,1024,100,0,0,0,0,0,0,99,4.02,4.025,0,0,0,0,2.396,70.16,625.48320505483,2.624672,6,P-GPS,
4200,2024-02-04 17:09:09,40.4290092150321,-86.9292886189105,2.624672,,,625.48320505483,3.937008,0.671082,3.4230972224,3.6833662596,25,5,8.175,625.48320505483,2.624672,0.894776,3.4230972224,0,-0.671082,0,355.1, -2.8, 9.6,0,0,1684,1024,1024,1024,100,0,0,0,0,0,0,99,4.02,4.025,0,0,0,0,2.396,70.16,625.48320505483,2.624672,6,P-GPS,
4300,2024-02-04 17:09:09,40.4290092096582,-86.9292890181944,2.624672,,,625.48320505483,3.937008,0.671082,3.5329069372,3.79429146,25,5,8.175,625.48320505483,2.624672,0.894776,3.5329069372,0,-0.671082,0,354.6, -9.4, 8.9,0,0,1684,1024,1024,1024,100,0,0,0,0,0,0,99,4.02,4.025,0,0,0,0,2.396,70.16,625.48320505483,2.624672,6,P-GPS,
4400,2024-02-04 17:09:09,40.4290093462716,-86.9292893834225,2.624672,,,625.48320505483,3.608924,0.7158208,3.6397967044,3.907316398,25,5,8.175,625.48320505483,2.624672,0.894776,3.6397967044,0.223694,-0.671082,0,353.8, -20.6, 8,0,0,1684,1024,1024,1024,100,0,0,0,0,0,0,99,4.02,4.025,0,0,0,0,2.396,70.16,625.48320505483,2.624672,6,P-GPS,
4500,2024-02-04 17:09:10,40.4290098032912,-86.9292898274761,2.624672,,,625.48320505483,3.608924,1.2974252,3.7868439532,4.1146982944,25,5,8.175,625.48320505483,2.624672,1.2974252,3.7868439532,1.11847,-0.671082,0,353.6, -23.3, 7.4,0,0,1684,1024,1024,1024,100,0,0,0,0,0,0,99,4.02,4.025,0,0,0,0,2.396,70.16,625.48320505483,2.624672,6,P-GPS,
4600,2024-02-04 17:09:10,40.4290104818768,-86.9292902454511,2.296588,,,625.15512105483,3.608924,1.9908766,3.9497048508,4.3881235,25,5,8.175,625.48320505483,2.624672,1.9908766,3.9497048508,1.789552,-0.894776,0,353.6, -23.2, 8.3,0,0,1684,1024,1024,1024,100,0,0,0,0,0,0,99,4.02,4.025,0,0,0,0,2.396,70.16,625.15512105483,2.296588,6,P-GPS,
4700,2024-02-04 17:09:10,40.4290115021328,-86.9292907191333,2.296588,,,625.15512105483,3.608924,2.8185444,4.1751641756,4.7829397856,25,5,8.175,625.48320505483,2.624672,2.8185444,4.1751641756,2.684328,-0.894776,0,353.5, -22.9, 9.2,0,0,1684,1024,1024,1024,100,0,0,0,0,0,0,99,4.02,4.025,0,0,0,0,2.396,70.16,625.15512105483,2.296588,6,P-GPS,
4800,2024-02-04 17:09:10,40.4290127722019,-86.9292912131518,1.968504,,,624.82703705483,3.608924,3.467257,4.4641077544,5.2662075176,25,5,8.175,625.48320505483,2.624672,3.467257,4.4641077544,3.35541,-0.894776,0,353.7, -22.1, 9.5,0,0,1684,1024,1024,1024,100,0,0,0,0,0,0,99,4.02,4.025,0,0,0,0,2.396,70.16,624.82703705483,1.968504,6,P-GPS,
4900,2024-02-04 17:09:10,40.4290143736821,-86.9292917071514,1.968504,,,624.82703705483,3.608924,3.467257,4.8410762704,5.8664043872,25,5,8.175,625.48320505483,2.624672,3.467257,4.8410762704,4.026492,-0.894776,0,353.7, -22.4, 8.9,0,0,1684,1024,1024,1024,100,0,0,0,0,0,0,99,4.02,4.025,0,0,0,0,2.396,70.16,624.82703705483,1.968504,6,P-GPS,
5000,2024-02-04 17:09:10,40.4290162039327,-86.9292922218001,1.968504,,,624.82703705483,3.608924,5.0107456,5.31085975,6.5492784248,25,5,8.042,625.48320505483,2.624672,5.0107456,5.31085975,4.921268,-0.894776,0,353.6, -22.9, 8.1,0,0,1684,1024,1024,1024,100,0,0,0,0,0,0,99,4.005,4.007,0,0,0,0,4.22,70.34,624.82703705483,1.968504,6,P-GPS,"Home Point updated. RTH altitude adjusted to 100 m (Code: 120852)"
5100,2024-02-04 17:09:10,40.4290184224173,-86.9292927914719,1.64042,,,624.49895305483,3.608924,5.6594582,5.9244424468,7.374015984,25,5,8.042,625.48320505483,2.624672,5.6594582,5.9244424468,5.59235,-0.894776,0,353.5, -23.4, 8.2,0,0,1684,1024,1024,1024,100,0,0,0,0,0,0,99,4.005,4.007,0,0,0,0,4.22,70.34,624.49895305483,1.64042,6,P-GPS,
5200,2024-02-04 17:09:10,40.4290208451869,-86.9292932340723,1.64042,,,624.49895305483,3.608924,6.3529096,6.611548768,8.2664700808,25,5,8.042,625.48320505483,2.624672,6.3529096,6.611548768,6.263432,-1.11847,0,353.7, -22.8, 8.5,0,0,1684,1024,1024,1024,100,0,0,0,0,0,0,99,4.005,4.007,0,0,0,0,4.22,70.34,624.49895305483,1.64042,6,P-GPS,
5300,2024-02-04 17:09:10,40.4290237809523,-86.9292934516769,1.64042,,,624.49895305483,3.608924,7.0239916,7.4456695296,9.3393047608,25,5,8.042,625.48320505483,2.624672,7.0239916,7.4456695296,6.934514,-1.11847,0,353.4, -23, 9.9,0,0,1684,1024,1024,1024,100,0,0,0,0,0,0,99,4.005,4.007,0,0,0,0,4.22,70.34,624.49895305483,1.64042,6,P-GPS,
5400,2024-02-04 17:09:10,40.4290267047812,-86.9292937695293,1.312336,,,624.17086905483,3.608924,7.605596,8.347113128,10.4097116192,25,5,8.042,625.48320505483,2.624672,7.605596,8.347113128,7.605596,0,0,1.2, -23.3, 8.2,0,0,1684,1024,1024,1024,100,0,0,0,0,0,0,99,4.005,4.007,0,0,0,0,4.22,70.34,624.17086905483,1.312336,6,P-GPS,
5500,2024-02-04 17:09:10,40.4290300309334,-86.9292940691682,1.312336,,,624.17086905483,3.608924,8.276678,9.4066932144,11.6260830492,25,5,8.042,625.48320505483,2.624672,8.276678,9.4066932144,8.276678,0,0,1.2, -22.9, 8,0,0,1123,1024,1024,1024,15,0,0,0,0,0,0,99,4.005,4.007,0,0,0,0,4.22,70.34,624.17086905483,1.312336,6,P-GPS,
5600,2024-02-04 17:09:11,40.4290334886932,-86.9292942706119,1.312336,,,624.17086905483,3.608924,8.94776,10.529691938,12.8888783652,25,5,8.042,625.48320505483,2.624672,8.94776,10.529691938,8.94776,0,0,1.4, -18.7, 8.8,0,0,1024,1024,1024,1024,0,0,0,0,0,0,0,99,4.005,4.007,0,0,0,0,4.22,70.34,624.17086905483,1.312336,6,P-GPS,
5700,2024-02-04 17:09:11,40.4290373286684,-86.9292925193753,1.312336,,,624.17086905483,3.608924,9.171454,11.58710667,14.3719164704,25,5,8.042,625.48320505483,2.624672,9.171454,11.58710667,9.171454,0,0,1.6, -1.7, 8.3,0,0,1024,1024,1024,1024,0,0,0,0,0,0,0,99,4.005,4.007,0,0,0,0,4.22,70.34,624.17086905483,1.312336,6,P-GPS,
5800,2024-02-04 17:09:11,40.4290409010641,-86.9292924457971,1.312336,,,624.17086905483,3.608924,8.724066,12.7919623516,15.6754598192,25,5,8.042,625.48320505483,2.624672,9.171454,12.7919623516,8.724066,0,-0.447388,3, 15.4, 5.2,0,0,1024,1024,1024,1024,0,0,0,0,0,0,0,99,4.005,4.007,0,0,0,0,4.22,70.34,624.17086905483,1.312336,6,P-GPS,
5900,2024-02-04 17:09:11,40.4290443658002,-86.9292924330771,1.312336,,,624.17086905483,3.608924,7.82929,13.982611996,16.9396002796,25,5,8.042,625.48320505483,2.624672,9.171454,13.982611996,7.82929,-0.223694,-0.447388,3.7, 22.3, 3.4,0,0,1024,1024,1024,1024,0,0,0,0,0,0,0,99,4.005,4.007,0,0,0,0,4.22,70.34,624.17086905483,1.312336,6,P-GPS,
6000,2024-02-04 17:09:11,40.4290472810993,-86.9292925768102,1.312336,,,624.17086905483,3.608924,6.7331894,15.00656216,18.0039703924,25,5,8.042,625.48320505483,2.624672,9.171454,15.00656216,6.71082,-0.447388,0,4, 23.5, 4.6,0,0,1024,1024,1024,1024,0,0,0,0,0,0,0,99,4.005,4.007,0,0,0,0,4.22,70.34,624.17086905483,1.312336,6,P-GPS,
6100,2024-02-04 17:09:11,40.429049967641,-86.9292928444297,1.64042,,,624.49895305483,3.608924,5.8384134,15.965551692,18.9869756732,25,5,8.042,625.48320505483,2.624672,9.171454,15.965551692,5.816044,-0.447388,0,4, 22.9, 5.8,0,0,1024,1024,1024,1024,0,0,0,0,0,0,0,99,4.005,4.007,0,0,0,0,4.22,70.34,624.49895305483,1.64042,6,P-GPS,
6200,2024-02-04 17:09:11,40.4290521318626,-86.929292823741,1.64042,,,624.49895305483,3.608924,4.7423128,16.7220805876,19.7766082444,25,5,8.042,625.48320505483,2.624672,9.171454,16.7220805876,4.697574,-0.671082,0,4.3, 22.7, 6.7,0,0,1024,1024,1024,1024,0,0,0,0,0,0,0,99,4.005,4.007,0,0,0,0,4.22,70.34,624.49895305483,1.64042,6,P-GPS,
6300,2024-02-04 17:09:11,40.4290540636923,-86.9292932063287,1.64042,,,624.49895305483,3.608924,4.7423128,17.4293640748,20.4894035428,25,5,8.042,625.48320505483,2.624672,9.171454,17.4293640748,3.802798,-0.671082,0,4.6, 22.3, 7.7,0,0,1024,1024,1024,1024,0,0,0,0,0,0,0,99,4.005,4.007,0,0,0,0,4.22,70.34,624.49895305483,1.64042,6,P-GPS,
6400,2024-02-04 17:09:11,40.4290554831027,-86.9292936173535,1.64042,,,624.49895305483,3.608924,3.0422384,17.9589244592,21.0197185204,25,5,8.042,625.48320505483,2.624672,9.171454,17.9589244592,2.908022,-0.894776,0,5.2, 21.5, 10.2,0,0,1024,1024,1024,1024,0,0,0,0,0.1,0,0,99,4.005,4.007,0,0,0,0,4.22,70.34,624.49895305483,1.64042,6,P-GPS,
6500,2024-02-04 17:09:12,40.4290565710661,-86.9292940626507,1.968504,,,624.82703705483,3.608924,2.1922012,18.3744756536,21.4354665652,25,5,8.008,625.48320505483,2.624672,9.171454,18.3744756536,2.013246,-0.894776,0,5.1, 17.9, 12.2,0,0,1024,1024,1024,1024,0,0,0,0,0,0,0,99,4.013,4.012,0,0,0,0,4.387,70.34,624.82703705483,1.968504,6,P-GPS,
6600,2024-02-04 17:09:12,40.429057217604,-86.9292944547593,1.968504,,,624.82703705483,3.608924,2.1922012,18.6309389164,21.6952762848,25,5,8.008,625.48320505483,2.624672,9.171454,18.6309389164,1.342164,-0.671082,0,4.3, 12.2, 12.5,0,0,1024,1024,1024,1024,0,0,0,0,0,0,0,99,4.013,4.012,0,0,0,0,4.387,70.34,624.82703705483,1.968504,6,P-GPS,
6700,2024-02-04 17:09:12,40.4290576945557,-86.929294842507,1.968504,,,624.82703705483,3.608924,1.11847,18.827592466,21.899935084,25,5,8.008,625.48320505483,2.624672,9.171454,18.827592466,0.894776,-0.671082,0,3.6, 7.5, 11.7,0,0,1024,1024,1024,1024,0,0,0,0,0.1,0,0,99,4.013,4.012,0,0,0,0,4.387,70.34,624.82703705483,1.968504,6,P-GPS,
6800,2024-02-04 17:09:12,40.4290579712544,-86.9292951710269,1.968504,,,624.82703705483,3.608924,0.6263432,18.9496725224,22.0359915188,25,5,8.008,625.48320505483,2.624672,9.171454,18.9496725224,0.447388,-0.447388,0,3.3, 4.5, 11.3,0,0,1024,1024,1024,1024,0,0,0,0,0.1,0,0,99,4.013,4.012,0,0,0,0,4.387,70.34,624.82703705483,1.968504,6,P-GPS,
6900,2024-02-04 17:09:12,40.429058147211,-86.9292954822126,1.968504,,,624.82703705483,3.608924,0.4921268,19.035269638,22.1436686876,25,5,8.008,625.48320505483,2.624672,9.171454,19.035269638,0.223694,-0.447388,0,3.1, 2.7, 10.8,0,0,1024,1024,1024,1024,0,0,0,0,0,0,0,99,4.013,4.012,0,0,0,0,4.387,70.34,624.82703705483,1.968504,6,P-GPS,
7000,2024-02-04 17:09:12,40.429058111737,-86.929295841054,2.296588,,,625.15512105483,3.608924,0.4921268,19.0508864364,22.2441608168,25,5,8.008,625.48320505483,2.624672,9.171454,19.0508864364,0.223694,-0.447388,0,3, 1.7, 10,0,0,1024,1024,1024,1024,0,0,0,0,0,0,0,99,4.013,4.012,0,0,0,0,4.387,70.34,625.15512105483,2.296588,6,P-GPS,
7100,2024-02-04 17:09:12,40.4290581369453,-86.9292961205466,2.296588,,,625.15512105483,3.608924,0.223694,19.0818247576,22.3223104256,25,5,8.008,625.48320505483,2.624672,9.171454,19.0818247576,0,-0.223694,0,2.9, 0.8, 9.3,0,0,1024,1024,1024,1024,0,0,0,0,0,0,0,99,4.013,4.012,0,0,0,0,4.387,70.34,625.15512105483,2.296588,6,P-GPS,
7200,2024-02-04 17:09:12,40.4290581229733,-86.9292963573986,2.296588,,,625.15512105483,3.608924,0.223694,19.095965178,22.388288118,25,5,8.008,625.48320505483,2.624672,9.171454,19.095965178,0,-0.223694,0,2.8, -0.3, 9.3,0,0,1024,1024,1024,1024,0,0,0,0,0,0,0,99,4.013,4.012,0,0,0,0,4.387,70.34,625.15512105483,2.296588,6,P-GPS,
7300,2024-02-04 17:09:12,40.4290580967097,-86.9292965926652,2.296588,,,625.15512105483,3.608924,0.223694,19.1058733148,22.4543314272,25,5,8.008,625.48320505483,2.624672,9.171454,19.1058733148,0,-0.223694,0,3, 0.3, 10,0,0,1024,1024,1024,1024,0,0,0,0,0,0,0,99,4.013,4.012,0,0,0,0,4.387,70.34,625.15512105483,2.296588,6,P-GPS,
7400,2024-02-04 17:09:12,40.4290580232734,-86.9292967656106,2.296588,,,625.15512105483,3.608924,0.223694,19.0944231832,22.5093183056,25,5,8.008,625.48320505483,2.624672,9.171454,19.1058733148,0,-0.223694,0,2.8, 0, 8.6,0,0,1024,1024,1024,1024,0,0,0,0,0,0,0,99,4.013,4.012,0,0,0,0,4.387,70.34,625.15512105483,2.296588,6,P-GPS,
7500,2024-02-04 17:09:13,40.4290579595817,-86.9292969784659,2.624672,,,625.48320505483,3.608924,0.223694,19.0898628156,22.572835368,25,5,8.008,625.48320505483,2.624672,9.171454,19.1058733148,0,-0.223694,0,2.9, -0.2, 8.8,0,0,1024,1024,1024,1024,0,0,0,0,0,0,0,99,4.013,4.012,0,0,0,0,4.387,70.34,625.48320505483,2.624672,6,P-GPS,
7600,2024-02-04 17:09:13,40.4290579248828,-86.929297157127,2.624672,,,625.48320505483,3.608924,0.223694,19.0927171464,22.6240492804,25,5,8.008,625.48320505483,2.624672,9.171454,19.1058733148,0,-0.223694,0,2.8, -0.8, 10.4,0,0,1024,1024,1024,887,0,0,0,-21,0,0,0,99,4.013,4.012,0,0,0,0,4.387,70.34,625.48320505483,2.624672,6,P-GPS,
7700,2024-02-04 17:09:13,40.4290579010424,-86.9292973113722,2.624672,,,625.48320505483,3.608924,0.223694,19.0974087476,22.6677828776,25,5,8.008,625.48320505483,2.624672,9.171454,19.1058733148,0,-0.223694,0,2.7, -1.2, 11.2,0,0,1024,1024,1024,887,0,0,0,-21,0,0,0,99,4.013,4.012,0,0,0,0,4.387,70.34,625.48320505483,2.624672,6,P-GPS,
7800,2024-02-04 17:09:13,40.4290578752609,-86.9292974604235,2.624672,,,625.48320505483,3.608924,0.223694,19.1010832884,22.7102369472,25,5,8.01,625.48320505483,2.624672,9.171454,19.1058733148,0,-0.223694,0,2.8, -0.7, 11.7,0,0,1024,1024,1024,490,0,0,0,-81,0,0,0,99,3.999,3.998,0,0,0,0,4.02,70.52,625.48320505483,2.624672,6,P-GPS,
7900,2024-02-04 17:09:13,40.4290579247916,-86.9292975385034,2.624672,,,625.48320505483,3.608924,0,19.1249349952,22.7384521712,25,5,8.01,625.48320505483,2.624672,9.171454,19.1249349952,0,0,0,2.5, -0.9, 11.3,0,0,1024,1024,1024,698,0,0,0,-49,358.8,0,0,99,3.999,3.998,0,0,0,0,4.02,70.52,625.48320505483,2.624672,6,P-GPS,
8000,2024-02-04 17:09:13,40.4290578764073,-86.9292976038112,2.624672,,,625.48320505483,3.608924,0,19.1137473308,22.7637474476,25,5,8.01,625.48320505483,2.624672,9.171454,19.1249349952,0,0,0,0.9, -0.7, 10.3,0,0,1024,1024,1024,1024,0,0,0,0,355.8,0,0,99,3.999,3.998,0,0,0,0,4.02,70.52,625.48320505483,2.624672,6,P-GPS,
8100,2024-02-04 17:09:13,40.4290578239779,-86.9292976423145,2.624672,,,625.48320505483,3.608924,0,19.0988523172,22.7856634588,25,5,8.01,625.48320505483,2.624672,9.171454,19.1249349952,0,0,0,358.6, 0.3, 9.4,0,0,1024,1024,1024,1024,0,0,0,0,354.3,0,0,99,3.999,3.998,0,0,0,0,4.02,70.52,625.48320505483,2.624672,6,P-GPS,
8200,2024-02-04 17:09:13,40.4290578245446,-86.9292976744803,2.952756,,,625.81128905483,3.608924,0,19.1018050732,22.794620152,25,5,8.01,625.81128905483,2.952756,9.171454,19.1249349952,0,0,0,357.2, 0.5, 9.3,0,0,1024,1024,1024,1024,0,0,0,0,354.1,0,0,99,3.999,3.998,0,0,0,0,4.02,70.52,625.81128905483,2.952756,6,P-GPS,
8300,2024-02-04 17:09:13,40.4290579617247,-86.9292977266953,2.952756,,,625.81128905483,3.608924,0,19.153872004,22.8467198912,25,5,8.01,625.81128905483,2.952756,9.171454,19.153872004,0,0,0,357, 1, 9.2,0,0,1024,1024,1024,364,0,0,0,-100,354.1,0,0,99,3.999,3.998,0,0,0,0,4.02,70.52,625.81128905483,2.952756,6,P-GPS,
8400,2024-02-04 17:09:13,40.429057967522,-86.9292977693823,2.952756,,,625.81128905483,3.608924,0,19.1595478572,22.858760574,25,5,8.01,625.81128905483,2.952756,9.171454,19.1595478572,0,0,0,357, 1.2, 9.1,0,0,1024,1024,1024,1024,0,0,0,0,353.9,0,0,99,3.999,3.998,0,0,0,0,4.02,70.52,625.81128905483,2.952756,6,P-GPS,
8500,2024-02-04 17:09:13,40.4290579582203,-86.9292978128712,2.952756,,,625.81128905483,3.608924,0,19.1600727916,22.8712933828,25,5,8.01,625.81128905483,2.952756,9.171454,19.1600727916,0,0,0,356.3, 1.8, 9.5,0,0,1024,1024,1024,1024,0,0,0,0,351,0,0,99,3.999,3.998,0,0,0,0,4.02,70.52,625.81128905483,2.952756,6,P-GPS,
8600,2024-02-04 17:09:14,40.4290579162586,-86.929297828973,2.952756,,,625.81128905483,3.608924,0,19.1469166232,22.8872710736,25,5,8.01,625.81128905483,2.952756,9.171454,19.1600727916,0,0,0,353.4, 2, 9.3,0,0,1024,1024,1024,1024,0,0,0,0,347.3,0,0,99,3.999,3.998,0,0,0,0,4.02,70.52,625.81128905483,2.952756,6,P-GPS,
8700,2024-02-04 17:09:14,40.4290577858267,-86.9292978949449,2.952756,,,625.81128905483,3.608924,0,19.1074153096,22.9382553272,25,5,8.01,625.81128905483,2.952756,9.171454,19.1600727916,0,0,0,350.5, 1.8, 8.6,0,0,1024,1024,1024,1024,0,0,0,0,346.5,0,0,99,3.999,3.998,0,0,0,0,4.02,70.52,625.81128905483,2.952756,6,P-GPS,
8800,2024-02-04 17:09:14,40.4290577470632,-86.9292978660287,2.952756,,,625.81128905483,3.608924,0,19.0914704272,22.9545282936,25,5,8.01,625.81128905483,2.952756,9.171454,19.1600727916,0,0,0,349.6, 1.9, 8.3,0,0,1024,1024,1024,1024,0,0,0,0,346.5,0,0,99,3.999,3.998,0,0,0,0,4.02,70.52,625.81128905483,2.952756,6,P-GPS,
8900,2024-02-04 17:09:14,40.4290577176275,-86.9292978352697,2.952756,,,625.81128905483,3.608924,0,19.0786095344,22.9682422048,25,5,8.01,625.81128905483,2.952756,9.171454,19.1600727916,0,0,0,349.5, 2.4, 8.7,0,0,1024,1024,1024,1024,0,0,0,0,346.5,0,0,99,3.999,3.998,0,0,0,0,4.02,70.52,625.81128905483,2.952756,6,P-GPS,
9000,2024-02-04 17:09:14,40.4290576927514,-86.9292978400415,2.952756,,,625.81128905483,3.608924,0,19.0704074344,22.9773957484,25,5,8.01,625.81128905483,2.952756,9.171454,19.1600727916,0,0,0,349.5, 2.4, 9.3,0,0,1024,1024,1024,1024,0,0,0,0,346.5,0,0,99,3.999,3.998,0,0,0,0,4.02,70.52,625.81128905483,2.952756,6,P-GPS,
9100,2024-02-04 17:09:14,40.429057721868,-86.9292978241366,3.28084,,,626.13937305483,3.608924,0,19.0791016604,22.9889114968,25,5,8.01,626.13937305483,3.28084,9.171454,19.1600727916,0,0,0,349.5, 2.2, 9.3,0,0,1178,1024,1024,1024,23,0,0,0,346.5,0,0,99,3.999,3.998,0,0,0,0,4.02,70.52,626.13937305483,3.28084,6,P-GPS,
9200,2024-02-04 17:09:14,40.4290577034796,-86.9292978248062,3.28084,,,626.13937305483,3.608924,0,19.0728024476,22.9956372188,25,5,8.01,626.13937305483,3.28084,9.171454,19.1600727916,0,0,0,349.5, 2.1, 9.3,0,0,1024,1024,1024,1024,0,0,0,0,346.5,0,0,99,3.999,3.998,0,0,0,0,4.02,70.52,626.13937305483,3.28084,6,P-GPS,
9300,2024-02-04 17:09:14,40.4290576869802,-86.9292978116951,3.28084,,,626.13937305483,3.608924,0,19.065945492,23.0026582164,25,5,8.004,626.13937305483,3.28084,9.171454,19.1600727916,0,0,0,349.4, 1.2, 9.2,0,0,1024,1024,1024,1024,0,0,0,0,346.5,0,0,99,3.999,4.003,0,0,0,0,3.954,70.52,626.13937305483,3.28084,6,P-GPS,
9400,2024-02-04 17:09:14,40.4290576472005,-86.9292978266603,3.28084,,,626.13937305483,3.608924,0,19.0534454916,23.0177500804,26,5,8.004,626.13937305483,3.28084,9.171454,19.1600727916,0,0,0,349.4, 1.6, 8,0,0,1024,1024,1408,1024,0,0,58,0,346.4,0,0,99,3.999,4.003,0,0,0,0,3.954,70.52,626.13937305483,3.28084,6,P-GPS,
9500,2024-02-04 17:09:15,40.429057595644,-86.9292978640452,3.28084,,,626.13937305483,3.608924,0,19.0388129452,23.0392395824,26,5,8.004,626.13937305483,3.28084,9.171454,19.1600727916,0,0,0,349.4, 1.7, 7.1,0,0,1024,1024,1684,1024,0,0,100,0,346.5,0,0,99,3.999,4.003,0,0,0,0,3.954,70.52,626.13937305483,3.28084,6,P-GPS,
9600,2024-02-04 17:09:15,40.4290575757119,-86.9292980345681,3.28084,,,626.13937305483,3.608924,0,19.0468181948,23.0871726548,26,5,8.004,626.13937305483,3.28084,9.171454,19.1600727916,0,0,0,349.3, 0.7, 6.8,0,0,1024,1024,1684,1024,0,0,100,0,346.5,0,0,99,3.999,4.003,0,0,0,0,3.954,70.52,626.13937305483,3.28084,6,P-GPS,
9700,2024-02-04 17:09:15,40.4290575808512,-86.9292981388884,3.28084,,,626.13937305483,3.608924,0,19.057743392,23.1161752804,26,5,8.004,626.13937305483,3.28084,9.171454,19.1600727916,0,0,-0.671082,349.2, 0.4, 6.2,0,0,1024,1024,1684,1024,0,0,100,0,346.5,0,0,99,3.999,4.003,0,0,0,0,3.954,70.52,626.13937305483,3.28084,6,P-GPS,
9800,2024-02-04 17:09:15,40.4290575947646,-86.9292982522965,3.608924,,,626.46745705483,3.937008,0,19.0725727888,23.1480978536,26,5,8.004,626.46745705483,3.608924,9.171454,19.1600727916,0,0,-1.565858,349.4, 1.8, 7.1,0,0,1024,1024,1586,1024,0,0,85,0,346.4,0,0,99,3.999,4.003,0,0,0,0,3.954,70.52,626.46745705483,3.608924,6,P-GPS,
9900,2024-02-04 17:09:15,40.4290576111924,-86.929298373228,3.937008,,,626.79554105483,4.265092,0,19.0889769888,23.1822185896,26,5,8.004,626.79554105483,3.937008,9.171454,19.1600727916,0,0,-2.23694,349.5, 2.9, 8.4,0,0,1024,1024,1557,1024,0,0,81,0,346.4,0,0,99,3.999,4.003,0,0,0,0,3.954,70.52,626.79554105483,3.937008,6,P-GPS,
10000,2024-02-04 17:09:15,40.4290577019749,-86.9292983663447,4.265092,,,627.12362505483,4.593176,0,19.119751268,23.215387882,26,5,8.004,627.12362505483,4.265092,9.171454,19.1600727916,0,0,-2.908022,349.5, 3, 8.6,0,0,1024,1024,1550,1024,0,0,80,0,346.5,0,0,99,3.999,4.003,0,0,0,0,3.954,70.52,627.12362505483,4.265092,6,P-GPS,
10100,2024-02-04 17:09:15,40.4290577198291,-86.9292983559233,4.92126,,,627.77979305483,5.249344,0,19.125000612,23.2225073048,26,5,8.004,627.77979305483,4.92126,9.171454,19.1600727916,0,0,-3.35541,349.6, 2.9, 7.6,0,0,1024,1024,1024,1024,0,0,0,0,346.4,0,0,99,3.999,4.003,0,0,0,0,3.954,70.52,627.77979305483,4.92126,6,P-GPS,
10200,2024-02-04 17:09:15,40.4290576853778,-86.9292983828784,5.249344,,,628.10787705483,5.577428,0,19.115486176,23.2371398512,26,5,8.004,628.10787705483,5.249344,9.171454,19.1600727916,0,0,-3.579104,349.8, 4.3, 7.7,0,0,1024,1024,1024,1024,0,0,0,0,346.5,0,0,99,3.999,4.003,0,0,0,0,3.954,70.52,628.10787705483,5.249344,6,P-GPS,
10300,2024-02-04 17:09:15,40.4290576111859,-86.9292984455232,5.905512,,,628.76404505483,6.233596,0,19.0954074352,23.2693248916,26,5,8.004,628.76404505483,5.905512,9.171454,19.1600727916,0,0,-3.131716,349.9, 4.7, 8.3,0,0,1024,1024,1024,1024,0,0,0,0,346.4,0,0,99,3.999,4.003,0,0,0,0,3.954,70.52,628.76404505483,5.905512,6,P-GPS,
10400,2024-02-04 17:09:15,40.4290573211014,-86.9292984566508,6.233596,,,629.09212905483,6.56168,0,18.9961948336,23.3751975984,26,5,8.004,629.09212905483,6.233596,9.171454,19.1600727916,0,0,-2.23694,349.7, 3.1, 7.9,0,0,1024,1024,1024,1024,0,0,0,0,346.5,0,0,99,3.999,4.003,0,0,0,0,3.954,70.52,629.09212905483,6.233596,6,P-GPS,
10500,2024-02-04 17:09:15,40.4290571565829,-86.9292984790451,6.56168,,,629.42021305483,6.889764,0,18.9413719972,23.4355650544,26,5,8.004,629.42021305483,6.56168,9.171454,19.1600727916,0,0,-1.565858,349.6, 2, 7.5,0,0,1024,1024,1024,1024,0,0,0,0,346.5,0,0,99,3.999,4.003,0,0,0,0,3.954,70.52,629.42021305483,6.56168,6,P-GPS,
10600,2024-02-04 17:09:16,40.4290571095535,-86.9292984921689,6.56168,,,629.42021305483,6.889764,0,18.92634575,23.45308474,25,5,8.004,629.42021305483,6.56168,9.171454,19.1600727916,0,0,-0.894776,349.4, 0.8, 6.9,0,0,1024,1024,1024,1024,0,0,0,0,346.4,0,0,99,3.999,4.003,0,0,0,0,3.954,70.52,629.42021305483,6.56168,6,P-GPS,
10700,2024-02-04 17:09:16,40.4290571156504,-86.9292985208262,6.889764,,,629.74829705483,7.217848,0,18.9310373512,23.4613524568,25,5,7.904,629.74829705483,6.889764,9.171454,19.1600727916,0,0,-0.447388,349.3, 0.2, 7.3,0,0,1024,1024,1024,1024,0,0,0,0,346.5,0,0,99,4.01,4.015,0,0,0,0,4.572,70.52,629.74829705483,6.889764,6,P-GPS,
10800,2024-02-04 17:09:16,40.4290572795305,-86.929298474023,6.889764,,,629.74829705483,7.217848,0,18.9833995576,23.5225401228,26,5,7.904,629.74829705483,6.889764,9.171454,19.1600727916,0,0,-0.223694,349.4, 0.9, 8,0,0,1024,1024,1024,1024,0,0,0,0,346.5,0,0,99,4.01,4.015,0,0,0,0,4.572,70.52,629.74829705483,6.889764,6,P-GPS,
10900,2024-02-04 17:09:16,40.4290572703004,-86.9292985590959,6.889764,,,629.74829705483,7.217848,0,18.9878286916,23.546424638,26,5,7.904,629.74829705483,6.889764,9.171454,19.1600727916,0,0,0,349.4, 1.1, 8.5,0,0,1024,1024,1024,1024,0,0,0,0,346.4,0,0,99,4.01,4.015,0,0,0,0,4.572,70.52,629.74829705483,6.889764,6,P-GPS,
11000,2024-02-04 17:09:16,40.4290572117807,-86.9292986704726,6.889764,,,629.74829705483,7.217848,0,18.9777237044,23.583990256,25,5,7.904,629.74829705483,6.889764,9.171454,19.1600727916,0,0,0,349.4, 1.9, 8.9,0,0,1024,1024,1024,1024,0,0,0,0,346.5,0,0,99,4.01,4.015,0,0,0,0,4.572,70.52,629.74829705483,6.889764,6,P-GPS,
11100,2024-02-04 17:09:16,40.4290571325536,-86.9292987981974,6.889764,,,629.74829705483,7.217848,0,18.9620084808,23.629757974,25,5,7.904,629.74829705483,6.889764,9.171454,19.1600727916,0,0,0,349.5, 2.7, 9.7,0,0,1024,1024,1024,1024,0,0,0,0,346.4,0,0,99,4.01,4.015,0,0,0,0,4.572,70.52,629.74829705483,6.889764,6,P-GPS,
11200,2024-02-04 17:09:16,40.4290571372045,-86.9292989702494,6.889764,,,629.74829705483,7.217848,0,18.979331316,23.6775598128,26,5,7.904,629.74829705483,6.889764,9.171454,19.1600727916,0,0,0,349.6, 3.2, 9.6,0,0,1024,1024,1024,1024,0,0,0,0,346.5,0,0,99,4.01,4.015,0,0,0,0,4.572,70.52,629.74829705483,6.889764,6,P-GPS,
11300,2024-02-04 17:09:16,40.4290571538732,-86.9292993522223,6.889764,,,629.74829705483,7.217848,0,19.0203746244,23.7838262204,26,5,7.904,629.74829705483,6.889764,9.171454,19.1600727916,0,0,0,349.6, 2.8, 9.4,0,0,1024,1024,1024,1024,0,0,0,0,346.5,0,0,99,4.01,4.015,0,0,0,0,4.572,70.52,629.74829705483,6.889764,6,P-GPS,
11400,2024-02-04 17:09:16,40.429057145744,-86.9292994831362,6.889764,,,629.74829705483,7.217848,0,19.0298234436,23.8203091612,26,5,7.904,629.74829705483,6.889764,9.171454,19.1600727916,0,0,0,349.6, 2.5, 9.5,0,0,1024,1024,1024,1024,0,0,0,0,346.5,0,0,99,4.01,4.015,0,0,0,0,4.572,70.52,629.74829705483,6.889764,6,P-GPS,
11500,2024-02-04 17:09:16,40.4290571195912,-86.9292995931933,6.889764,,,629.74829705483,7.217848,0,19.031168588,23.8523301596,26,5,7.904,629.74829705483,6.889764,9.171454,19.1600727916,0,0,0,349.5, 2.5, 10.1,0,0,1024,1024,1024,1024,0,0,0,0,346.5,0,0,99,4.01,4.015,0,0,0,0,4.572,70.52,629.74829705483,6.889764,6,P-GPS,
11600,2024-02-04 17:09:17,40.4290570933277,-86.9292996914196,6.889764,,,629.74829705483,7.217848,0,19.0313982468,23.88123436,26,5,7.904,629.74829705483,6.889764,9.171454,19.1600727916,0,0,0,349.5, 2.5, 10.4,0,0,1024,1024,1024,1024,0,0,0,0,346.5,0,0,99,4.01,4.015,0,0,0,0,4.572,70.52,629.74829705483,6.889764,6,P-GPS,
11700,2024-02-04 17:09:17,40.4290570732717,-86.929299794343,6.889764,,,629.74829705483,6.889764,0,19.0342525776,23.91076192,26,5,7.904,629.74829705483,6.889764,9.171454,19.1600727916,0,0,0,349.6, 2.7, 10.3,0,0,1024,1024,1024,1024,0,0,0,0,346.4,0,0,99,4.01,4.015,0,0,0,0,4.572,70.52,629.74829705483,6.889764,6,P-GPS,
11800,2024-02-04 17:09:17,40.4290570476791,-86.9292998279845,6.889764,,,629.74829705483,6.889764,0,19.0286751496,23.9239508968,26,5,7.904,629.74829705483,6.889764,9.171454,19.1600727916,0,0,0,349.5, 2.2, 9.7,0,0,1024,1024,1024,1024,0,0,0,0,346.5,0,0,99,4.01,4.015,0,0,0,0,4.572,70.52,629.74829705483,6.889764,6,P-GPS,
11900,2024-02-04 17:09:17,40.4290570215589,-86.9292998516027,6.889764,,,629.74829705483,6.889764,0,19.0219494276,23.935532262,26,5,7.904,629.74829705483,6.889764,9.171454,19.1600727916,0,0,0,349.5, 2.3, 9.3,0,0,1024,1024,1024,1024,0,0,0,0,346.4,0,0,99,4.01,4.015,0,0,0,0,4.572,70.52,629.74829705483,6.889764,6,P-GPS,
12000,2024-02-04 17:09:17,40.429057005535,-86.9292998511793,6.889764,,,629.74829705483,6.889764,0,19.0164376164,23.9413721572,26,5,7.904,629.74829705483,6.889764,9.171454,19.1600727916,0,0,0,349.6, 2.4, 10.2,0,0,1024,1024,1024,1024,0,0,0,0,346.5,0,0,99,4.01,4.015,0,0,0,0,4.572,70.52,629.74829705483,6.889764,6,P-GPS,
12100,2024-02-04 17:09:17,40.4290570384295,-86.9292996996224,7.217848,,,630.07638105483,6.889764,0,19.0133208184,23.9851385628,26,5,7.904,630.07638105483,7.217848,9.171454,19.1600727916,0,0,0,349.6, 2.2, 10.3,0,0,1024,1024,1024,1024,0,0,0,0,346.5,0,0,99,4.01,4.015,0,0,0,0,4.572,70.52,630.07638105483,7.217848,6,P-GPS,
12200,2024-02-04 17:09:17,40.4290569839418,-86.9292996881418,7.217848,,,630.07638105483,6.889764,0,18.9935701616,24.0052829204,26,5,8.008,630.07638105483,7.217848,9.171454,19.1600727916,0,0,0,349.4, 1.5, 10.5,0,0,1024,1024,1024,1024,0,0,0,0,346.5,0,0,99,3.993,3.994,0,0,0,0,3.49,70.7,630.07638105483,7.217848,6,P-GPS,
12300,2024-02-04 17:09:17,40.429056912401,-86.9292996710889,7.217848,,,630.07638105483,6.889764,0,18.9674218668,24.0317921076,26,5,8.008,630.07638105483,7.217848,9.171454,19.1600727916,0,0,0,349.5, 1.5, 10.6,0,0,1024,1024,1024,1024,0,0,0,0,346.5,0,0,99,3.993,3.994,0,0,0,0,3.49,70.7,630.07638105483,7.217848,6,P-GPS,
12400,2024-02-04 17:09:17,40.4290568767055,-86.9292996441127,7.217848,,,630.07638105483,6.889764,0,18.9526252784,24.0468183548,26,5,8.008,630.07638105483,7.217848,9.171454,19.1600727916,0,0,0,349.5, 1.6, 10.8,0,0,1024,1024,1024,1024,0,0,0,0,346.5,0,0,99,3.993,3.994,0,0,0,0,3.49,70.7,630.07638105483,7.217848,6,P-GPS,
12500,2024-02-04 17:09:18,40.4290568512953,-86.929299554586,7.217848,,,630.07638105483,6.889764,0,18.9354336768,24.0733603504,26,5,8.008,630.07638105483,7.217848,9.171454,19.1600727916,0,0,0,349.5, 1.5, 10.3,0,0,1024,1024,1024,1024,0,0,0,0,346.5,0,0,99,3.993,3.994,0,0,0,0,3.49,70.7,630.07638105483,7.217848,6,P-GPS,
12600,2024-02-04 17:09:18,40.4290568254942,-86.9292995005084,7.217848,,,630.07638105483,6.889764,0,18.9214901068,24.0910768864,26,5,8.008,630.07638105483,7.217848,9.171454,19.1600727916,0,0,0,349.4, 1.4, 9.3,0,0,1024,1024,1024,1024,0,0,0,0,346.5,0,0,99,3.993,3.994,0,0,0,0,3.49,70.7,630.07638105483,7.217848,6,P-GPS,
12700,2024-02-04 17:09:18,40.4290567977455,-86.9292994413608,7.217848,,,630.07638105483,6.889764,0,18.9063982428,24.110401034,26,5,8.008,630.07638105483,7.217848,9.171454,19.1600727916,0,0,0,349.4, 1.8, 9,0,0,1024,1024,1024,1024,0,0,0,0,346.5,0,0,99,3.993,3.994,0,0,0,0,3.49,70.7,630.07638105483,7.217848,6,P-GPS,
12800,2024-02-04 17:09:18,40.4290567770317,-86.9292994100771,7.217848,,,630.07638105483,6.889764,0,18.896326064,24.1219167824,26,5,8.008,630.07638105483,7.217848,9.171454,19.1600727916,0,0,0,349.5, 2.4, 9.5,0,0,1024,1024,1024,1024,0,0,0,0,346.4,0,0,99,3.993,3.994,0,0,0,0,3.49,70.7,630.07638105483,7.217848,6,P-GPS,
12900,2024-02-04 17:09:18,40.4290567536798,-86.9292993868344,7.217848,,,630.07638105483,6.889764,0,18.8861226516,24.1325795124,26,5,8.008,630.07638105483,7.217848,9.171454,19.1600727916,0,0,0,349.6, 2.5, 9.9,0,0,1024,1024,1024,1024,0,0,0,0,346.5,0,0,99,3.993,3.994,0,0,0,0,3.49,70.7,630.07638105483,7.217848,6,P-GPS,
13000,2024-02-04 17:09:18,40.4290566980652,-86.9292993392308,7.217848,,,630.07638105483,6.889764,0,18.8625662204,24.1567921116,26,5,8.008,630.07638105483,7.217848,9.171454,19.1600727916,0,0,0,349.5, 2, 10.2,0,0,1024,1024,1024,1024,0,0,0,0,346.5,0,0,99,3.993,3.994,0,0,0,0,3.49,70.7,630.07638105483,7.217848,6,P-GPS,
13100,2024-02-04 17:09:18,40.4290566504169,-86.929299329631,7.217848,,,630.07638105483,6.889764,0,18.845309002,24.1744102224,26,5,8.008,630.07638105483,7.217848,9.171454,19.1600727916,0,0,0,349.3, 0.9, 9.1,0,0,1024,1024,1024,1024,0,0,0,0,346.5,0,0,99,3.993,3.994,0,0,0,0,3.49,70.7,630.07638105483,7.217848,6,P-GPS,
13200,2024-02-04 17:09:18,40.4290566353441,-86.9292992745771,7.217848,,,630.07638105483,6.889764,0,18.834974356,24.1906503804,26,5,8.008,630.07638105483,7.217848,9.171454,19.1600727916,0,0,0,349.4, 1.9, 10,0,0,1024,1024,1024,1024,0,0,0,0,346.5,0,0,99,3.993,3.994,0,0,0,0,3.49,70.7,630.07638105483,7.217848,6,P-GPS,
13300,2024-02-04 17:09:18,40.4290566291104,-86.9292992053148,7.217848,,,630.07638105483,6.889764,0,18.8263457468,24.2100073364,26,5,8.008,630.07638105483,7.217848,9.171454,19.1600727916,0,0,0,349.5, 2.1, 9,0,0,1024,1024,1024,1024,0,0,0,0,346.5,0,0,99,3.993,3.994,0,0,0,0,3.49,70.7,630.07638105483,7.217848,6,P-GPS,
13400,2024-02-04 17:09:18,40.4290566757816,-86.9292990587478,7.217848,,,630.07638105483,6.889764,0,18.82874076,24.2541346344,26,5,8.008,630.07638105483,7.217848,9.171454,19.1600727916,0,0,0,349.3, 1.2, 9.7,0,0,1024,1024,1024,1024,0,0,0,0,346.5,0,0,99,3.993,3.994,0,0,0,0,3.49,70.7,630.07638105483,7.217848,6,P-GPS,
13500,2024-02-04 17:09:18,40.4290566762766,-86.9292990140815,7.217848,,,630.07638105483,6.889764,0,18.8247381352,24.2665362096,26,5,8.008,630.07638105483,7.217848,9.171454,19.1600727916,0,0,0,349.6, 2.3, 10,0,0,1024,1024,1024,1024,0,0,0,0,346.5,0,0,99,3.989,3.997,0,0,0,0,3.49,70.7,630.07638105483,7.217848,6,P-GPS,
13600,2024-02-04 17:09:19,40.4290566508924,-86.9292989693181,7.217848,,,630.07638105483,6.889764,0,18.8118772424,24.2820545828,26,5,8.008,630.07638105483,7.217848,9.171454,19.1600727916,0,0,0,349.5, 2, 9.9,0,0,1024,1024,1024,1024,0,0,0,0,346.5,0,0,99,3.989,3.997,0,0,0,0,3.49,70.7,630.07638105483,7.217848,6,P-GPS,
13700,2024-02-04 17:09:19,40.429056614487,-86.9292989104223,7.217848,,,630.07638105483,6.889764,0,18.7938982392,24.3031175756,26,5,8.008,630.07638105483,7.217848,9.171454,19.1600727916,0,0,0,349.6, 2.2, 9.4,0,0,1024,1024,1024,1024,0,0,0,0,346.5,0,0,99,3.989,3.997,0,0,0,0,3.49,70.7,630.07638105483,7.217848,6,P-GPS,
13800,2024-02-04 17:09:19,40.4290564610029,-86.9292988288297,6.889764,,,629.74829705483,6.889764,0,18.7335635916,24.36351784,26,5,8.008,630.07638105483,7.217848,9.171454,19.1600727916,0,0,0,349.4, 1.7, 8.8,0,0,1024,1024,1024,1024,0,0,0,0,346.4,0,0,99,3.989,3.997,0,0,0,0,3.49,70.7,629.74829705483,6.889764,6,P-GPS,
13900,2024-02-04 17:09:19,40.4290563931358,-86.9292987564163,6.889764,,,629.74829705483,6.889764,0,18.7035110972,24.3954404132,26,5,8.008,630.07638105483,7.217848,9.171454,19.1600727916,0,0,0,349.4, 1.6, 8.9,0,0,1024,1024,1024,1024,0,0,0,0,346.4,0,0,99,3.989,3.997,0,0,0,0,3.49,70.7,629.74829705483,6.889764,6,P-GPS,
14000,2024-02-04 17:09:19,40.4290563271057,-86.9292987089885,6.889764,,,629.74829705483,6.889764,0,18.6764113588,24.4228682356,26,5,8.008,630.07638105483,7.217848,9.171454,19.1600727916,0,0,0,349.4, 1.2, 8.5,0,0,1024,1024,1024,1024,0,0,0,0,346.4,0,0,99,3.989,3.997,0,0,0,0,3.49,70.7,629.74829705483,6.889764,6,P-GPS,
14100,2024-02-04 17:09:19,40.4290562657329,-86.92929867156,6.889764,,,629.74829705483,6.889764,0,18.6518378672,24.4475729608,26,5,8.008,630.07638105483,7.217848,9.171454,19.1600727916,0,0,0,349.4, 1.3, 7.7,0,0,1024,1024,1024,1024,0,0,0,0,346.4,0,0,99,3.989,3.997,0,0,0,0,3.49,70.7,629.74829705483,6.889764,6,P-GPS,
14200,2024-02-04 17:09:19,40.4290562894626,-86.9292986607293,6.889764,,,629.74829705483,6.889764,0,18.6590229068,24.4567265044,26,5,8.008,630.07638105483,7.217848,9.171454,19.1600727916,0,0,0,349.4, 1.3, 7.7,0,0,1024,1024,1024,1024,0,0,0,0,346.5,0,0,99,3.989,3.997,0,0,0,0,3.49,70.7,629.74829705483,6.889764,6,P-GPS,
14300,2024-02-04 17:09:19,40.4290562983539,-86.9292986284988,6.889764,,,629.74829705483,6.889764,0,18.659121332,24.4662409404,26,5,8.008,630.07638105483,7.217848,9.171454,19.1600727916,0,0,0,349.6, 2.8, 8.3,0,0,1024,1024,1024,1024,0,0,0,0,346.5,0,0,99,3.989,3.997,0,0,0,0,3.49,70.7,629.74829705483,6.889764,6,P-GPS,
14400,2024-02-04 17:09:19,40.4290562842515,-86.9292985750726,6.889764,,,629.74829705483,6.889764,0,18.6493444288,24.481956164,26,5,8.008,630.07638105483,7.217848,9.171454,19.1600727916,0,0,0,349.5, 2.3, 8.5,0,0,1024,1024,1024,1024,0,0,0,0,346.4,0,0,99,3.989,3.997,0,0,0,0,3.49,70.7,629.74829705483,6.889764,6,P-GPS,
14500,2024-02-04 17:09:19,40.4290562515784,-86.9292985096029,6.889764,,,629.74829705483,6.889764,0,18.6320872104,24.5037081332,26,5,8.008,630.07638105483,7.217848,9.171454,19.1600727916,0,0,0,349.5, 2.1, 8.4,0,0,1024,1024,1024,1024,0,0,0,0,346.5,0,0,99,3.989,3.997,0,0,0,0,3.49,70.7,629.74829705483,6.889764,6,P-GPS,
14600,2024-02-04 17:09:20,40.4290562299853,-86.9292984883425,6.889764,,,629.74829705483,6.889764,0,18.622704008,24.5135506532,26,5,8.008,630.07638105483,7.217848,9.171454,19.1600727916,0,0,0,349.4, 1.2, 8.4,0,0,1024,1024,1024,1024,0,0,0,0,346.5,0,0,99,3.989,3.997,0,0,0,0,3.49,70.7,629.74829705483,6.889764,6,P-GPS,
14700,2024-02-04 17:09:20,40.4290562425959,-86.9292984455359,6.889764,,,629.74829705483,6.889764,0,18.6231305172,24.5263131208,26,5,8.008,630.07638105483,7.217848,9.171454,19.1600727916,0,0,0,349.4, 1, 9.2,0,0,1024,1024,1024,1024,0,0,0,0,346.5,0,0,99,3.989,3.997,0,0,0,0,3.49,70.7,629.74829705483,6.889764,6,P-GPS,
14800,2024-02-04 17:09:20,40.4290561799725,-86.9292983964087,6.56168,,,629.42021305483,6.889764,0,18.5970806476,24.5529207332,26,5,8.008,630.07638105483,7.217848,9.171454,19.1600727916,0,0,0,349.4, 0.6, 8.8,0,0,1024,1024,1024,1024,0,0,0,0,346.5,0,0,99,3.989,3.997,0,0,0,0,3.49,70.7,629.42021305483,6.56168,6,P-GPS,
14900,2024-02-04 17:09:20,40.4290561016769,-86.9292983276613,6.56168,,,629.42021305483,6.889764,0,18.56381293,24.587271128,26,5,8.008,630.07638105483,7.217848,9.171454,19.1600727916,0,0,0,349.2, 0.2, 7.8,0,0,1024,1024,1024,1024,0,0,0,0,346.5,0,0,99,3.989,3.997,0,0,0,0,3.49,70.7,629.42021305483,6.56168,6,P-GPS,
15000,2024-02-04 17:09:20,40.429056055605,-86.9292982786678,6.56168,,,629.42021305483,6.889764,0,18.543471722,24.6088918636,26,5,8.008,630.07638105483,7.217848,9.171454,19.1600727916,0,0,0,349.4, 0.5, 7.9,0,0,1024,1024,1024,1024,0,0,0,0,346.5,0,0,99,3.989,3.997,0,0,0,0,3.49,70.7,629.42021305483,6.56168,6,P-GPS,
15100,2024-02-04 17:09:20,40.429056001456,-86.9292981390024,6.56168,,,629.42021305483,6.889764,0,18.5121397,24.6524286104,26,5,8.008,630.07638105483,7.217848,9.171454,19.1600727916,0,0,0,349.4, 0.7, 8.2,0,0,1024,1024,1024,1024,0,0,0,0,346.4,0,0,99,3.989,3.997,0,0,0,0,3.49,70.7,629.42021305483,6.56168,6,P-GPS,
15200,2024-02-04 17:09:20,40.4290559385589,-86.9292981272263,6.56168,,,629.42021305483,6.889764,0,18.4893706704,24.6755913408,26,5,7.974,630.07638105483,7.217848,9.171454,19.1600727916,0,0,0,349.4, 0.8, 8.3,0,0,1024,1024,1024,1024,0,0,0,0,346.5,0,0,99,3.992,3.995,0,0,0,0,4.056,70.7,629.42021305483,6.56168,6,P-GPS,
15300,2024-02-04 17:09:20,40.4290558651226,-86.92929812708,6.56168,,,629.42021305483,6.889764,0,18.4640425856,24.7023958036,26,5,7.974,630.07638105483,7.217848,9.171454,19.1600727916,0,0,0,349.4, 1, 8.1,0,0,1024,1024,1024,1024,0,0,0,0,346.5,0,0,99,3.992,3.995,0,0,0,0,4.056,70.7,629.42021305483,6.56168,6,P-GPS,
15400,2024-02-04 17:09:20,40.4290558258706,-86.9292980986436,6.56168,,,629.42021305483,6.889764,0,18.4479336612,24.7187671952,26,5,7.974,630.07638105483,7.217848,9.171454,19.1600727916,0,0,0,349.4, 1.5, 7.8,0,0,1024,1024,1024,1024,0,0,0,0,346.5,0,0,99,3.992,3.995,0,0,0,0,4.056,70.7,629.42021305483,6.56168,6,P-GPS,
15500,2024-02-04 17:09:21,40.4290557299162,-86.9292980707445,6.233596,,,629.09212905483,6.889764,0,18.4123037388,24.754593968,26,5,7.974,630.07638105483,7.217848,9.171454,19.1600727916,0,0,0,349.5, 1.1, 6.6,0,0,1024,1024,1024,1024,0,0,0,0,346.4,0,0,99,3.992,3.995,0,0,0,0,4.056,70.7,629.09212905483,6.233596,6,P-GPS,
15600,2024-02-04 17:09:21,40.429055704532,-86.929298008277,6.233596,,,629.09212905483,6.889764,0,18.3978680428,24.774279008,26,5,7.974,630.07638105483,7.217848,9.171454,19.1600727916,0,0,0,349.4, 0.9, 6.8,0,0,1024,1024,1024,1024,0,0,0,0,346.5,0,0,99,3.992,3.995,0,0,0,0,4.056,70.7,629.09212905483,6.233596,6,P-GPS,
15700,2024-02-04 17:09:21,40.4290556903124,-86.9292979531471,6.233596,,,629.09212905483,6.889764,0,18.3879927144,24.7904535492,26,5,7.974,630.07638105483,7.217848,9.171454,19.1600727916,0,0,0,349.4, 1.2, 7,0,0,1024,1024,1024,1024,0,0,0,0,346.5,0,0,99,3.992,3.995,0,0,0,0,4.056,70.7,629.09212905483,6.233596,6,P-GPS,
15800,2024-02-04 17:09:21,40.4290557030664,-86.9292979481826,6.233596,,,629.09212905483,6.889764,0,18.3919297224,24.7953091924,26,5,7.974,630.07638105483,7.217848,9.171454,19.1600727916,0,0,0,349.5, 2.1, 7.3,0,0,1024,1024,1024,1024,0,0,0,0,346.5,0,0,99,3.992,3.995,0,0,0,0,4.056,70.7,629.09212905483,6.233596,6,P-GPS,
15900,2024-02-04 17:09:21,40.4290557902728,-86.9292979527307,6.233596,,,629.09212905483,6.889764,0,18.4224415344,24.8271333404,26,5,7.974,630.07638105483,7.217848,9.171454,19.1600727916,0,0,0,349.4, 1.3, 7.7,0,0,1024,1024,1024,1024,0,0,0,0,346.5,0,0,99,3.992,3.995,0,0,0,0,4.056,70.7,629.09212905483,6.233596,6,P-GPS,
16000,2024-02-04 17:09:21,40.4290557453669,-86.9292979218803,6.233596,,,629.09212905483,6.889764,0,18.4041672556,24.845637278,26,5,7.974,630.07638105483,7.217848,9.171454,19.1600727916,0,0,0,349.4, 1.1, 8.1,0,0,1024,1024,1024,1024,0,0,0,0,346.4,0,0,99,3.992,3.995,0,0,0,0,4.056,70.7,629.09212905483,6.233596,6,P-GPS,
16100,2024-02-04 17:09:21,40.4290556706604,-86.9292978706725,6.233596,,,629.09212905483,6.889764,0,18.3737538688,24.8763787488,26,5,7.974,630.07638105483,7.217848,9.171454,19.1600727916,0,0,0,349.3, 0.2, 8,0,0,1024,1024,1024,1024,0,0,0,0,346.5,0,0,99,3.992,3.995,0,0,0,0,4.056,70.7,629.09212905483,6.233596,6,P-GPS,
16200,2024-02-04 17:09:21,40.4290556221848,-86.9292978327784,6.233596,,,629.09212905483,6.889764,0,18.3536095112,24.8969496156,26,5,7.974,630.07638105483,7.217848,9.171454,19.1600727916,0,0,0,349.3, 0.4, 7.6,0,0,1024,1024,1024,1024,0,0,0,0,346.4,0,0,99,3.992,3.995,0,0,0,0,4.056,70.7,629.09212905483,6.233596,6,P-GPS,
16300,2024-02-04 17:09:21,40.4290555944752,-86.9292977979847,6.233596,,,629.09212905483,6.889764,0,18.3409126604,24.910925994,26,5,7.974,630.07638105483,7.217848,9.171454,19.1600727916,0,0,0,349.3, -0.2, 6.7,0,0,1024,1024,1024,1024,0,0,0,0,346.5,0,0,99,3.992,3.995,0,0,0,0,4.056,70.7,629.09212905483,6.233596,6,P-GPS,
16400,2024-02-04 17:09:21,40.429055553471,-86.9292977073874,6.233596,,,629.09212905483,6.889764,0,18.3186029484,24.9402238952,26,5,7.974,630.07638105483,7.217848,9.171454,19.1600727916,0,0,0,349.4, 0.9, 6.7,0,0,1024,1024,1024,1024,0,0,0,0,346.5,0,0,99,3.992,3.995,0,0,0,0,4.056,70.7,629.09212905483,6.233596,6,P-GPS,
16500,2024-02-04 17:09:21,40.4290555200032,-86.9292977287197,5.905512,,,628.76404505483,6.889764,0,18.3089900872,24.9537737644,26,5,7.974,630.07638105483,7.217848,9.171454,19.1600727916,0,0,0,349.5, 1.7, 7.3,0,0,1024,1024,1024,1024,0,0,0,0,346.4,0,0,99,3.992,3.995,0,0,0,0,4.056,70.7,628.76404505483,5.905512,6,P-GPS,
16600,2024-02-04 17:09:22,40.4290555305555,-86.9292977542005,5.905512,,,628.76404505483,6.889764,0,18.3148955992,24.9618446308,26,5,7.974,630.07638105483,7.217848,9.171454,19.1600727916,0,0,0,349.4, 1.7, 7.5,0,0,1024,1024,1024,1024,0,0,0,0,346.5,0,0,99,3.992,3.995,0,0,0,0,4.056,70.7,628.76404505483,5.905512,6,P-GPS,
16700,2024-02-04 17:09:22,40.4290555545784,-86.9292977738727,5.905512,,,628.76404505483,6.889764,0,18.324967778,24.9721792768,26,5,7.974,630.07638105483,7.217848,9.171454,19.1600727916,0,0,0,349.5, 2.1, 6.9,0,0,1024,1024,1024,1024,0,0,0,0,346.4,0,0,99,3.992,3.995,0,0,0,0,4.056,70.7,628.76404505483,5.905512,6,P-GPS,
16800,2024-02-04 17:09:22,40.429055572133,-86.9292977519187,5.905512,,,628.76404505483,6.889764,0,18.329068828,24.9810047364,26,5,7.977,630.07638105483,7.217848,9.171454,19.1600727916,0,0,0,349.6, 2, 6.7,0,0,1024,1024,1024,1024,0,0,0,0,346.5,0,0,99,3.987,3.995,0,0,0,0,3.973,70.7,628.76404505483,5.905512,6,P-GPS,
16900,2024-02-04 17:09:22,40.4290555339492,-86.9292977018405,5.905512,,,628.76404505483,6.889764,0,18.3113851004,25.0006897764,26,5,7.977,630.07638105483,7.217848,9.171454,19.1600727916,0,0,0,349.4, 0.6, 6.8,0,0,1024,1024,1024,1024,0,0,0,0,346.5,0,0,99,3.987,3.995,0,0,0,0,3.973,70.7,628.76404505483,5.905512,6,P-GPS,
17000,2024-02-04 17:09:22,40.429055505243,-86.9292976583404,5.905512,,,628.76404505483,6.889764,0,18.297572764,25.0166674672,26,5,7.977,630.07638105483,7.217848,9.171454,19.1600727916,0,0,0,349.3, 0.1, 6,0,0,1024,1024,1024,1024,0,0,0,0,346.5,0,0,99,3.987,3.995,0,0,0,0,3.973,70.7,628.76404505483,5.905512,6,P-GPS,
17100,2024-02-04 17:09:22,40.4290554995174,-86.9292976307509,5.905512,,,628.76404505483,6.889764,0,18.2931108216,25.0246071,26,5,7.977,630.07638105483,7.217848,9.171454,19.1600727916,0,0,0,349.3, 1, 5.5,0,0,1024,1024,1024,1024,0,0,0,0,346.4,0,0,99,3.987,3.995,0,0,0,0,3.973,70.7,628.76404505483,5.905512,6,P-GPS,
17200,2024-02-04 17:09:22,40.4290555271032,-86.9292976339302,5.905512,,,628.76404505483,6.889764,0,18.3029205332,25.0347120872,26,5,7.977,630.07638105483,7.217848,9.171454,19.1600727916,0,0,0,349.3, 1.5, 6.1,0,0,1024,1024,1024,1024,0,0,0,0,346.4,0,0,99,3.987,3.995,0,0,0,0,3.973,70.7,628.76404505483,5.905512,6,P-GPS,
17300,2024-02-04 17:09:22,40.4290555405998,-86.9292976558814,5.905512,,,628.76404505483,6.889764,0,18.30954783,25.0425532948,26,5,7.977,630.07638105483,7.217848,9.171454,19.1600727916,0,0,0,349.4, 2.3, 6.6,0,0,1024,1024,1024,1024,0,0,0,0,346.5,0,0,99,3.987,3.995,0,0,0,0,3.973,70.7,628.76404505483,5.905512,6,P-GPS,
17400,2024-02-04 17:09:22,40.4290555676515,-86.9292976863717,5.905512,,,628.76404505483,7.217848,0,18.3216213212,25.0555782296,26,5,7.977,630.07638105483,7.217848,9.171454,19.1600727916,0,0,0,349.6, 3.1, 6.1,0,0,1024,1024,1024,1024,0,0,0,0,346.5,0,0,99,3.987,3.995,0,0,0,0,3.973,70.7,628.76404505483,5.905512,6,P-GPS,
17500,2024-02-04 17:09:23,40.4290555785816,-86.929297720922,5.905512,,,628.76404505483,7.217848,0,18.3285110852,25.065945684,26,5,7.977,630.07638105483,7.217848,9.171454,19.1600727916,0,0,0,349.5, 2.5, 5.7,0,0,1024,1024,1024,1024,0,0,0,0,346.5,0,0,99,3.987,3.995,0,0,0,0,3.973,70.7,628.76404505483,5.905512,6,P-GPS,
17600,2024-02-04 17:09:23,40.4290555010807,-86.9292977447287,5.905512,,,628.76404505483,7.217848,0,18.3038719768,25.0950139264,26,5,7.977,630.07638105483,7.217848,9.171454,19.1600727916,0,0,0,349.4, 1, 6.5,0,0,1024,1024,1024,1024,0,0,0,0,346.5,0,0,99,3.987,3.995,0,0,0,0,3.973,70.7,628.76404505483,5.905512,6,P-GPS,
17700,2024-02-04 17:09:23,40.429055418929,-86.929297774147,5.905512,,,628.76404505483,7.217848,0,18.2781829996,25.1260506728,26,5,7.977,630.07638105483,7.217848,9.171454,19.1600727916,0,0,0,349.4, 1, 6.8,0,0,1024,1024,1024,1024,0,0,0,0,346.5,0,0,99,3.987,3.995,0,0,0,0,3.973,70.7,628.76404505483,5.905512,6,P-GPS,
17800,2024-02-04 17:09:23,40.4290553814617,-86.9292978136336,5.905512,,,628.76404505483,7.217848,0,18.2688326056,25.1436031668,26,5,7.977,630.07638105483,7.217848,9.171454,19.1600727916,0,0,0,349.4, 1.1, 7.3,0,0,1024,1024,1024,1024,0,0,0,0,346.4,0,0,99,3.987,3.995,0,0,0,0,3.973,70.7,628.76404505483,5.905512,6,P-GPS,
17900,2024-02-04 17:09:23,40.4290553559342,-86.9292978655392,5.905512,,,628.76404505483,7.217848,0,18.2647315556,25.16076196,26,5,7.977,630.07638105483,7.217848,9.171454,19.1600727916,0,0,0,349.5, 0.9, 7.6,0,0,1024,1024,1024,1024,0,0,0,0,346.4,0,0,99,3.987,3.995,0,0,0,0,3.973,70.7,628.76404505483,5.905512,6,P-GPS,
18000,2024-02-04 17:09:23,40.4290552836704,-86.9292979536085,5.905512,,,628.76404505483,7.217848,0,18.2478024212,25.1967199664,26,5,7.977,630.07638105483,7.217848,9.171454,19.1600727916,0,0,0,349.3, 0.7, 8.3,0,0,1024,1024,1024,1024,0,0,0,0,346.5,0,0,99,3.987,3.995,0,0,0,0,3.973,70.7,628.76404505483,5.905512,6,P-GPS,
18100,2024-02-04 17:09:23,40.4290551709821,-86.9292980849318,5.905512,,,628.76404505483,7.217848,0,18.2209979584,25.2516740364,26,5,7.977,630.07638105483,7.217848,9.171454,19.1600727916,0,0,0,349.3, 0, 8.1,0,0,1024,1024,1024,1024,0,0,0,0,346.5,0,0,99,3.987,3.995,0,0,0,0,3.973,70.7,628.76404505483,5.905512,6,P-GPS,
