time(millisecond),datetime(utc),latitude,longitude,height_above_takeoff(feet),height_above_ground_at_drone_location(feet),ground_elevation_at_drone_location(feet),altitude_above_seaLevel(feet),height_sonar(feet),speed(mph),distance(feet),mileage(feet),satellites,gpslevel,voltage(v),max_altitude(feet),max_ascent(feet),max_speed(mph),max_distance(feet), xSpeed(mph), ySpeed(mph), zSpeed(mph), compass_heading(degrees), pitch(degrees), roll(degrees),isPhoto,isVideo,rc_elevator,rc_aileron,rc_throttle,rc_rudder,rc_elevator(percent),rc_aileron(percent),rc_throttle(percent),rc_rudder(percent),gimbal_heading(degrees),gimbal_pitch(degrees),gimbal_roll(degrees),battery_percent,voltageCell1,voltageCell2,voltageCell3,voltageCell4,voltageCell5,voltageCell6,current(A),battery_temperature(f),altitude(feet),ascent(feet),flycStateRaw,flycState,message
676200,2024-02-04 17:25:52,40.4290088621352,-86.9293102128234,0,Available with any HD 360 subscription,Available with any HD 360 subscription,622.90373876494,0,0,0,0,32,5,0,622.90373876494,0,0,0,0,0,0,353.6, -6.9, -1.6,0,0,1024,1024,1024,1024,0,0,0,0,350.6,-0.2,0,62,3.834,3.834,0,0,0,0,0,73.04,622.90373876494,0,41,Motors_Started,"Gimbal stuck Gimbal stuck. Check whether gimbal cover is removed and make sure gimbal can rotate freely on all three axes (Code: 40028). Remote ID functionality normal (Code: 30331)"
676300,2024-02-04 17:25:52,40.4290088911802,-86.929310217674,0,,,622.90373876494,0,0,0.0106823166148,0.0106823166148,32,5,0,622.90373876494,0,0,0.0106823166148,0,0,0,353.6, -6.9, -1.7,0,0,1024,1024,1024,1024,0,0,0,0,350.6,-0.2,0,62,3.834,3.834,0,0,0,0,0,73.04,622.90373876494,0,41,Motors_Started,
676400,2024-02-04 17:25:52,40.4290088960981,-86.9293102181804,0,,,622.90373876494,0,0,0.01248031536,0.012482119822,32,5,0,622.90373876494,0,0,0.01248031536,0,0,0,353.6, -6.8, -1.7,0,0,1024,1024,1024,1024,0,0,0,0,350.6,-0.2,0,62,3.834,3.834,0,0,0,0,0,73.04,622.90373876494,0,41,Motors_Started,"Aircraft in Warning Zone (Class D Airspace). Fly with caution"
676500,2024-02-04 17:25:53,40.4290089010322,-86.9293102213203,0,,,622.90373876494,0,0,0.0143864177832,0.0144824151616,32,5,0,622.90373876494,0,0,0.0143864177832,0,0,0,353.6, -6.8, -1.5,0,0,1024,1024,1024,1024,0,0,0,0,350.6,-0.2,0,62,3.834,3.834,0,0,0,0,0,73.04,622.90373876494,0,41,Motors_Started,
676600,2024-02-04 17:25:53,40.4290089030385,-86.9293102238694,0,,,622.90373876494,0,0,0.015235564792,0.0155007550892,32,5,0,622.90373876494,0,0,0.015235564792,0,0,0,353.7, -6.8, -1.7,0,0,1024,1024,1024,1024,0,0,0,0,350.6,-0.2,0,62,3.834,3.834,0,0,0,0,0,73.04,622.90373876494,0,41,Motors_Started,
676700,2024-02-04 17:25:53,40.4290089040221,-86.9293102236752,0,,,622.90373876494,0,0,0.0155767393436,0.0158636159932,32,5,0,622.90373876494,0,0,0.0155767393436,0,0,0,353.7, -6.8, -1.7,0,0,1024,1024,1024,1024,0,0,0,0,350.6,-0.2,0,62,3.834,3.834,0,0,0,0,0,73.04,622.90373876494,0,41,Motors_Started,
676800,2024-02-04 17:25:53,40.4290088994071,-86.9293102153162,0,,,622.90373876494,0,0,0.0136162077848,0.0187314966624,32,5,0,622.90373876494,0,0,0.0155767393436,0,0,0,353.7, -6.8, -1.7,0,0,1024,1024,1024,1024,0,0,0,0,350.6,-0.2,0,62,3.834,3.834,0,0,0,0,0,73.04,622.90373876494,0,41,Motors_Started,
676900,2024-02-04 17:25:53,40.4290088995862,-86.9293102164388,0,,,622.90373876494,0,0,0.0137008206484,0.019050033418,32,5,0,622.90373876494,0,0,0.0155767393436,0,0,0,353.7, -6.9, -1.7,0,0,1024,1024,1024,1024,0,0,0,0,350.6,-0.2,0,62,3.834,3.834,0,0,0,0,0,73.04,622.90373876494,0,41,Motors_Started,"Setting new Return-To-Home altitude to 100m (328 ft). Data Recorder File Index is 3. Setting new Maximum Flight Altitude to 120m (394 ft)"
677000,2024-02-04 17:25:53,40.4290089005274,-86.9293102187009,0,,,622.90373876494,0,0,3.3506890836,0.0197660111312,32,5,0,622.90373876494,0,0,3.3506890836,0,0,0,353.7, -6.8, -1.8,0,0,1024,1024,1024,1024,0,0,0,0,350.6,-0.2,0,62,3.834,3.834,0,0,0,0,0,73.04,622.90373876494,0,41,Motors_Started,
677100,2024-02-04 17:25:53,40.4290089013677,-86.9293102214919,0,,,622.90373876494,0,0,3.3515092936,0.02059957415,32,5,0,622.90373876494,0,0,3.3515092936,0,0,0,353.7, -6.8, -1.7,0,0,1024,1024,1024,1024,0,0,0,0,350.6,-0.2,0,62,3.834,3.834,0,0,0,0,0,73.04,622.90373876494,0,41,Motors_Started,
677200,2024-02-04 17:25:53,40.4290088965768,-86.9293102270881,0,,,622.90373876494,0,0,3.3520998448,0.0229385834112,32,5,0,622.90373876494,0,0,3.3520998448,0,0,0,353.7, -6.8, -1.8,0,0,1024,1024,1024,1024,0,0,0,0,350.6,-0.2,0,62,3.834,3.834,0,0,0,0,0,73.04,622.90373876494,0,41,Motors_Started,
677300,2024-02-04 17:25:53,40.4290088959352,-86.9293102282135,0,,,622.90373876494,0,0,3.3522638868,0.023329068988,32,5,0,622.90373876494,0,0,3.3522638868,0,0,0,353.7, -6.9, -1.8,0,0,1024,1024,1024,1024,0,0,0,0,350.6,-0.2,0,62,3.834,3.834,0,0,0,0,0,73.04,622.90373876494,0,11,AutoTakeoff,
677400,2024-02-04 17:25:54,40.4290088950884,-86.9293102289703,0,,,622.90373876494,0,0,3.3522966952,0.023702756664,32,5,0,622.90373876494,0,0,3.3522966952,0,0,0,353.8, -6.8, -1.8,0,0,1024,1024,1024,1024,0,0,0,0,350.6,-0.2,0,62,3.803,3.802,0,0,0,0,0,73.04,622.90373876494,0,11,AutoTakeoff,
677500,2024-02-04 17:25:54,40.4290089223877,-86.929310229685,0,,,622.90373876494,0,0,3.3570539132,0.03366469924,32,5,0,622.90373876494,0,0,3.3570539132,0,0,0,353.8, -6.7, -1.8,0,0,1024,1024,1024,1024,0,0,0,0,350.6,-0.2,0,62,3.803,3.802,0,0,0,0,0,73.04,622.90373876494,0,11,AutoTakeoff,
677600,2024-02-04 17:25:54,40.4290090545847,-86.9293102275214,0,,,622.90373876494,0,0,3.3790027328,0.081900593172,32,5,0,622.90373876494,0,0,3.3790027328,0,0,0,353.4, -6.6, -1.8,0,0,1024,1024,1024,1024,0,0,0,0,350.6,-0.2,0,62,3.803,3.802,0,0,0,0,0,73.04,622.90373876494,0,11,AutoTakeoff,
677700,2024-02-04 17:25:54,40.4290090635054,-86.9293102559212,0,,,622.90373876494,0,0,3.3875001084,0.09043307376,32,5,0,622.90373876494,0,0,3.3875001084,0,0,0,352.4, -6, -2.3,0,0,1024,1024,1024,1024,0,0,0,0,350.6,-0.2,0,62,3.803,3.802,0,0,0,0,0,73.04,622.90373876494,0,11,AutoTakeoff,
677800,2024-02-04 17:25:54,40.4290090432964,-86.9293103680829,0,,,622.90373876494,0,0.223694,3.4115486656,0.12244422964,32,5,0,622.90373876494,0,0.223694,3.4115486656,0,-0.223694,0,351.5, -0.6, -2.5,0,0,1024,1024,1024,1024,0,0,0,0,350.6,-0.2,0,62,3.803,3.802,0,0,0,0,0,73.04,622.90373876494,0,11,AutoTakeoff,
677900,2024-02-04 17:25:54,40.4290090406127,-86.929310651544,0,,,622.90373876494,0,0.671082,3.4809384316,0.201175203288,32,5,0,622.90373876494,0,0.671082,3.4809384316,0,-0.671082,0,351.3, 1.7, -1.9,0,0,1024,1024,1024,1024,0,0,0,0,350.5,-0.2,0,62,3.803,3.802,0,0,0,0,0,73.04,622.90373876494,0,11,AutoTakeoff,
678000,2024-02-04 17:25:54,40.429008990968,-86.929311206956,0,,,622.90373876494,0,0.894776,3.6109581208,0.35648623188,32,5,0,622.90373876494,0,0.894776,3.6109581208,0,-0.894776,-0.223694,351.1, 0.7, -0.8,0,0,1024,1024,1024,1024,0,0,0,0,350.4,-0.2,0,62,3.803,3.802,0,0,0,0,0,73.04,622.90373876494,0,11,AutoTakeoff,
678100,2024-02-04 17:25:54,40.4290089258432,-86.9293117778031,0,,,622.90373876494,0,1.1408394,3.7444555004,0.5167979168,32,5,0,622.90373876494,0,1.1408394,3.7444555004,-0.223694,-1.11847,-0.671082,351.1, -0.9, 2.4,0,0,1024,1024,1024,1024,0,0,0,0,350.3,-0.2,0,62,3.803,3.802,0,0,0,0,0,73.04,622.90373876494,0,11,AutoTakeoff,
678200,2024-02-04 17:25:54,40.4290088351519,-86.9293124415898,0.328084,,,623.23182276494,0.984252,1.1408394,3.90009855,0.70409451072,32,5,0,623.23182276494,0.328084,1.1408394,3.90009855,-0.223694,-1.11847,-1.11847,351.1, -1.6, 7.2,0,0,1024,1024,1024,1024,0,0,0,0,350.2,-0.2,0,62,3.803,3.802,0,0,0,0,0,73.04,623.23182276494,0.328084,11,AutoTakeoff,
678300,2024-02-04 17:25:54,40.4290087656792,-86.9293130329785,0.328084,,,623.23182276494,0.984252,0.894776,4.0425854312,0.87028546092,32,5,0,623.23182276494,0.328084,1.1408394,4.0425854312,0,-0.894776,-1.565858,351.3, -0.4, 10,0,0,1024,1024,1024,1024,0,0,0,0,350.1,-0.2,0,62,3.803,3.802,0,0,0,0,0,73.04,623.23182276494,0.328084,11,AutoTakeoff,
678400,2024-02-04 17:25:54,40.4290087160052,-86.9293135305048,0.656168,,,623.55990676494,1.312336,0.671082,4.1649279548,1.0096457016,32,5,0,623.55990676494,0.656168,1.1408394,4.1649279548,0,-0.671082,-2.013246,351.4, 0.4, 7.8,0,0,1024,1024,1024,1024,0,0,0,0,350,-0.2,0,62,3.803,3.802,0,0,0,0,0,73.04,623.55990676494,0.656168,11,AutoTakeoff,
678500,2024-02-04 17:25:55,40.4290086279487,-86.9293139116716,0.984252,,,623.88799076494,1.64042,0.671082,4.2531497424,1.12027234556,32,5,0,623.88799076494,0.984252,1.1408394,4.2531497424,0,-0.671082,-2.23694,351.2, 0.2, 4.9,0,0,1024,1024,1024,1024,0,0,0,0,349.9,-0.2,0,62,3.803,3.802,0,0,0,0,0,73.04,623.88799076494,0.984252,11,AutoTakeoff,
678600,2024-02-04 17:25:55,40.4290085630324,-86.9293142968646,1.312336,,,624.21607476494,1.968504,0.671082,4.3461943648,1.22984255904,32,5,0,624.21607476494,1.312336,1.1408394,4.3461943648,0,-0.671082,-2.460634,351, -0.4, 4.1,0,0,1024,1024,1024,1024,0,0,0,0,349.9,-0.2,0,62,3.803,3.802,0,0,0,0,0,73.04,624.21607476494,1.312336,11,AutoTakeoff,
678700,2024-02-04 17:25:55,40.4290085342676,-86.9293147083473,1.64042,,,624.54415876494,2.296588,0.671082,4.4510828196,1.3446030614,32,5,0,624.54415876494,1.64042,1.1408394,4.4510828196,0,-0.671082,-2.460634,351, -0.6, 7.3,0,0,1024,1024,1024,1024,0,0,0,0,349.8,-0.2,0,62,3.803,3.802,0,0,0,0,0,73.04,624.54415876494,1.64042,11,AutoTakeoff,
678800,2024-02-04 17:25:55,40.4290085667453,-86.9293151357827,1.968504,,,624.87224276494,2.624672,0.447388,4.5675526396,1.46390424632,32,5,0,624.87224276494,1.968504,1.1408394,4.5675526396,0,-0.447388,-2.460634,351.1, 0.2, 8.1,0,0,1024,1024,1024,1024,0,0,0,0,349.7,-0.2,0,62,3.803,3.802,0,0,0,0,0,73.04,624.87224276494,1.968504,11,AutoTakeoff,
678900,2024-02-04 17:25:55,40.4290087162234,-86.9293155233306,2.624672,,,625.52841076494,2.952756,0.447388,4.6868111736,1.584563699,32,5,0,625.52841076494,2.624672,1.1408394,4.6868111736,0,-0.447388,-2.23694,351.3, 2.1, 7.4,0,0,1024,1024,1024,1024,0,0,0,0,349.7,-0.2,0,62,3.803,3.802,0,0,0,0,0,73.04,625.52841076494,2.624672,6,P-GPS,
679000,2024-02-04 17:25:55,40.4290088899914,-86.9293158487303,2.952756,,,625.85649476494,3.28084,0.447388,4.7926182636,1.69495740332,32,5,0,625.85649476494,2.952756,1.1408394,4.7926182636,0,-0.447388,-1.789552,351.5, 3.8, 6.1,0,0,1024,1024,1024,1024,0,0,0,0,349.7,-0.2,0,62,3.803,3.802,0,0,0,0,0,73.04,625.85649476494,2.952756,6,P-GPS,"Gimbal stuck. Check whether gimbal cover is removed and make sure gimbal can rotate freely on all three axes (Code: 40028)"
679100,2024-02-04 17:25:55,40.4290090180197,-86.9293162112912,3.28084,,,626.18457876494,3.608924,0.671082,4.9029857212,1.80595806304,32,5,7.524,626.18457876494,3.28084,1.1408394,4.9029857212,0,-0.671082,-1.11847,351.7, 2.4, 6.6,0,0,1024,1024,1024,1024,0,0,0,0,349.7,-0.2,0,62,3.772,3.765,0,0,0,0,3.954,73.04,626.18457876494,3.28084,6,P-GPS,
679200,2024-02-04 17:25:55,40.4290091128896,-86.9293166550564,3.28084,,,626.18457876494,3.608924,0.671082,5.0308072476,1.93396987816,32,5,7.524,626.18457876494,3.28084,1.1408394,5.0308072476,0,-0.671082,-0.671082,351.9, 1.7, 6.6,0,0,1024,1024,1024,1024,0,0,0,0,349.7,-0.2,0,62,3.772,3.765,0,0,0,0,3.954,73.04,626.18457876494,3.28084,6,P-GPS,
679300,2024-02-04 17:25:55,40.4290093121981,-86.9293170516864,3.608924,,,626.51266276494,3.937008,0.671082,5.1585959656,2.0659613522,32,5,7.524,626.51266276494,3.608924,1.1408394,5.1585959656,0,-0.671082,-0.223694,352.1, 0.9, 6.8,0,0,1024,1024,1024,1024,0,0,0,0,349.7,-0.2,0,62,3.772,3.765,0,0,0,0,3.954,73.04,626.51266276494,3.608924,6,P-GPS,
679400,2024-02-04 17:25:56,40.4290093446692,-86.9293174532908,3.608924,,,626.51266276494,3.937008,0.671082,5.2679463628,2.17812671012,32,5,7.524,626.51266276494,3.608924,1.1408394,5.2679463628,0,-0.671082,0,352.4, 0.9, 7.5,0,0,1024,1024,1024,1024,0,0,0,0,349.7,-0.2,0,62,3.772,3.765,0,0,0,0,3.954,73.04,626.51266276494,3.608924,6,P-GPS,
679500,2024-02-04 17:25:56,40.4290093700893,-86.9293178644921,3.608924,,,626.51266276494,3.937008,0.671082,5.379101222,2.29270348544,32,5,7.524,626.51266276494,3.608924,1.1408394,5.379101222,0,-0.671082,0,352.6, 1.7, 7.6,0,0,1024,1024,1024,1024,0,0,0,0,349.7,-0.2,0,62,3.772,3.765,0,0,0,0,3.954,73.04,626.51266276494,3.608924,6,P-GPS,
679600,2024-02-04 17:25:56,40.4290093876699,-86.9293183093574,3.608924,,,626.51266276494,3.937008,0.671082,5.4983925644,2.416420681,32,5,7.524,626.51266276494,3.608924,1.1408394,5.4983925644,0,-0.671082,0,352.7, 1.6, 7.2,0,0,1024,1024,1024,1024,0,0,0,0,349.7,-0.2,0,62,3.772,3.765,0,0,0,0,3.954,73.04,626.51266276494,3.608924,6,P-GPS,
679700,2024-02-04 17:25:56,40.4290092992031,-86.9293188243333,3.937008,,,626.84074676494,3.937008,0.671082,5.6247049044,2.5630414206,32,5,7.524,626.84074676494,3.937008,1.1408394,5.6247049044,0,-0.671082,0,352.5, 1.6, 7.6,0,0,1024,1024,1024,1024,0,0,0,0,349.7,-0.2,0,62,3.772,3.765,0,0,0,0,3.954,73.04,626.84074676494,3.937008,6,P-GPS,
679800,2024-02-04 17:25:56,40.4290093247013,-86.9293192665792,3.937008,,,626.84074676494,3.937008,0.671082,5.74475084,2.68621727756,32,5,7.524,626.84074676494,3.937008,1.1408394,5.74475084,0,-0.671082,0,352.7, 1.3, 8.3,0,0,1024,1024,1024,1024,0,0,0,0,349.7,-0.2,0,62,3.772,3.765,0,0,0,0,3.954,73.04,626.84074676494,3.937008,6,P-GPS,
679900,2024-02-04 17:25:56,40.4290093744079,-86.9293196579676,3.937008,,,626.84074676494,3.937008,0.671082,5.8539700036,2.79641741232,32,5,7.524,626.84074676494,3.937008,1.1408394,5.8539700036,0,-0.671082,0,352.6, 0.9, 8,0,0,1024,1024,1024,1024,0,0,0,0,349.7,-0.2,0,62,3.772,3.765,0,0,0,0,3.954,73.04,626.84074676494,3.937008,6,P-GPS,
680000,2024-02-04 17:25:56,40.4290094533711,-86.9293200351533,3.937008,,,626.84074676494,3.937008,0.671082,5.9625658076,2.90506242892,32,5,7.524,626.84074676494,3.937008,1.1408394,5.9625658076,0,-0.671082,0,352.7, 2.2, 7.7,0,0,1024,1024,1024,1024,0,0,0,0,349.7,-0.2,0,62,3.772,3.765,0,0,0,0,3.954,73.04,626.84074676494,3.937008,6,P-GPS,
680100,2024-02-04 17:25:56,40.4290095385974,-86.9293203680792,4.265092,,,627.16883076494,3.937008,0.447388,6.0600723724,3.00261492548,32,5,7.524,627.16883076494,4.265092,1.1408394,6.0600723724,0,-0.447388,0,352.7, 2.6, 7.9,0,0,1024,1024,1024,1024,0,0,0,0,349.7,-0.2,0,62,3.772,3.765,0,0,0,0,3.954,73.04,627.16883076494,4.265092,6,P-GPS,
680200,2024-02-04 17:25:56,40.4290096596299,-86.9293206174768,4.265092,,,627.16883076494,3.937008,0.447388,6.13927185,3.08475731656,32,5,7.524,627.16883076494,4.265092,1.1408394,6.13927185,0,-0.447388,0,352.7, 2.4, 7.6,0,0,1024,1024,1024,1024,0,0,0,0,349.7,-0.2,0,62,3.772,3.765,0,0,0,0,3.954,73.04,627.16883076494,4.265092,6,P-GPS,
680300,2024-02-04 17:25:56,40.4290097386257,-86.9293209074906,4.265092,,,627.16883076494,3.937008,0.447388,6.224737732,3.17030193872,32,5,7.524,627.16883076494,4.265092,1.1408394,6.224737732,0,-0.447388,0,352.8, 2.6, 7.1,0,0,1024,1024,1024,1024,0,0,0,0,349.7,-0.2,0,62,3.772,3.765,0,0,0,0,3.954,73.04,627.16883076494,4.265092,6,P-GPS,
680400,2024-02-04 17:25:56,40.4290098143972,-86.9293212048871,4.265092,,,627.16883076494,3.937008,0.447388,6.3118112256,3.25740167904,32,5,7.524,627.16883076494,4.265092,1.1408394,6.3118112256,0,-0.447388,0,352.8, 2.4, 7.2,0,0,1024,1024,1024,1024,0,0,0,0,349.7,-0.2,0,62,3.772,3.765,0,0,0,0,3.954,73.04,627.16883076494,4.265092,6,P-GPS,
680500,2024-02-04 17:25:57,40.4290098552548,-86.9293214869471,4.265092,,,627.16883076494,3.937008,0.447388,6.3910435116,3.3371392144,32,5,7.524,627.16883076494,4.265092,1.1408394,6.3910435116,0,-0.447388,0,352.6, 2.2, 7.1,0,0,1024,1024,1024,1024,0,0,0,0,349.7,-0.2,0,62,3.772,3.765,0,0,0,0,3.954,73.04,627.16883076494,4.265092,6,P-GPS,
680600,2024-02-04 17:25:57,40.4290098580948,-86.9293218054283,4.265092,,,627.16883076494,3.937008,0.447388,6.4759188424,3.4255906608,32,5,7.524,627.16883076494,4.265092,1.1408394,6.4759188424,0,-0.447388,0,352.5, 0.8, 6.7,0,0,1024,1024,1024,1024,0,0,0,0,349.7,-0.2,0,62,3.772,3.765,0,0,0,0,3.954,73.04,627.16883076494,4.265092,6,P-GPS,
680700,2024-02-04 17:25:57,40.4290098893935,-86.929322084911,4.265092,,,627.16883076494,3.937008,0.447388,6.5535107084,3.5040683536,32,5,7.524,627.16883076494,4.265092,1.1408394,6.5535107084,0,-0.447388,0,352.6, 1.2, 8.8,0,0,1024,1024,1024,1024,0,0,0,0,349.7,-0.2,0,62,3.772,3.765,0,0,0,0,3.954,73.04,627.16883076494,4.265092,6,P-GPS,
680800,2024-02-04 17:25:57,40.4290099541665,-86.9293223420684,4.265092,,,627.16883076494,3.937008,0.223694,6.6287075612,3.5792980148,32,5,7.541,627.16883076494,4.265092,1.1408394,6.6287075612,0,-0.223694,0,352.9, 2.2, 8.9,0,0,1024,1024,1024,1024,0,0,0,0,349.7,-0.2,0,62,3.768,3.765,0,0,0,0,3.862,73.04,627.16883076494,4.265092,6,P-GPS,
680900,2024-02-04 17:25:57,40.4290100191805,-86.9293225198811,4.265092,,,627.16883076494,3.937008,0.223694,6.6828414212,3.6340552344,32,5,7.541,627.16883076494,4.265092,1.1408394,6.6828414212,0,-0.223694,0,352.9, 2.8, 8.1,0,0,1024,1024,1024,1024,0,0,0,0,349.7,-0.2,0,62,3.768,3.765,0,0,0,0,3.862,73.04,627.16883076494,4.265092,6,P-GPS,
681000,2024-02-04 17:25:57,40.4290100633407,-86.9293226736297,4.265092,,,627.16883076494,3.937008,0.223694,6.7284122888,3.6796917188,32,5,7.541,627.16883076494,4.265092,1.1408394,6.7284122888,0,-0.223694,0,352.7, 2.3, 6.9,0,0,1024,1024,1024,1024,0,0,0,0,349.7,-0.2,0,62,3.768,3.765,0,0,0,0,3.862,73.04,627.16883076494,4.265092,6,P-GPS,
681100,2024-02-04 17:25:57,40.4290100862496,-86.9293227828906,4.265092,,,627.16883076494,3.937008,0,6.7598755444,3.7111877828,32,5,7.541,627.16883076494,4.265092,1.1408394,6.7598755444,0,0,0,352.7, 3.1, 6.9,0,0,1024,1024,1024,1024,0,0,0,0,349.7,-0.2,0,62,3.768,3.765,0,0,0,0,3.862,73.04,627.16883076494,4.265092,6,P-GPS,
681200,2024-02-04 17:25:57,40.4290100751371,-86.929322909573,4.265092,,,627.16883076494,3.937008,0,6.7923558604,3.7465880464,32,5,7.541,627.16883076494,4.265092,1.1408394,6.7923558604,0,0,0,352.9, 3.9, 7.9,0,0,1024,1024,1024,1024,0,0,0,0,349.7,-0.2,0,62,3.768,3.765,0,0,0,0,3.862,73.04,627.16883076494,4.265092,6,P-GPS,"Home Point updated. RTH altitude adjusted to 100 m (Code: 120852)"
681300,2024-02-04 17:25:57,40.4290100505085,-86.9293230229276,4.265092,,,627.16883076494,3.937008,0,6.8199149164,3.7793308296,32,5,7.541,627.16883076494,4.265092,1.1408394,6.8199149164,0,0,0,352.7, 1.9, 8.8,0,0,1024,1024,1024,1024,0,0,0,0,349.7,-0.2,0,62,3.768,3.765,0,0,0,0,3.862,73.04,627.16883076494,4.265092,6,P-GPS,
681400,2024-02-04 17:25:57,40.4290099866768,-86.9293230891892,4.265092,,,627.16883076494,3.937008,0,6.8309057304,3.8090224316,32,5,7.541,627.16883076494,4.265092,1.1408394,6.8309057304,0,0,0,352.5, 1.1, 7.7,0,0,1024,1024,1024,1024,0,0,0,0,349.7,-0.2,0,62,3.768,3.765,0,0,0,0,3.862,73.04,627.16883076494,4.265092,6,P-GPS,
681500,2024-02-04 17:25:58,40.4290099872956,-86.9293231103949,4.265092,,,627.16883076494,3.937008,0,6.836614392,3.8149279436,32,5,7.541,627.16883076494,4.265092,1.1408394,6.836614392,0,0,0,352.5, 0.8, 7.5,0,0,1024,1024,1024,1024,0,0,0,0,349.7,-0.2,0,62,3.768,3.765,0,0,0,0,3.862,73.04,627.16883076494,4.265092,6,P-GPS,
681600,2024-02-04 17:25:58,40.4290100172492,-86.9293230937246,4.265092,,,627.16883076494,3.937008,0,6.8352692476,3.826771776,32,5,7.541,627.16883076494,4.265092,1.1408394,6.836614392,0,0,0,352.5, 0.8, 6.9,0,0,1024,1024,1024,1024,0,0,0,0,349.7,-0.2,0,62,3.768,3.765,0,0,0,0,3.862,73.04,627.16883076494,4.265092,6,P-GPS,
681700,2024-02-04 17:25:58,40.4290100234405,-86.9293230948866,4.265092,,,627.16883076494,3.937008,0,6.8362206912,3.829068364,32,5,7.541,627.16883076494,4.265092,1.1408394,6.836614392,0,0,0,352.8, 2.3, 7.6,0,0,1024,1024,1024,1024,0,0,0,0,349.7,-0.2,0,62,3.768,3.765,0,0,0,0,3.862,73.04,627.16883076494,4.265092,6,P-GPS,
681800,2024-02-04 17:25:58,40.4290099877776,-86.9293231024354,4.265092,,,627.16883076494,3.937008,0,6.8345474628,3.8422573408,32,5,7.541,627.16883076494,4.265092,1.1408394,6.836614392,0,0,0,352.8, 1.7, 7.5,0,0,1024,1024,1024,1024,0,0,0,0,349.7,-0.2,0,62,3.768,3.765,0,0,0,0,3.862,73.04,627.16883076494,4.265092,6,P-GPS,
681900,2024-02-04 17:25:58,40.4290099998085,-86.9293230643597,4.265092,,,627.16883076494,3.937008,0,6.8256563864,3.8537074724,32,5,7.541,627.16883076494,4.265092,1.1408394,6.836614392,0,0,0,352.6, 0.8, 7.6,0,0,1024,1024,1024,1024,0,0,0,0,349.7,-0.2,0,62,3.768,3.765,0,0,0,0,3.862,73.04,627.16883076494,4.265092,6,P-GPS,
682000,2024-02-04 17:25:58,40.4290099487015,-86.9293230947319,4.265092,,,627.16883076494,3.937008,0,6.8284779088,3.8741471056,32,5,7.541,627.16883076494,4.265092,1.1408394,6.836614392,0,0,0,352.6, 0.7, 7.5,0,0,1024,1024,1024,1024,0,0,0,0,349.7,-0.2,0,62,3.768,3.765,0,0,0,0,3.862,73.04,627.16883076494,4.265092,6,P-GPS,
682100,2024-02-04 17:25:58,40.4290098852377,-86.9293231006966,4.265092,,,627.16883076494,3.937008,0,6.8235894572,3.8973754528,32,5,7.541,627.16883076494,4.265092,1.1408394,6.836614392,0,0,0,352.6, 0.7, 8.5,0,0,1024,1024,1024,1024,0,0,0,0,349.7,-0.2,0,62,3.768,3.765,0,0,0,0,3.862,73.04,627.16883076494,4.265092,6,P-GPS,
682200,2024-02-04 17:25:58,40.4290097964582,-86.9293230749527,4.265092,,,627.16883076494,3.937008,0.223694,6.8077758084,3.9305447452,32,5,7.541,627.16883076494,4.265092,1.1408394,6.836614392,-0.223694,0,0,352.3, -2.4, 7.9,0,0,1024,1024,1024,1024,0,0,0,0,349.7,-0.2,0,62,3.768,3.765,0,0,0,0,3.862,73.04,627.16883076494,4.265092,6,P-GPS,
682300,2024-02-04 17:25:58,40.4290097662083,-86.9293230442289,4.265092,,,627.16883076494,3.937008,0,6.7965553356,3.9444883152,32,5,7.541,627.16883076494,4.265092,1.1408394,6.836614392,0,0,0,352.4, -2, 7.8,0,0,1024,1024,1024,1024,0,0,0,0,349.7,-0.2,0,62,3.768,3.765,0,0,0,0,3.862,73.04,627.16883076494,4.265092,6,P-GPS,
682400,2024-02-04 17:25:59,40.4290097193644,-86.9293229969221,3.937008,,,626.84074676494,3.937008,0,6.7792653088,3.966043434,32,5,7.541,627.16883076494,4.265092,1.1408394,6.836614392,0,0,0,352.4, -1.2, 7.5,0,0,1024,1024,1024,1024,0,0,0,0,349.7,-0.2,0,62,3.767,3.763,0,0,0,0,3.862,73.04,626.84074676494,3.937008,6,P-GPS,
682500,2024-02-04 17:25:59,40.4290096828743,-86.9293229481916,3.937008,,,626.84074676494,3.937008,0,6.76263145,3.9850394976,32,5,7.541,627.16883076494,4.265092,1.1408394,6.836614392,0,0,0,352.3, -1.9, 7.2,0,0,1024,1024,1024,1024,0,0,0,0,349.7,-0.2,0,62,3.767,3.763,0,0,0,0,3.862,73.04,626.84074676494,3.937008,6,P-GPS,
682600,2024-02-04 17:25:59,40.4290096678958,-86.9293229027896,3.937008,,,626.84074676494,3.937008,0,6.749015964,3.9987862172,32,5,7.541,627.16883076494,4.265092,1.1408394,6.836614392,0,0,0,352.3, -1.4, 6.9,0,0,1024,1024,1024,1024,0,0,0,0,349.7,-0.2,0,62,3.767,3.763,0,0,0,0,3.862,73.04,626.84074676494,3.937008,6,P-GPS,
682700,2024-02-04 17:25:59,40.4290095398969,-86.9293228418258,3.937008,,,626.84074676494,3.937008,0,6.7202429972,4.0484581348,32,5,7.541,627.16883076494,4.265092,1.1408394,6.836614392,0,0,0,352.7, 0.6, 7.1,0,0,1024,1024,1024,1024,0,0,0,0,349.7,-0.2,0,62,3.767,3.763,0,0,0,0,3.862,73.04,626.84074676494,3.937008,6,P-GPS,
682800,2024-02-04 17:25:59,40.4290094755082,-86.9293228116703,3.937008,,,626.84074676494,3.937008,0,6.7060041516,4.0733925188,32,5,7.541,627.16883076494,4.265092,1.1408394,6.836614392,0,0,0,352.5, 0, 6.7,0,0,1024,1024,1024,1024,0,0,0,0,349.7,-0.2,0,62,3.767,3.763,0,0,0,0,3.862,73.04,626.84074676494,3.937008,6,P-GPS,
682900,2024-02-04 17:25:59,40.4290094323838,-86.9293228046252,3.937008,,,626.84074676494,3.937008,0,6.7000330228,4.089238976,32,5,7.541,627.16883076494,4.265092,1.1408394,6.836614392,0,0,0,352.4, -1, 7.1,0,0,1024,1024,1024,1024,0,0,0,0,349.7,-0.2,0,62,3.767,3.763,0,0,0,0,3.862,73.04,626.84074676494,3.937008,6,P-GPS,
683000,2024-02-04 17:25:59,40.4290094243262,-86.9293228174296,3.937008,,,626.84074676494,3.937008,0,6.7027233116,4.0938649604,32,5,7.541,627.16883076494,4.265092,1.1408394,6.836614392,0,0,0,352.5, -1.3, 8.2,0,0,1024,1024,1024,1024,0,0,0,0,349.7,-0.2,0,62,3.767,3.763,0,0,0,0,3.862,73.04,626.84074676494,3.937008,6,P-GPS,
683100,2024-02-04 17:25:59,40.4290094374384,-86.9293228532713,3.608924,,,626.51266276494,3.937008,0,6.7135500836,4.1049213912,32,5,7.541,627.16883076494,4.265092,1.1408394,6.836614392,0,0,0,352.7, 0.3, 7.9,0,0,1024,1024,1024,1024,0,0,0,0,349.7,-0.2,0,62,3.767,3.763,0,0,0,0,3.862,73.04,626.51266276494,3.608924,6,P-GPS,
683200,2024-02-04 17:25:59,40.4290094337223,-86.9293228206483,3.608924,,,626.51266276494,3.937008,0,6.7044621568,4.1140749348,32,5,7.541,627.16883076494,4.265092,1.1408394,6.836614392,0,0,0,352.7, 0.3, 7,0,0,1024,1024,1024,1024,0,0,0,0,349.7,-0.2,0,62,3.767,3.763,0,0,0,0,3.862,73.04,626.51266276494,3.608924,6,P-GPS,
683300,2024-02-04 17:25:59,40.4290094210758,-86.929322774768,3.608924,,,626.51266276494,3.937008,0,6.690945096,4.127624804,32,5,7.541,627.16883076494,4.265092,1.1408394,6.836614392,0,0,0,352.6, -0.1, 6.5,0,0,1024,1024,1024,1024,0,0,0,0,349.7,-0.2,0,62,3.767,3.763,0,0,0,0,3.862,73.04,626.51266276494,3.608924,6,P-GPS,
683400,2024-02-04 17:25:59,40.4290093958187,-86.9293227309049,3.608924,,,626.51266276494,3.937008,0,6.6768046756,4.14288071,32,5,7.541,627.16883076494,4.265092,1.1408394,6.836614392,0,0,0,352.5, -1.1, 7.2,0,0,1024,1024,1024,1024,0,0,0,0,349.7,-0.2,0,62,3.767,3.763,0,0,0,0,3.862,73.04,626.51266276494,3.608924,6,P-GPS,
683500,2024-02-04 17:26:00,40.429009375639,-86.9293226880378,3.608924,,,626.51266276494,3.937008,0,6.6634188484,4.1568898968,32,5,7.541,627.16883076494,4.265092,1.1408394,6.836614392,0,0,0,352.4, -1.5, 7.3,0,0,1024,1024,1024,1024,0,0,0,0,349.7,-0.2,0,62,3.767,3.763,0,0,0,0,3.862,73.04,626.51266276494,3.608924,6,P-GPS,
683600,2024-02-04 17:26:00,40.4290094171252,-86.9293225455997,3.608924,,,626.51266276494,3.937008,0,6.629101262,4.1992455412,32,5,7.541,627.16883076494,4.265092,1.1408394,6.836614392,0,0,0,352.5, -1.1, 7.4,0,0,1024,1024,1024,1024,0,0,0,0,349.7,-0.2,0,62,3.767,3.763,0,0,0,0,3.862,73.04,626.51266276494,3.608924,6,P-GPS,
683700,2024-02-04 17:26:00,40.4290093892495,-86.9293225097721,3.608924,,,626.51266276494,3.937008,0,6.6168637288,4.2134843868,32,5,7.541,627.16883076494,4.265092,1.1408394,6.836614392,0,0,0,352.6, -1.6, 7.5,0,0,1024,1024,1024,1024,0,0,0,0,349.7,-0.2,0,62,3.767,3.763,0,0,0,0,3.862,73.04,626.51266276494,3.608924,6,P-GPS,
683800,2024-02-04 17:26:00,40.4290093478805,-86.9293224848245,3.608924,,,626.51266276494,3.937008,0,6.6062666156,4.2300854372,32,5,7.541,627.16883076494,4.265092,1.1408394,6.836614392,0,0,0,352.2, -2.4, 7,0,0,1024,1024,1024,1024,0,0,0,0,349.7,-0.2,0,62,3.767,3.763,0,0,0,0,3.862,73.04,626.51266276494,3.608924,6,P-GPS,
683900,2024-02-04 17:26:00,40.4290093273361,-86.92932248189,3.608924,,,626.51266276494,3.937008,0,6.6035435184,4.2376313692,32,5,7.541,627.16883076494,4.265092,1.1408394,6.836614392,0,0,0,352.3, -1.4, 6.6,0,0,1024,1024,1024,1024,0,0,0,0,349.7,-0.2,0,62,3.767,3.763,0,0,0,0,3.862,73.04,626.51266276494,3.608924,6,P-GPS,
684000,2024-02-04 17:26:00,40.4290093273165,-86.9293224562924,3.608924,,,626.51266276494,3.937008,0,6.5966865628,4.2447179836,32,5,7.541,627.16883076494,4.265092,1.1408394,6.836614392,0,0,0,352.4, -1.7, 8.5,0,0,1024,1024,1024,1024,0,0,0,0,349.7,-0.2,0,62,3.767,3.763,0,0,0,0,3.862,73.04,626.51266276494,3.608924,6,P-GPS,
684100,2024-02-04 17:26:00,40.4290093063129,-86.9293224788063,3.608924,,,626.51266276494,3.937008,0,6.6007548044,4.2546261204,32,5,7.541,627.16883076494,4.265092,1.1408394,6.836614392,0,0,0,352.4, -2.4, 8.8,0,0,1024,1024,1024,1024,0,0,0,0,349.7,-0.2,0,62,3.767,3.763,0,0,0,0,3.862,73.04,626.51266276494,3.608924,6,P-GPS,
684200,2024-02-04 17:26:00,40.429009296793,-86.9293224838876,3.608924,,,626.51266276494,3.937008,0,6.6012469304,4.258366278,32,5,7.526,627.16883076494,4.265092,1.1408394,6.836614392,0,0,0,352.3, -3, 7.7,0,0,1024,1024,1024,1024,0,0,0,0,349.7,-0.2,0,62,3.76,3.76,0,0,0,0,4.041,73.04,626.51266276494,3.608924,6,P-GPS,
684300,2024-02-04 17:26:00,40.4290093220599,-86.9293224695892,3.608924,,,626.51266276494,3.937008,0,6.5997705524,4.2684056484,32,5,7.526,627.16883076494,4.265092,1.1408394,6.836614392,0,0,0,352.5, -0.6, 7.4,0,0,1024,1024,1024,1024,0,0,0,0,349.7,-0.2,0,62,3.76,3.76,0,0,0,0,4.041,73.04,626.51266276494,3.608924,6,P-GPS,
684400,2024-02-04 17:26:00,40.4290093020105,-86.9293225099297,3.608924,,,626.51266276494,3.937008,0,6.6087272456,4.2817914756,32,5,7.526,627.16883076494,4.265092,1.1408394,6.836614392,0,0,0,353, 1.6, 7.5,0,0,1024,1024,1024,1024,0,0,0,0,349.7,-0.2,0,62,3.76,3.76,0,0,0,0,4.041,73.04,626.51266276494,3.608924,6,P-GPS,
684500,2024-02-04 17:26:01,40.4290093408098,-86.9293224662214,3.608924,,,626.51266276494,3.937008,0,6.6006235708,4.3004266468,32,5,7.526,627.16883076494,4.265092,1.1408394,6.836614392,0,0,0,352.4, -1.2, 5.2,0,0,1024,1024,1024,1024,0,0,0,0,349.7,-0.2,0,62,3.76,3.76,0,0,0,0,4.041,73.04,626.51266276494,3.608924,6,P-GPS,
684600,2024-02-04 17:26:01,40.4290093794137,-86.9293224379678,3.608924,,,626.51266276494,3.937008,0,6.5966865628,4.3165683796,32,5,7.526,627.16883076494,4.265092,1.1408394,6.836614392,0,0,0,352.6, 0, 6.9,0,0,1024,1024,1024,1024,0,0,0,0,349.7,-0.2,0,62,3.76,3.76,0,0,0,0,4.041,73.04,626.51266276494,3.608924,6,P-GPS,
684700,2024-02-04 17:26:01,40.4290093636764,-86.9293224121649,3.608924,,,626.51266276494,3.937008,0,6.588254804,4.3257547316,32,5,7.526,627.16883076494,4.265092,1.1408394,6.836614392,0,0,0,352.6, -0.8, 8,0,0,1024,1024,1024,1024,0,0,0,0,349.7,-0.2,0,62,3.76,3.76,0,0,0,0,4.041,73.04,626.51266276494,3.608924,6,P-GPS,
684800,2024-02-04 17:26:01,40.4290092922757,-86.929322257274,3.28084,,,626.18457876494,3.937008,0,6.5399936476,4.3760172004,32,5,7.526,627.16883076494,4.265092,1.1408394,6.836614392,0,0,0,352.5, -1.7, 7.7,0,0,1024,1024,1024,1024,0,0,0,0,349.7,-0.2,0,62,3.76,3.76,0,0,0,0,4.041,73.04,626.18457876494,3.28084,6,P-GPS,
684900,2024-02-04 17:26:01,40.4290092734704,-86.9293222181686,3.28084,,,626.18457876494,3.937008,0,6.527723306,4.3888780932,32,5,7.526,627.16883076494,4.265092,1.1408394,6.836614392,0,0,0,352.5, -2.2, 7.5,0,0,1024,1024,1024,1024,0,0,0,0,349.7,-0.2,0,62,3.76,3.76,0,0,0,0,4.041,73.04,626.18457876494,3.28084,6,P-GPS,
685000,2024-02-04 17:26:01,40.429009299747,-86.9293221884774,3.28084,,,626.18457876494,3.937008,0,6.5222114948,4.4015093272,32,5,7.526,627.16883076494,4.265092,1.1408394,6.836614392,0,0,0,352.5, -2, 7.2,0,0,1024,1024,1024,1024,0,0,0,0,349.7,-0.2,0,62,3.76,3.76,0,0,0,0,4.041,73.04,626.18457876494,3.28084,6,P-GPS,
685100,2024-02-04 17:26:01,40.4290093137744,-86.9293221911024,3.28084,,,626.18457876494,3.937008,0,6.5242456156,4.4066930544,32,5,7.526,627.16883076494,4.265092,1.1408394,6.836614392,0,0,0,352.5, -1.6, 7.1,0,0,1024,1024,1024,1024,0,0,0,0,349.7,-0.2,0,62,3.76,3.76,0,0,0,0,4.041,73.04,626.18457876494,3.28084,6,P-GPS,
685200,2024-02-04 17:26:01,40.4290093137516,-86.9293222245694,3.28084,,,626.18457876494,3.937008,0,6.5332351172,4.4159778316,32,5,7.526,627.16883076494,4.265092,1.1408394,6.836614392,0,0,0,352.5, -1.2, 7.8,0,0,1024,1024,1024,1024,0,0,0,0,349.7,-0.2,0,62,3.76,3.76,0,0,0,0,4.041,73.04,626.18457876494,3.28084,6,P-GPS,
685300,2024-02-04 17:26:01,40.4290093726264,-86.9293222763779,3.28084,,,626.18457876494,3.937008,0,6.5526904984,4.4418308508,32,5,7.526,627.16883076494,4.265092,1.1408394,6.836614392,0,0,0,352.5, -1.5, 7.8,0,0,1024,1024,1024,1024,0,0,0,0,349.7,-0.2,0,62,3.76,3.76,0,0,0,0,4.041,73.04,626.18457876494,3.28084,6,P-GPS,
685400,2024-02-04 17:26:02,40.429009393845,-86.9293222432738,3.28084,,,626.18457876494,3.937008,0,6.5458663512,4.4538715336,32,5,7.526,627.16883076494,4.265092,1.1408394,6.836614392,0,0,0,352.5, -1.2, 7.5,0,0,1024,1024,1024,1024,0,0,0,0,349.7,-0.2,0,62,3.76,3.76,0,0,0,0,4.041,73.04,626.18457876494,3.28084,6,P-GPS,
685500,2024-02-04 17:26:02,40.4290093928875,-86.9293222231824,3.28084,,,626.18457876494,3.937008,0,6.5403873484,4.4594489616,32,5,7.526,627.16883076494,4.265092,1.1408394,6.836614392,0,0,0,352.5, -1.2, 7.4,0,0,1024,1024,1024,1024,0,0,0,0,349.7,-0.2,0,62,3.76,3.76,0,0,0,0,4.041,73.04,626.18457876494,3.28084,6,P-GPS,
685600,2024-02-04 17:26:02,40.4290093760363,-86.9293222132393,3.28084,,,626.18457876494,3.937008,0,6.536089448,4.466207492,32,5,7.526,627.16883076494,4.265092,1.1408394,6.836614392,0,0,0,352.6, -1, 7.1,0,0,1024,1024,1024,1024,0,0,0,0,349.7,-0.2,0,62,3.76,3.76,0,0,0,0,4.041,73.04,626.18457876494,3.28084,6,P-GPS,
685700,2024-02-04 17:26:02,40.4290093223824,-86.929322171025,3.28084,,,626.18457876494,3.937008,0,6.519685248,4.48900933,32,5,7.526,627.16883076494,4.265092,1.1408394,6.836614392,0,0,0,352.6, -1, 7.6,0,0,1024,1024,1024,1024,0,0,0,0,349.7,-0.2,0,62,3.76,3.76,0,0,0,0,4.041,73.04,626.18457876494,3.28084,6,P-GPS,
685800,2024-02-04 17:26:02,40.4290093176338,-86.9293221682452,3.28084,,,626.18457876494,3.937008,0,6.5184713372,4.4909122172,32,5,7.526,627.16883076494,4.265092,1.1408394,6.836614392,0,0,0,352.5, -1.2, 7.5,0,0,1024,1024,1024,1024,0,0,0,0,349.7,-0.2,0,62,3.76,3.76,0,0,0,0,4.041,73.04,626.18457876494,3.28084,6,P-GPS,
685900,2024-02-04 17:26:02,40.4290093142401,-86.9293221612367,3.28084,,,626.18457876494,3.937008,0,6.5162731744,4.4932088052,32,5,7.531,627.16883076494,4.265092,1.1408394,6.836614392,0,0,0,352.5, -1.1, 7.3,0,0,1024,1024,1024,1024,0,0,0,0,349.7,-0.2,0,62,3.759,3.757,0,0,0,0,4.099,73.22,626.18457876494,3.28084,6,P-GPS,
686000,2024-02-04 17:26:02,40.4290093124489,-86.9293221541241,3.28084,,,626.18457876494,3.937008,0,6.5142062452,4.4953085428,32,5,7.531,627.16883076494,4.265092,1.1408394,6.836614392,0,0,0,352.6, -1.3, 7.2,0,0,1024,1024,1024,1024,0,0,0,0,349.7,-0.2,0,62,3.759,3.757,0,0,0,0,4.099,73.22,626.18457876494,3.28084,6,P-GPS,
686100,2024-02-04 17:26:02,40.4290093937994,-86.9293221005037,3.28084,,,626.18457876494,3.937008,0,6.5075789484,4.5285106436,32,5,7.531,627.16883076494,4.265092,1.1408394,6.836614392,0,0,0,352.5, -1.4, 7.1,0,0,1024,1024,1024,1024,0,0,0,0,349.7,-0.2,0,62,3.759,3.757,0,0,0,0,4.099,73.22,626.18457876494,3.28084,6,P-GPS,
686200,2024-02-04 17:26:02,40.4290094321167,-86.9293220645579,3.28084,,,626.18457876494,3.937008,0,6.5016734364,4.5456694368,32,5,7.531,627.16883076494,4.265092,1.1408394,6.836614392,0,0,0,352.5, -1, 7.6,0,0,1024,1024,1024,1024,0,0,0,0,349.7,-0.2,0,62,3.759,3.757,0,0,0,0,4.099,73.22,626.18457876494,3.28084,6,P-GPS,
686300,2024-02-04 17:26:02,40.4290094427928,-86.9293220504396,3.28084,,,626.18457876494,3.937008,0,6.4989503392,4.5512140564,32,5,7.531,627.16883076494,4.265092,1.1408394,6.836614392,0,0,0,352.4, -1.9, 8.2,0,0,1024,1024,1024,1024,0,0,0,0,349.7,-0.2,0,62,3.759,3.757,0,0,0,0,4.099,73.22,626.18457876494,3.28084,6,P-GPS,
686400,2024-02-04 17:26:02,40.4290094425029,-86.9293220375789,3.28084,,,626.18457876494,3.937008,0,6.4954726488,4.554790172,32,5,7.531,627.16883076494,4.265092,1.1408394,6.836614392,0,0,0,352.4, -2.3, 7.8,0,0,1024,1024,1024,1024,0,0,0,0,349.7,-0.2,0,62,3.759,3.757,0,0,0,0,4.099,73.22,626.18457876494,3.28084,6,P-GPS,
686500,2024-02-04 17:26:03,40.4290094297392,-86.9293220541253,3.28084,,,626.18457876494,3.937008,0,6.4986550636,4.5613190436,32,5,7.531,627.16883076494,4.265092,1.1408394,6.836614392,0,0,0,352.5, -1.5, 7.2,0,0,1024,1024,1024,1024,0,0,0,0,349.7,-0.2,0,62,3.759,3.757,0,0,0,0,4.099,73.22,626.18457876494,3.28084,6,P-GPS,
686600,2024-02-04 17:26:03,40.4290094588232,-86.9293220443849,3.28084,,,626.18457876494,3.937008,0,6.4988847224,4.5722770492,32,5,7.531,627.16883076494,4.265092,1.1408394,6.836614392,0,0,0,352.6, -0.6, 7,0,0,1024,1024,1024,1024,0,0,0,0,349.7,-0.2,0,62,3.759,3.757,0,0,0,0,4.099,73.22,626.18457876494,3.28084,6,P-GPS,
686700,2024-02-04 17:26:03,40.4290095001335,-86.9293220028374,3.28084,,,626.18457876494,3.937008,0,6.4918309164,4.5912731128,32,5,7.531,627.16883076494,4.265092,1.1408394,6.836614392,0,0,0,352.6, 0, 6.6,0,0,1024,1024,1024,1024,0,0,0,0,349.7,-0.2,0,62,3.759,3.757,0,0,0,0,4.099,73.22,626.18457876494,3.28084,6,P-GPS,
686800,2024-02-04 17:26:03,40.4290095394995,-86.9293219325158,3.28084,,,626.18457876494,3.937008,0,6.4769359028,4.615485712,32,5,7.531,627.16883076494,4.265092,1.1408394,6.836614392,0,0,0,352.7, 0.7, 6.5,0,0,1024,1024,1024,1024,0,0,0,0,349.7,-0.2,0,62,3.759,3.757,0,0,0,0,4.099,73.22,626.18457876494,3.28084,6,P-GPS,
686900,2024-02-04 17:26:03,40.4290095528528,-86.9293218833351,3.28084,,,626.18457876494,3.937008,0,6.4651248788,4.6299870248,32,5,7.531,627.16883076494,4.265092,1.1408394,6.836614392,0,0,0,352.6, -0.2, 6,0,0,1024,1024,1024,1024,0,0,0,0,349.7,-0.2,0,62,3.759,3.757,0,0,0,0,4.099,73.22,626.18457876494,3.28084,6,P-GPS,
687000,2024-02-04 17:26:03,40.4290095504557,-86.9293218020971,3.28084,,,626.18457876494,3.937008,0,6.4432088676,4.6525920124,32,5,7.531,627.16883076494,4.265092,1.1408394,6.836614392,0,0,0,352.6, -0.9, 6.3,0,0,1024,1024,1024,1024,0,0,0,0,349.7,-0.2,0,62,3.759,3.757,0,0,0,0,4.099,73.22,626.18457876494,3.28084,6,P-GPS,
687100,2024-02-04 17:26:03,40.4290095511103,-86.9293217789248,3.28084,,,626.18457876494,3.937008,0,6.4370736968,4.6590224588,32,5,7.531,627.16883076494,4.265092,1.1408394,6.836614392,0,0,0,352.5, -1.5, 6.6,0,0,1024,1024,1024,1024,0,0,0,0,349.7,-0.2,0,62,3.759,3.757,0,0,0,0,4.099,73.22,626.18457876494,3.28084,6,P-GPS,
687200,2024-02-04 17:26:03,40.4290095688213,-86.9293217554064,3.28084,,,626.18457876494,3.937008,0,6.4326117544,4.6682088108,32,5,7.531,627.16883076494,4.265092,1.1408394,6.836614392,0,0,0,352.5, -1.8, 6.9,0,0,1024,1024,1024,1024,0,0,0,0,349.7,-0.2,0,62,3.759,3.757,0,0,0,0,4.099,73.22,626.18457876494,3.28084,6,P-GPS,
687300,2024-02-04 17:26:03,40.4290096046959,-86.9293217381257,3.28084,,,626.18457876494,3.937008,0,6.4316275024,4.6821523808,32,5,7.531,627.16883076494,4.265092,1.1408394,6.836614392,0,0,0,352.5, -0.9, 7,0,0,1024,1024,1024,1024,0,0,0,0,349.7,-0.2,0,62,3.759,3.757,0,0,0,0,4.099,73.22,626.18457876494,3.28084,6,P-GPS,
687400,2024-02-04 17:26:03,40.4290096844278,-86.9293216887621,3.28084,,,626.18457876494,3.937008,0,6.426673434,4.7143046128,32,5,7.51,627.16883076494,4.265092,1.1408394,6.836614392,0,0,0,352.7, 0, 6.9,0,0,1024,1024,1024,1024,0,0,0,0,349.7,-0.2,0,62,3.756,3.754,0,0,0,0,4.075,73.22,626.18457876494,3.28084,6,P-GPS,
687500,2024-02-04 17:26:04,40.4290097357954,-86.9293216615693,3.28084,,,626.18457876494,3.937008,0,6.4247705468,4.7345145872,32,5,7.51,627.16883076494,4.265092,1.1408394,6.836614392,0,0,0,352.6, -0.1, 6.9,0,0,1024,1024,1024,1024,0,0,0,0,349.7,-0.2,0,62,3.756,3.754,0,0,0,0,4.075,73.22,626.18457876494,3.28084,6,P-GPS,
687600,2024-02-04 17:26:04,40.4290097893582,-86.9293216277196,3.28084,,,626.18457876494,3.937008,0,6.4213912816,4.7562009396,32,5,7.51,627.16883076494,4.265092,1.1408394,6.836614392,0,0,0,352.5, -0.7, 6.7,0,0,1024,1024,1024,1024,0,0,0,0,349.7,-0.2,0,62,3.756,3.754,0,0,0,0,4.075,73.22,626.18457876494,3.28084,6,P-GPS,
687700,2024-02-04 17:26:04,40.4290098184781,-86.9293216154076,3.28084,,,626.18457876494,3.937008,0,6.4212272396,4.7673557956,32,5,7.51,627.16883076494,4.265092,1.1408394,6.836614392,0,0,0,352.5, -1.3, 6.1,0,0,1024,1024,1024,1024,0,0,0,0,349.7,-0.2,0,62,3.756,3.754,0,0,0,0,4.075,73.22,626.18457876494,3.28084,6,P-GPS,
687800,2024-02-04 17:26:04,40.4290098930836,-86.9293216303503,3.28084,,,626.18457876494,3.937008,0,6.4331694972,4.7948820432,32,5,7.51,627.16883076494,4.265092,1.1408394,6.836614392,0,0,0,352.5, -0.4, 6,0,0,1024,1024,1024,1024,0,0,0,0,349.7,-0.2,0,62,3.756,3.754,0,0,0,0,4.075,73.22,626.18457876494,3.28084,6,P-GPS,
687900,2024-02-04 17:26:04,40.4290099161814,-86.9293216195491,3.28084,,,626.18457876494,3.937008,0,6.4328086048,4.8038387364,32,5,7.51,627.16883076494,4.265092,1.1408394,6.836614392,0,0,0,352.5, -1, 6.4,0,0,1024,1024,1024,1024,0,0,0,0,349.7,-0.2,0,62,3.756,3.754,0,0,0,0,4.075,73.22,626.18457876494,3.28084,6,P-GPS,
688000,2024-02-04 17:26:04,40.4290099501573,-86.929321587984,3.28084,,,626.18457876494,3.937008,0,6.4281170036,4.8190290256,32,5,7.51,627.16883076494,4.265092,1.1408394,6.836614392,0,0,0,352.7, 0.3, 6.8,0,0,1024,1024,1024,1024,0,0,0,0,349.7,-0.2,0,62,3.756,3.754,0,0,0,0,4.075,73.22,626.18457876494,3.28084,6,P-GPS,
688100,2024-02-04 17:26:04,40.4290099505839,-86.929321577256,3.28084,,,626.18457876494,3.937008,0,6.4253282896,4.82201459,32,5,7.51,627.16883076494,4.265092,1.1408394,6.836614392,0,0,0,352.6, -0.5, 6.9,0,0,1024,1024,1024,1024,0,0,0,0,349.7,-0.2,0,62,3.756,3.754,0,0,0,0,4.075,73.22,626.18457876494,3.28084,6,P-GPS,
688200,2024-02-04 17:26:04,40.4290098835832,-86.9293215818393,3.28084,,,626.18457876494,3.937008,0,6.419291544,4.8464896564,32,5,7.51,627.16883076494,4.265092,1.1408394,6.836614392,0,0,0,352.6, -1.2, 6.6,0,0,1024,1024,1024,1024,0,0,0,0,349.7,-0.2,0,62,3.756,3.754,0,0,0,0,4.075,73.22,626.18457876494,3.28084,6,P-GPS,
688300,2024-02-04 17:26:04,40.429009857121,-86.9293215990497,3.28084,,,626.18457876494,3.937008,0,6.4209975808,4.8572508116,32,5,7.51,627.16883076494,4.265092,1.1408394,6.836614392,0,0,0,352.6, -0.7, 6.8,0,0,1024,1024,1024,1024,0,0,0,0,349.7,-0.2,0,62,3.756,3.754,0,0,0,0,4.075,73.22,626.18457876494,3.28084,6,P-GPS,
688400,2024-02-04 17:26:04,40.4290098207514,-86.9293216296694,3.28084,,,626.18457876494,3.937008,0,6.4252626728,4.873031652,32,5,7.51,627.16883076494,4.265092,1.1408394,6.836614392,0,0,0,352.4, -1, 7,0,0,1024,1024,1024,1024,0,0,0,0,349.7,-0.2,0,62,3.756,3.754,0,0,0,0,4.075,73.22,626.18457876494,3.28084,6,P-GPS,
688500,2024-02-04 17:26:05,40.4290098027473,-86.9293216302743,3.28084,,,626.18457876494,3.937008,0,6.4234910192,4.879593332,32,5,7.51,627.16883076494,4.265092,1.1408394,6.836614392,0,0,0,352.3, -2.3, 7.5,0,0,1024,1024,1024,1024,0,0,0,0,349.7,-0.2,0,62,3.756,3.754,0,0,0,0,4.075,73.22,626.18457876494,3.28084,6,P-GPS,
688600,2024-02-04 17:26:05,40.4290098232755,-86.9293216053605,3.28084,,,626.18457876494,3.937008,0,6.4190618852,4.8897967444,32,5,7.51,627.16883076494,4.265092,1.1408394,6.836614392,0,0,0,352.5, -2, 8,0,0,1024,1024,1024,1024,0,0,0,0,349.7,-0.2,0,62,3.756,3.754,0,0,0,0,4.075,73.22,626.18457876494,3.28084,6,P-GPS,
688700,2024-02-04 17:26:05,40.4290098507343,-86.9293215168212,3.28084,,,626.18457876494,3.937008,0,6.3984910184,4.91633874,32,5,7.51,627.16883076494,4.265092,1.1408394,6.836614392,0,0,0,352.6, -0.9, 7.3,0,0,1024,1024,1024,1024,0,0,0,0,349.7,-0.2,0,62,3.756,3.754,0,0,0,0,4.075,73.22,626.18457876494,3.28084,6,P-GPS,
688800,2024-02-04 17:26:05,40.4290098384232,-86.9293214853293,3.28084,,,626.18457876494,3.937008,0,6.3888125404,4.92618126,32,5,7.51,627.16883076494,4.265092,1.1408394,6.836614392,0,0,0,352.6, -0.1, 6.7,0,0,1024,1024,1024,1024,0,0,0,0,349.7,-0.2,0,62,3.756,3.754,0,0,0,0,4.075,73.22,626.18457876494,3.28084,6,P-GPS,
688900,2024-02-04 17:26:05,40.4290098299065,-86.9293214954215,3.28084,,,626.18457876494,3.608924,0,6.390584194,4.9303479268,32,5,7.51,627.16883076494,4.265092,1.1408394,6.836614392,0,0,0,352.5, -0.8, 7.1,0,0,1024,1024,1024,1024,0,0,0,0,349.7,-0.2,0,62,3.754,3.75,0,0,0,0,4.075,73.22,626.18457876494,3.28084,6,P-GPS,
689000,2024-02-04 17:26:05,40.4290098239692,-86.9293215466222,3.28084,,,626.18457876494,3.608924,0,6.403543512,4.9447508144,32,5,7.51,627.16883076494,4.265092,1.1408394,6.836614392,0,0,0,352.5, -1.5, 7.3,0,0,1024,1024,1024,1024,0,0,0,0,349.7,-0.2,0,62,3.754,3.75,0,0,0,0,4.075,73.22,626.18457876494,3.28084,6,P-GPS,
689100,2024-02-04 17:26:05,40.4290097951164,-86.9293216858755,3.28084,,,626.18457876494,3.608924,0,6.4374673976,4.9848098708,32,5,7.51,627.16883076494,4.265092,1.1408394,6.836614392,0,0,0,352.4, -1.7, 7.7,0,0,1024,1024,1024,1024,0,0,0,0,349.7,-0.2,0,62,3.754,3.75,0,0,0,0,4.075,73.22,626.18457876494,3.28084,6,P-GPS,
689200,2024-02-04 17:26:05,40.429009814902,-86.9293217313535,3.28084,,,626.18457876494,3.608924,0,6.4516406264,4.9993768004,32,5,7.51,627.16883076494,4.265092,1.1408394,6.836614392,0,0,0,352.4, -1, 8.6,0,0,1024,1024,1024,1024,0,0,0,0,349.7,-0.2,0,62,3.754,3.75,0,0,0,0,4.075,73.22,626.18457876494,3.28084,6,P-GPS,
689300,2024-02-04 17:26:05,40.4290098483437,-86.9293217702394,3.608924,,,626.51266276494,3.608924,0,6.4655185796,5.0156497668,32,5,7.51,627.16883076494,4.265092,1.1408394,6.836614392,0,0,0,352.5, -0.9, 8.3,0,0,1024,1024,1024,1024,0,0,0,0,349.7,-0.2,0,62,3.754,3.75,0,0,0,0,4.075,73.22,626.51266276494,3.608924,6,P-GPS,
689400,2024-02-04 17:26:05,40.4290098842704,-86.929321804829,3.28084,,,626.18457876494,3.608924,0,6.4785435144,5.0319227332,32,5,7.51,627.16883076494,4.265092,1.1408394,6.836614392,0,0,0,352.6, -0.5, 8.6,0,0,1024,1024,1024,1024,0,0,0,0,349.7,-0.2,0,62,3.754,3.75,0,0,0,0,4.075,73.22,626.18457876494,3.28084,6,P-GPS,
689500,2024-02-04 17:26:06,40.429009951079,-86.9293218003048,3.28084,,,626.18457876494,3.608924,0,6.4845146432,5.0563321828,32,5,7.51,627.16883076494,4.265092,1.1408394,6.836614392,0,0,0,352.4, -1.6, 8,0,0,1024,1024,1024,1024,0,0,0,0,349.7,-0.2,0,62,3.754,3.75,0,0,0,0,4.075,73.22,626.18457876494,3.28084,6,P-GPS,
689600,2024-02-04 17:26:06,40.4290099429856,-86.92932179232,3.28084,,,626.18457876494,3.608924,0,6.4815290788,5.0600067236,32,5,7.51,627.16883076494,4.265092,1.1408394,6.836614392,0,0,0,352.5, -1.6, 7.8,0,0,1024,1024,1024,1024,0,0,0,0,349.7,-0.2,0,62,3.754,3.75,0,0,0,0,4.075,73.22,626.18457876494,3.28084,6,P-GPS,
689700,2024-02-04 17:26:06,40.4290099415721,-86.9293217810462,3.28084,,,626.18457876494,3.608924,0,6.4783794724,5.0631891384,32,5,7.51,627.16883076494,4.265092,1.1408394,6.836614392,0,0,0,352.4, -2.1, 7.6,0,0,1024,1024,1024,1024,0,0,0,0,349.7,-0.2,0,62,3.754,3.75,0,0,0,0,4.075,73.22,626.18457876494,3.28084,6,P-GPS,
689800,2024-02-04 17:26:06,40.4290099534858,-86.9293217662639,3.28084,,,626.18457876494,3.608924,0,6.4757548004,5.0691602672,32,5,7.51,627.16883076494,4.265092,1.1408394,6.836614392,0,0,0,352.6, -1.7, 7.1,0,0,1024,1024,1024,1024,0,0,0,0,349.7,-0.2,0,62,3.754,3.75,0,0,0,0,4.075,73.22,626.18457876494,3.28084,6,P-GPS,
689900,2024-02-04 17:26:06,40.4290098280696,-86.9293217954487,3.28084,,,626.18457876494,3.608924,0,6.4700789472,5.11564977,32,5,7.51,627.16883076494,4.265092,1.1408394,6.836614392,0,0,0,352.6, -1, 7.5,0,0,1024,1024,1024,1024,0,0,0,0,349.7,-0.2,0,62,3.754,3.75,0,0,0,0,4.075,73.22,626.18457876494,3.28084,6,P-GPS,
690000,2024-02-04 17:26:06,40.4290098036071,-86.9293217944302,3.28084,,,626.18457876494,3.608924,0,6.4672246164,5.1245736548,32,5,7.51,627.16883076494,4.265092,1.1408394,6.836614392,0,0,0,352.6, -0.5, 7.1,0,0,1024,1024,1024,1024,0,0,0,0,349.7,-0.2,0,62,3.754,3.75,0,0,0,0,4.075,73.22,626.18457876494,3.28084,6,P-GPS,
690100,2024-02-04 17:26:06,40.4290098024607,-86.9293217858039,3.28084,,,626.18457876494,3.608924,0,6.4647967948,5.1270014764,32,5,7.51,627.16883076494,4.265092,1.1408394,6.836614392,0,0,0,352.6, -0.7, 6.6,0,0,1024,1024,1024,1024,0,0,0,0,349.7,-0.2,0,62,3.754,3.75,0,0,0,0,4.075,73.22,626.18457876494,3.28084,6,P-GPS,
690200,2024-02-04 17:26:06,40.4290098225817,-86.929321777926,3.28084,,,626.18457876494,3.608924,0,6.4648296032,5.1346458336,32,5,7.51,627.16883076494,4.265092,1.1408394,6.836614392,0,0,0,352.5, -0.9, 7.4,0,0,1024,1024,1024,1024,0,0,0,0,349.7,-0.2,0,62,3.754,3.75,0,0,0,0,4.075,73.22,626.18457876494,3.28084,6,P-GPS,
690300,2024-02-04 17:26:06,40.4290098480148,-86.9293217514759,3.608924,,,626.51266276494,3.608924,0,6.4604988944,5.146489666,32,5,7.51,627.16883076494,4.265092,1.1408394,6.836614392,0,0,0,352.5, -0.7, 8.1,0,0,1206,1024,1024,1024,28,0,0,0,349.7,-0.2,0,62,3.754,3.75,0,0,0,0,4.075,73.22,626.51266276494,3.608924,6,P-GPS,
690400,2024-02-04 17:26:07,40.4290099051438,-86.9293216218168,3.608924,,,626.51266276494,3.608924,0,6.4322180536,5.1880907172,32,5,7.51,627.16883076494,4.265092,1.1408394,6.836614392,0,0,0,352.5, -0.7, 7,0,0,1684,1024,1024,1024,100,0,0,0,349.7,-0.2,0,62,3.754,3.75,0,0,0,0,4.075,73.22,626.51266276494,3.608924,6,P-GPS,
690500,2024-02-04 17:26:07,40.4290099280365,-86.9293215939262,3.608924,,,626.51266276494,3.608924,0,6.4272967936,5.1995080404,32,5,7.51,627.16883076494,4.265092,1.1408394,6.836614392,0,0,0,352.5, -1.3, 6.9,0,0,1684,1024,1024,1024,100,0,0,0,349.7,-0.2,0,62,3.754,3.75,0,0,0,0,4.075,73.22,626.51266276494,3.608924,6,P-GPS,
690600,2024-02-04 17:26:07,40.4290099680213,-86.929321596993,3.608924,,,626.51266276494,3.608924,0,6.4324805208,5.2141077784,32,5,7.51,627.16883076494,4.265092,1.1408394,6.836614392,0.223694,0,0,351.9, -12, 6.9,0,0,1684,1024,1024,1024,100,0,0,0,349.7,-0.2,0,62,3.754,3.75,0,0,0,0,4.075,73.22,626.51266276494,3.608924,6,P-GPS,
690700,2024-02-04 17:26:07,40.4290101796767,-86.9293216092572,3.608924,,,626.51266276494,3.608924,0.671082,6.4592521752,5.2914043688,32,5,7.502,627.16883076494,4.265092,1.1408394,6.836614392,0.671082,0,0,351.2, -21.8, 7,0,0,1684,1024,1024,1024,100,0,0,0,349.7,-0.2,0,62,3.749,3.744,0,0,0,0,4.121,73.4,626.51266276494,3.608924,6,P-GPS,
690800,2024-02-04 17:26:07,40.429010753358,-86.9293216430872,3.608924,,,626.51266276494,3.608924,1.565858,6.536089448,5.5009188112,32,5,7.502,627.16883076494,4.265092,1.565858,6.836614392,1.565858,0,0,351.1, -23.8, 6.8,0,0,1684,1024,1024,1024,100,0,0,0,349.7,-0.2,0,62,3.749,3.744,0,0,0,0,4.121,73.4,626.51266276494,3.608924,6,P-GPS,
690900,2024-02-04 17:26:07,40.4290116243541,-86.9293217785956,3.608924,,,626.51266276494,3.608924,2.684328,6.6852692428,5.8209319448,32,5,7.502,627.16883076494,4.265092,2.684328,6.836614392,2.684328,-0.223694,0,351.4, -21.9, 6.9,0,0,1684,1024,1024,1024,100,0,0,0,349.7,-0.2,0,62,3.749,3.744,0,0,0,0,4.121,73.4,626.51266276494,3.608924,6,P-GPS,
691000,2024-02-04 17:26:07,40.4290128725596,-86.9293219887106,3.28084,,,626.18457876494,3.608924,3.35541,6.9232941848,6.2800526944,32,5,7.502,627.16883076494,4.265092,3.35541,6.9232941848,3.35541,-0.223694,0,351.5, -19.8, 7.4,0,0,1684,1024,1093,1024,100,0,10,0,349.7,-0.2,0,62,3.749,3.744,0,0,0,0,4.121,73.4,626.18457876494,3.28084,6,P-GPS,
691100,2024-02-04 17:26:07,40.4290143322643,-86.9293222205039,3.28084,,,626.18457876494,3.608924,4.0488614,7.2253611236,6.8165028428,32,5,7.502,627.16883076494,4.265092,4.0488614,7.2253611236,4.026492,-0.447388,0,351.4, -21.5, 7,0,0,1684,1024,1356,1024,100,0,50,0,349.7,-0.2,0,62,3.749,3.744,0,0,0,0,4.121,73.4,626.18457876494,3.28084,6,P-GPS,
691200,2024-02-04 17:26:07,40.4290161131827,-86.9293225878365,3.28084,,,626.18457876494,3.608924,4.7199434,7.6485238668,7.474245646,32,5,7.502,627.16883076494,4.265092,4.7199434,7.6485238668,4.697574,-0.447388,0,351.4, -22.2, 7,0,0,1684,1024,1335,1024,100,0,47,0,349.7,-0.2,0,62,3.749,3.744,0,0,0,0,4.121,73.4,626.18457876494,3.28084,6,P-GPS,
691300,2024-02-04 17:26:07,40.4290181911424,-86.9293229183568,3.28084,,,626.18457876494,3.608924,5.6147194,8.1598099724,8.2378939644,32,5,7.502,627.16883076494,4.265092,5.6147194,8.1598099724,5.59235,-0.447388,-0.671082,351.4, -21.9, 6.6,0,0,1684,1024,1356,1024,100,0,50,0,349.7,-0.2,0,62,3.749,3.744,0,0,0,0,4.121,73.4,626.18457876494,3.28084,6,P-GPS,
691400,2024-02-04 17:26:07,40.4290207766295,-86.9293233157296,3.28084,,,626.18457876494,3.937008,6.5094954,8.8440291544,9.187664336,32,5,7.502,627.16883076494,4.265092,6.5094954,8.8440291544,6.487126,-0.447388,-1.11847,351.6, -19.2, 6.6,0,0,1684,1024,1335,1024,100,0,47,0,349.7,-0.2,0,62,3.749,3.744,0,0,0,0,4.121,73.4,626.18457876494,3.28084,6,P-GPS,
691500,2024-02-04 17:26:08,40.4290234959876,-86.9293236817315,3.28084,,,626.18457876494,3.937008,7.1805774,9.6023953204,10.1850068876,32,5,7.502,627.16883076494,4.265092,7.1805774,9.6023953204,7.158208,-0.671082,-1.342164,351.8, -18.3, 6.7,0,0,1684,1024,1307,1024,100,0,43,0,349.7,-0.2,0,62,3.749,3.744,0,0,0,0,4.121,73.4,626.18457876494,3.28084,6,P-GPS,
691600,2024-02-04 17:26:08,40.4290267570509,-86.9293238780714,3.28084,,,626.18457876494,4.265092,7.6279654,10.5208664784,11.3760502328,32,5,7.502,627.16883076494,4.265092,7.6279654,10.5208664784,7.605596,-0.671082,-1.342164,351.8, -18.4, 6.6,0,0,1684,1024,1307,1024,100,0,43,0,349.7,-0.2,0,62,3.749,3.744,0,0,0,0,4.121,73.4,626.18457876494,3.28084,6,P-GPS,
691700,2024-02-04 17:26:08,40.4290298350576,-86.9293242818281,3.608924,,,626.51266276494,4.593176,8.0753534,11.470308766,12.5046591928,32,5,7.502,627.16883076494,4.265092,8.0753534,11.470308766,8.052984,-0.671082,-1.342164,351.5, -19.8, 6.2,0,0,1684,1024,1285,1024,100,0,40,0,349.7,-0.2,0,62,3.749,3.744,0,0,0,0,4.121,73.4,626.51266276494,3.608924,6,P-GPS,
691800,2024-02-04 17:26:08,40.429033241554,-86.9293247900205,3.608924,,,626.51266276494,4.593176,8.5451108,12.5651906908,13.7554794428,32,5,7.502,627.16883076494,4.265092,8.5451108,12.5651906908,8.500372,-0.894776,-1.11847,351.6, -20, 6.1,0,0,1684,1024,1274,1024,100,0,38,0,349.7,-0.2,0,62,3.749,3.744,0,0,0,0,4.121,73.4,626.51266276494,3.608924,6,P-GPS,
691900,2024-02-04 17:26:08,40.4290367395364,-86.929325335467,3.937008,,,626.84074676494,4.92126,9.0148682,13.7207025388,15.040682896,32,5,7.502,627.16883076494,4.265092,9.0148682,13.7207025388,8.94776,-1.11847,-1.11847,351.6, -19.7, 6.4,0,0,1684,1024,1268,1024,100,0,37,0,349.7,-0.2,0,62,3.749,3.744,0,0,0,0,4.121,73.4,626.84074676494,3.937008,6,P-GPS,
692000,2024-02-04 17:26:08,40.4290406591751,-86.9293259749869,3.937008,,,626.84074676494,4.92126,9.4622562,15.0443574368,16.4817590576,32,5,7.502,627.16883076494,4.265092,9.4622562,15.0443574368,9.395148,-1.11847,-1.11847,351.4, -20, 7,0,0,1684,1024,1271,1024,100,0,37,0,349.7,-0.2,0,62,3.749,3.744,0,0,0,0,4.121,73.4,626.84074676494,3.937008,6,P-GPS,
692100,2024-02-04 17:26:08,40.4290445809177,-86.929326680971,4.265092,,,627.16883076494,5.249344,9.4622562,16.3970149604,17.9259848256,32,5,7.502,627.16883076494,4.265092,9.4622562,16.3970149604,9.842536,-1.342164,-0.894776,351.2, -20.2, 7.7,0,0,1684,1024,1271,1024,100,0,37,0,349.7,-0.2,0,62,3.749,3.744,0,0,0,0,4.121,73.4,627.16883076494,4.265092,6,P-GPS,
692200,2024-02-04 17:26:08,40.4290487608403,-86.9293275376088,4.265092,,,627.16883076494,5.249344,10.6030956,17.8670937476,19.4694560036,32,5,7.493,627.16883076494,4.265092,10.6030956,17.8670937476,10.513618,-1.342164,-0.894776,351.2, -20, 8.5,0,0,1684,1024,1265,1024,100,0,37,0,349.7,-0.2,0,62,3.738,3.738,0,0,0,0,4.797,73.4,627.16883076494,4.265092,6,P-GPS,
692300,2024-02-04 17:26:08,40.4290529473288,-86.9293283868723,4.265092,,,627.16883076494,5.249344,11.072853,19.3499678108,21.0149941108,32,5,7.493,627.16883076494,4.265092,11.072853,19.3499678108,10.961006,-1.565858,-0.894776,351.2, -19.8, 8.9,0,0,1684,1024,1222,1024,100,0,30,0,349.7,-0.2,0,62,3.738,3.738,0,0,0,0,4.797,73.4,627.16883076494,4.265092,6,P-GPS,
692400,2024-02-04 17:26:08,40.4290575642606,-86.9293293000144,4.593176,,,627.49691476494,5.577428,11.296547,20.9932093332,22.7184718556,32,5,7.493,627.49691476494,4.593176,11.296547,20.9932093332,11.1847,-1.565858,-0.894776,351.3, -19.3, 9.2,0,0,1684,1024,1222,1024,100,0,30,0,349.7,-0.2,0,62,3.738,3.738,0,0,0,0,4.797,73.4,627.49691476494,4.593176,6,P-GPS,
692500,2024-02-04 17:26:09,40.4290620239108,-86.9293302715289,4.593176,,,627.49691476494,5.577428,11.743935,22.5983274948,24.367782932,32,5,7.493,627.49691476494,4.593176,11.743935,22.5983274948,11.632088,-1.565858,-0.671082,351.1, -20.2, 8.6,0,0,1684,1024,1231,1024,100,0,31,0,349.7,-0.2,0,62,3.738,3.738,0,0,0,0,4.797,73.4,627.49691476494,4.593176,6,P-GPS,
692600,2024-02-04 17:26:09,40.4290668819436,-86.9293311815789,4.593176,,,627.49691476494,5.905512,12.2136924,24.3386162644,26.1581701284,32,5,7.493,627.49691476494,4.593176,12.2136924,24.3386162644,12.079476,-1.789552,-0.671082,351.2, -20.6, 7.9,0,0,1684,1024,1262,1024,100,0,36,0,349.7,-0.2,0,62,3.738,3.738,0,0,0,0,4.797,73.4,627.49691476494,4.593176,6,P-GPS,
692700,2024-02-04 17:26:09,40.4290717004573,-86.9293321255376,4.92126,,,627.82499876494,5.905512,12.6610804,26.075460152,27.9356308152,32,5,7.493,627.82499876494,4.92126,12.6610804,26.075460152,12.526864,-1.789552,-0.671082,351.3, -20.5, 7.9,0,0,1684,1024,1267,1024,100,0,37,0,349.7,-0.2,0,62,3.738,3.738,0,0,0,0,4.797,73.4,627.82499876494,4.92126,6,P-GPS,
692800,2024-02-04 17:26:09,40.4290769921382,-86.9293331758931,4.92126,,,627.82499876494,5.905512,13.086099,27.9900271424,29.8882227412,32,5,7.493,627.82499876494,4.92126,13.086099,27.9900271424,12.974252,-1.789552,-0.894776,351.1, -20, 8.6,0,0,1684,1024,1267,1024,100,0,37,0,349.7,-0.2,0,62,3.738,3.738,0,0,0,0,4.797,73.4,627.82499876494,4.92126,6,P-GPS,
692900,2024-02-04 17:26:09,40.4290820816901,-86.9293342237839,5.249344,,,628.15308276494,6.233596,13.533487,29.8394694588,31.7678159772,32,5,7.493,628.15308276494,5.249344,13.533487,29.8394694588,13.42164,-1.789552,-0.671082,351.4, -18.5, 9.7,0,0,1684,1024,1267,1024,100,0,37,0,349.7,-0.2,0,62,3.738,3.738,0,0,0,0,4.797,73.4,628.15308276494,5.249344,6,P-GPS,
693000,2024-02-04 17:26:09,40.4290876322544,-86.9293352699641,5.249344,,,628.15308276494,6.233596,13.757181,31.8520679484,33.813649376,32,5,7.493,628.15308276494,5.249344,13.757181,31.8520679484,13.645334,-1.789552,-0.671082,351.1, -19.3, 8.7,0,0,1684,1024,1289,1024,100,0,40,0,349.7,-0.2,0,62,3.738,3.738,0,0,0,0,4.797,73.4,628.15308276494,5.249344,6,P-GPS,
693100,2024-02-04 17:26:09,40.4290930300512,-86.9293363104722,5.577428,,,628.48116676494,6.233596,14.2269384,33.814961712,35.804135004,32,5,7.493,628.48116676494,5.577428,14.2269384,33.814961712,14.092722,-2.013246,-0.894776,351.2, -18.8, 8.1,0,0,1684,1024,1307,1024,100,0,43,0,349.7,-0.2,0,62,3.738,3.738,0,0,0,0,4.797,73.4,628.48116676494,5.577428,6,P-GPS,
693200,2024-02-04 17:26:09,40.4290988441435,-86.9293374472033,5.577428,,,628.48116676494,6.56168,14.4506324,35.934056268,37.948820112,32,5,7.493,628.48116676494,5.577428,14.4506324,35.934056268,14.316416,-2.013246,-1.11847,351.3, -18.1, 9.5,0,0,1684,1024,1307,1024,100,0,43,0,349.7,-0.2,0,62,3.738,3.738,0,0,0,0,4.797,73.4,628.48116676494,5.577428,6,P-GPS,
693300,2024-02-04 17:26:09,40.4291045847212,-86.9293383998334,5.905512,,,628.80925076494,6.56168,14.8980204,38.015749248,40.059712568,32,5,7.493,628.80925076494,5.905512,14.8980204,38.015749248,14.763804,-2.013246,-1.11847,351.4, -18.3, 8.4,0,0,1684,1024,1307,1024,100,0,43,0,349.7,-0.2,0,62,3.738,3.738,0,0,0,0,4.797,73.4,628.80925076494,5.905512,6,P-GPS,
693400,2024-02-04 17:26:10,40.4291107454896,-86.9293394382257,5.905512,,,628.80925076494,6.56168,15.1217144,40.25426638,42.32611684,32,5,7.493,628.80925076494,5.905512,15.1217144,40.25426638,14.987498,-2.013246,-1.11847,351.3, -18.9, 7.6,0,0,1684,1024,1358,1024,100,0,51,0,349.7,-0.2,0,62,3.738,3.738,0,0,0,0,4.797,73.4,628.80925076494,5.905512,6,P-GPS,
693500,2024-02-04 17:26:10,40.4291167161991,-86.9293404676709,6.233596,,,629.13733476494,6.889764,15.3454084,42.428479048,44.522967304,32,5,7.493,629.13733476494,6.233596,15.3454084,42.428479048,15.211192,-2.013246,-1.342164,351.7, -17.9, 7.3,0,0,1684,1024,1428,1024,100,0,61,0,349.7,-0.2,0,62,3.738,3.738,0,0,0,0,4.797,73.4,629.13733476494,6.233596,6,P-GPS,
693600,2024-02-04 17:26:10,40.4291230896683,-86.9293415685801,6.233596,,,629.13733476494,7.217848,15.3454084,44.751969936,46.86843982,32,5,7.493,629.13733476494,6.233596,15.3454084,44.751969936,15.434886,-2.013246,-1.565858,351.5, -18.6, 7.7,0,0,1684,1024,1497,1024,100,0,72,0,349.7,-0.2,0,62,3.738,3.738,0,0,0,0,4.797,73.4,629.13733476494,6.233596,6,P-GPS,
693700,2024-02-04 17:26:10,40.4291292478703,-86.9293426351584,6.56168,,,629.46541876494,7.545932,16.0164904,46.999017252,49.134844092,32,5,7.493,629.46541876494,6.56168,16.0164904,46.999017252,15.882274,-2.013246,-2.013246,351.3, -19.1, 7.6,0,0,1684,1024,1556,1024,100,0,81,0,349.7,-0.2,0,62,3.738,3.738,0,0,0,0,4.797,73.4,629.46541876494,6.56168,6,P-GPS,
693800,2024-02-04 17:26:10,40.4291358998296,-86.9293437921301,6.889764,,,629.79350276494,7.874016,16.0164904,49.428807356,51.5830069,32,5,7.457,629.79350276494,6.889764,16.0164904,49.428807356,16.105968,-2.013246,-2.460634,351.3, -18.7, 7.7,0,0,1684,1024,1616,1024,100,0,90,0,349.7,-0.2,0,61,3.725,3.727,0,0,0,0,4.758,73.22,629.79350276494,6.889764,6,P-GPS,
693900,2024-02-04 17:26:10,40.4291423210187,-86.9293449055257,7.217848,,,630.12158676494,8.2021,16.7099418,51.775592208,53.945867868,32,5,7.457,630.12158676494,7.217848,16.7099418,51.775592208,16.553356,-2.23694,-3.131716,351.3, -17.7, 7.6,0,0,1684,1024,1684,1024,100,0,100,0,349.7,-0.2,0,61,3.725,3.727,0,0,0,0,4.758,73.22,630.12158676494,7.217848,6,P-GPS,
694000,2024-02-04 17:26:10,40.4291492170101,-86.9293461001312,7.874016,,,630.77775476494,8.530184,16.9336358,54.297245832,56.483925692,32,5,7.457,630.77775476494,7.874016,16.9336358,54.297245832,16.77705,-2.23694,-3.802798,351.5, -15.9, 7.6,0,0,1684,1024,1684,1024,100,0,100,0,349.7,-0.2,0,61,3.725,3.727,0,0,0,0,4.758,73.22,630.77775476494,7.874016,6,P-GPS,
