time(millisecond),datetime(utc),latitude,longitude,height_above_takeoff(feet),height_above_ground_at_drone_location(feet),ground_elevation_at_drone_location(feet),altitude_above_seaLevel(feet),height_sonar(feet),speed(mph),distance(feet),mileage(feet),satellites,gpslevel,voltage(v),max_altitude(feet),max_ascent(feet),max_speed(mph),max_distance(feet), xSpeed(mph), ySpeed(mph), zSpeed(mph), compass_heading(degrees), pitch(degrees), roll(degrees),isPhoto,isVideo,rc_elevator,rc_aileron,rc_throttle,rc_rudder,rc_elevator(percent),rc_aileron(percent),rc_throttle(percent),rc_rudder(percent),gimbal_heading(degrees),gimbal_pitch(degrees),gimbal_roll(degrees),battery_percent,voltageCell1,voltageCell2,voltageCell3,voltageCell4,voltageCell5,voltageCell6,current(A),battery_temperature(f),altitude(feet),ascent(feet),flycStateRaw,flycState,message
214500,2024-02-04 17:14:18,40.4290052811804,-86.9292737358355,0,Available with any HD 360 subscription,Available with any HD 360 subscription,622.85853305483,0,0,0,0,26,5,0,622.85853305483,0,0,0,0,0,0,5.5, -9.2, -1.4,0,0,1024,1024,1024,1024,0,0,0,0,2.5,0,0,88,4.045,4.044,0,0,0,0,0,71.06,622.85853305483,0,41,Motors_Started,"Gimbal stuck Gimbal stuck. Check whether gimbal cover is removed and make sure gimbal can rotate freely on all three axes (Code: 40028). Remote ID functionality normal (Code: 30331)"
214600,2024-02-04 17:14:18,40.4290052802359,-86.9292737459037,0,,,622.85853305483,0,0,0.00281737541824,0.00281737541824,26,5,0,622.85853305483,0,0,0.00281737541824,0,0,0,5.5, -9.3, -1.4,0,0,1024,1024,1024,1024,0,0,0,0,2.5,0,0,88,4.045,4.044,0,0,0,0,0,71.06,622.85853305483,0,41,Motors_Started,
214700,2024-02-04 17:14:18,40.4290052804117,-86.9292737796591,0,,,622.85853305483,0,0,0.0121742457964,0.0121923888416,26,5,0,622.85853305483,0,0,0.0121742457964,0,0,0,5.5, -9.2, -1.5,0,0,1024,1024,1024,1024,0,0,0,0,2.5,0,0,88,4.045,4.044,0,0,0,0,0,71.06,622.85853305483,0,41,Motors_Started,"Aircraft in Warning Zone (Class D Airspace). Fly with caution"
214800,2024-02-04 17:14:18,40.4290052843135,-86.9292737876995,0,,,622.85853305483,0,0,0.0144493442944,0.0148405844644,26,5,0,622.85853305483,0,0,0.0144493442944,0,0,0,5.6, -9.2, -1.5,0,0,1024,1024,1024,1024,0,0,0,0,2.5,0,0,88,4.045,4.044,0,0,0,0,0,71.06,622.85853305483,0,41,Motors_Started,
214900,2024-02-04 17:14:18,40.4290052820369,-86.9292737952869,0,,,622.85853305483,0,0,0.0165142393736,0.0171056107836,26,5,0,622.85853305483,0,0,0.0165142393736,0,0,0,5.5, -9.2, -1.4,0,0,1024,1024,1024,1024,0,0,0,0,2.5,0,0,88,4.045,4.044,0,0,0,0,0,71.06,622.85853305483,0,41,Motors_Started,
215000,2024-02-04 17:14:18,40.4290053308772,-86.9292738002866,0,,,622.85853305483,0,0,0.0254787737812,0.034979003744,26,5,0,622.85853305483,0,0,0.0254787737812,0,0,0,5.6, -9.2, -1.5,0,0,1024,1024,1024,1024,0,0,0,0,2.5,0,0,88,4.045,4.044,0,0,0,0,0,71.06,622.85853305483,0,41,Motors_Started,
215100,2024-02-04 17:14:19,40.4290054513332,-86.9292738160543,0,,,622.85853305483,0,0,0.065956695024,0.079145015656,26,5,0,622.85853305483,0,0,0.065956695024,0,0,0,5.6, -9.2, -1.5,0,0,1024,1024,1024,1024,0,0,0,0,2.5,0,0,88,4.045,4.044,0,0,0,0,0,71.06,622.85853305483,0,41,Motors_Started,
215200,2024-02-04 17:14:19,40.4290054159178,-86.9292737697147,0,,,622.85853305483,0,0,0.050051182704,0.09738189288,26,5,0,622.85853305483,0,0,0.065956695024,0,0,0,5.6, -9.2, -1.5,0,0,1024,1024,1024,1024,0,0,0,0,2.5,0,0,88,4.045,4.044,0,0,0,0,0,71.06,622.85853305483,0,41,Motors_Started,
215300,2024-02-04 17:14:19,40.4290053788675,-86.9292737228728,0,,,622.85853305483,0,0,0.035822507708,0.116143048336,26,5,0,622.85853305483,0,0,0.065956695024,0,0,0,5.7, -9.2, -1.4,0,0,1024,1024,1024,1024,0,0,0,0,2.5,0,0,88,4.045,4.044,0,0,0,0,0,71.06,622.85853305483,0,41,Motors_Started,"Setting new Return-To-Home altitude to 100m (328 ft). Data Recorder File Index is 3. Setting new Maximum Flight Altitude to 120m (394 ft)"
215400,2024-02-04 17:14:19,40.4290054075672,-86.9292737083894,0,,,622.85853305483,0,0,1.50611553376,0.127359912212,26,5,0,622.85853305483,0,0,1.50611553376,0,0,0,5.6, -9.2, -1.5,0,0,1024,1024,1024,1024,0,0,0,0,2.5,0,0,88,4.045,4.044,0,0,0,0,0,71.06,622.85853305483,0,41,Motors_Started,
215500,2024-02-04 17:14:19,40.4290054392437,-86.9292736958952,0,,,622.85853305483,0,0,1.49960306636,0.139426841732,26,5,0,622.85853305483,0,0,1.50611553376,0,0,0,5.5, -9.2, -1.5,0,0,1024,1024,1024,1024,0,0,0,0,2.5,0,0,88,4.009,4.009,0,0,0,0,0,71.06,622.85853305483,0,41,Motors_Started,
215600,2024-02-04 17:14:19,40.4290054310233,-86.9292736425688,0,,,622.85853305483,0,0,1.51158469404,0.154537734604,26,5,0,622.85853305483,0,0,1.51158469404,0,0,0,5.6, -9.2, -1.5,0,0,1024,1024,1024,1024,0,0,0,0,2.5,0,0,88,4.009,4.009,0,0,0,0,0,71.06,622.85853305483,0,11,AutoTakeoff,
215700,2024-02-04 17:14:19,40.4290054425299,-86.929273652822,0,,,622.85853305483,0,0,1.50654860464,0.159610569412,26,5,0,622.85853305483,0,0,1.51158469404,0,0,0,5.5, -9, -1.5,0,0,1024,1024,1024,1024,0,0,0,0,2.5,0,0,88,4.009,4.009,0,0,0,0,0,71.06,622.85853305483,0,11,AutoTakeoff,
215800,2024-02-04 17:14:19,40.4290054452038,-86.9292736723459,0,,,622.85853305483,0,0,1.5022474234,0.16511975594,26,5,0,622.85853305483,0,0,1.51158469404,0,0,0,4.9, -8.9, -1.6,0,0,1024,1024,1024,1024,0,0,0,0,2.5,0,0,88,4.009,4.009,0,0,0,0,0,71.06,622.85853305483,0,11,AutoTakeoff,
215900,2024-02-04 17:14:19,40.4290054669142,-86.9292737235312,0,,,622.85853305483,0,0,1.48694886648,0.181393378508,26,5,0,622.85853305483,0,0,1.51158469404,0,0,0,3.9, -7.7, -2,0,0,1024,1024,1024,1024,0,0,0,0,2.5,0,0,88,4.009,4.009,0,0,0,0,0,71.06,622.85853305483,0,11,AutoTakeoff,
216000,2024-02-04 17:14:19,40.4290054917121,-86.9292738646638,0,,,622.85853305483,0,0.223694,1.4546588392,0.221620413916,26,5,0,622.85853305483,0,0.223694,1.51158469404,0,-0.223694,0,3.3, -1.9, -2,0,0,1024,1024,1024,1024,0,0,0,0,2.4,0,0,88,4.009,4.009,0,0,0,0,0,71.06,622.85853305483,0,11,AutoTakeoff,
216100,2024-02-04 17:14:19,40.4290055589082,-86.9292740993776,0,,,622.85853305483,0,0.223694,1.39444230184,0.291264445016,26,5,0,622.85853305483,0,0.223694,1.51158469404,0,-0.447388,0,3.2, 2.8, -0.4,0,0,1024,1024,1024,1024,0,0,0,0,2.3,0,0,88,4.009,4.009,0,0,0,0,0,71.06,622.85853305483,0,11,AutoTakeoff,
216200,2024-02-04 17:14:20,40.429005585276,-86.9292744282907,0,,,622.85853305483,0,0.671082,1.33164702424,0.38311681016,26,5,0,622.85853305483,0,0.671082,1.51158469404,0,-0.671082,-0.223694,3.3, 1.4, 0.9,0,0,1024,1024,1024,1024,0,0,0,0,2.2,0,0,88,4.009,4.009,0,0,0,0,0,71.06,622.85853305483,0,11,AutoTakeoff,
216300,2024-02-04 17:14:20,40.4290055801366,-86.9292748420509,0,,,622.85853305483,0,0.671082,1.2696358674,0.49804463536,26,5,0,622.85853305483,0,0.671082,1.51158469404,0,-0.671082,-0.671082,3.5, 0.7, 2.6,0,0,1024,1024,1024,1024,0,0,0,0,2.1,0,0,88,4.009,4.009,0,0,0,0,0,71.06,622.85853305483,0,11,AutoTakeoff,
216400,2024-02-04 17:14:20,40.4290055237306,-86.9292752021183,0,,,622.85853305483,0,0.671082,1.23878284804,0.60014109532,26,5,0,622.85853305483,0,0.671082,1.51158469404,0,-0.671082,-1.11847,3.3, -0.3, 3.8,0,0,1024,1024,1024,1024,0,0,0,0,2,0,0,88,4.009,4.009,0,0,0,0,0,71.06,622.85853305483,0,11,AutoTakeoff,
216500,2024-02-04 17:14:20,40.4290054729101,-86.9292756075702,0.328084,,,623.18661705483,0.984252,0.671082,1.20911749276,0.71426183388,26,5,0,623.18661705483,0.328084,0.671082,1.51158469404,0,-0.671082,-1.565858,3.2, -1.9, 4.8,0,0,1024,1024,1024,1024,0,0,0,0,2,0,0,88,4.009,4.009,0,0,0,0,0,71.06,623.18661705483,0.328084,11,AutoTakeoff,
216600,2024-02-04 17:14:20,40.4290054717116,-86.9292759738295,0.656168,,,623.51470105483,1.312336,0.671082,1.175524972,0.81598427808,26,5,0,623.51470105483,0.656168,0.671082,1.51158469404,0,-0.671082,-2.013246,3.2, -1.9, 5.3,0,0,1024,1024,1024,1024,0,0,0,0,1.9,0,0,88,4.009,4.009,0,0,0,0,0,71.06,623.51470105483,0.656168,11,AutoTakeoff,
216700,2024-02-04 17:14:20,40.4290054717376,-86.929276321525,0.984252,,,623.84278505483,1.64042,0.447388,1.15065292396,0.9125492418,26,5,0,623.84278505483,0.984252,0.671082,1.51158469404,0,-0.447388,-2.23694,3.2, -0.9, 5.1,0,0,1077,1024,1024,1024,8,0,0,0,1.9,0,0,88,4.009,4.009,0,0,0,0,0,71.06,623.84278505483,0.984252,11,AutoTakeoff,
216800,2024-02-04 17:14:20,40.429005571584,-86.9292767507742,1.312336,,,624.17086905483,1.968504,0.447388,1.09446197728,1.0372047576,26,5,0,624.17086905483,1.312336,0.671082,1.51158469404,0,-0.447388,-2.460634,3.2, -1.4, 4.8,0,0,1123,1024,1024,1024,15,0,0,0,1.8,0,0,88,4.009,4.009,0,0,0,0,0,71.06,624.17086905483,1.312336,11,AutoTakeoff,
216900,2024-02-04 17:14:20,40.4290055488086,-86.9292770957188,1.64042,,,624.49895305483,2.296588,0.447388,1.09538389332,1.13336289716,26,5,0,624.49895305483,1.64042,0.671082,1.51158469404,0,-0.447388,-2.460634,3.3, -1.4, 5.2,0,0,1454,1024,1024,1024,65,0,0,0,1.8,0,0,88,4.009,4.009,0,0,0,0,0,71.06,624.49895305483,1.64042,11,AutoTakeoff,
217000,2024-02-04 17:14:20,40.4290055094622,-86.9292773624021,1.968504,,,624.82703705483,2.624672,0.447388,1.10979006176,1.2088090938,26,5,0,624.82703705483,1.968504,0.671082,1.51158469404,0,-0.447388,-2.460634,3.2, -2.5, 4.4,0,0,1528,1024,1024,1024,76,0,0,0,1.7,0,0,88,4.009,4.009,0,0,0,0,0,71.06,624.82703705483,1.968504,11,AutoTakeoff,
217100,2024-02-04 17:14:21,40.4290054668034,-86.9292776463147,2.296588,,,625.15512105483,3.28084,0.447388,1.13075134852,1.28917983128,26,5,8.044,625.15512105483,2.296588,0.671082,1.51158469404,0,-0.447388,-2.23694,3.1, -7.8, 4.6,0,0,1673,1024,1024,1024,98,0,0,0,1.7,0,0,88,3.962,3.963,0,0,0,0,1.303,71.06,625.15512105483,2.296588,6,P-GPS,
217200,2024-02-04 17:14:21,40.4290054928195,-86.9292780286773,2.296588,,,625.15512105483,3.28084,0.671082,1.13728350096,1.39579400792,26,5,8.044,625.15512105483,2.296588,0.671082,1.51158469404,0,-0.671082,-1.789552,2.9, -13.8, 5.5,0,0,1684,1024,1024,1024,100,0,0,0,1.7,0,0,88,3.962,3.963,0,0,0,0,1.303,71.06,625.15512105483,2.296588,6,P-GPS,
217300,2024-02-04 17:14:21,40.4290056823378,-86.9292785355463,2.624672,,,625.48320505483,3.608924,0.7158208,1.10750331628,1.55263128328,26,5,8.044,625.48320505483,2.624672,0.7158208,1.51158469404,0.223694,-0.671082,-1.11847,2.7, -20.6, 7.2,0,0,1684,1024,1024,1024,100,0,0,0,1.7,0,0,88,3.962,3.963,0,0,0,0,1.303,71.06,625.48320505483,2.624672,6,P-GPS,
217400,2024-02-04 17:14:21,40.4290059473247,-86.9292788444952,2.624672,,,625.48320505483,3.937008,0.7158208,1.05043966616,1.68189637928,26,5,8.044,625.48320505483,2.624672,0.7158208,1.51158469404,0.894776,-0.447388,-0.447388,2.8, -24, 5.8,0,0,1684,1024,1024,1024,100,0,0,0,1.7,0,0,88,3.962,3.963,0,0,0,0,1.303,71.06,625.48320505483,2.624672,6,P-GPS,"Gimbal stuck. Check whether gimbal cover is removed and make sure gimbal can rotate freely on all three axes (Code: 40028)"
217500,2024-02-04 17:14:21,40.4290064620856,-86.9292791474986,2.624672,,,625.48320505483,3.937008,1.6329662,0.92995737884,1.8876969108,26,5,8.044,625.48320505483,2.624672,1.6329662,1.51158469404,1.565858,-0.447388,0,3.1, -24.5, 5.2,0,0,1684,1024,1024,1024,100,0,0,0,1.7,0,0,88,3.962,3.963,0,0,0,0,1.303,71.06,625.48320505483,2.624672,6,P-GPS,
217600,2024-02-04 17:14:21,40.4290072534247,-86.9292794542606,2.624672,,,625.48320505483,3.937008,2.2816788,0.77885173096,2.18872382332,26,5,8.044,625.48320505483,2.624672,2.2816788,1.51158469404,2.23694,-0.447388,0,3.4, -24.2, 5.1,0,0,1684,1024,1024,1024,100,0,0,0,1.7,0,0,88,3.962,3.963,0,0,0,0,1.303,71.06,625.48320505483,2.624672,6,P-GPS,
217700,2024-02-04 17:14:21,40.4290083486868,-86.9292796780467,2.624672,,,625.48320505483,3.937008,3.1540854,0.68496065184,2.59313656592,26,5,8.044,625.48320505483,2.624672,3.1540854,1.51158469404,3.131716,-0.447388,0,3.6, -23.7, 5.9,0,0,1684,1024,1024,1024,100,0,0,0,1.7,0,0,88,3.962,3.963,0,0,0,0,1.303,71.06,625.48320505483,2.624672,6,P-GPS,
217800,2024-02-04 17:14:21,40.4290097864922,-86.9292800241001,2.624672,,,625.48320505483,3.937008,3.8251674,0.89869097364,3.12645023128,26,5,8.044,625.48320505483,2.624672,3.8251674,1.51158469404,3.802798,-0.447388,0,3.4, -23.8, 6.3,0,0,1684,1024,1024,1024,100,0,0,0,1.7,0,0,88,3.962,3.963,0,0,0,0,1.303,71.06,625.48320505483,2.624672,6,P-GPS,
217900,2024-02-04 17:14:21,40.4290115836853,-86.9292803484199,2.624672,,,625.48320505483,3.937008,4.47388,1.4062664492,3.7883203312,26,5,8.044,625.48320505483,2.624672,4.47388,1.51158469404,4.47388,-0.223694,0,3.2, -23.7, 6.5,0,0,1684,1024,1024,1024,100,0,0,0,1.7,0,0,88,3.962,3.963,0,0,0,0,1.303,71.06,625.48320505483,2.624672,6,P-GPS,
218000,2024-02-04 17:14:21,40.4290135984483,-86.9292805207264,2.296588,,,625.15512105483,3.937008,5.368656,2.05687998708,4.5249673364,26,5,8.044,625.48320505483,2.624672,5.368656,2.05687998708,5.368656,-0.223694,0,3.3, -24.1, 6.5,0,0,1684,1024,1024,1024,100,0,0,0,1.7,0,0,88,3.962,3.963,0,0,0,0,1.303,71.06,625.15512105483,2.296588,6,P-GPS,
218100,2024-02-04 17:14:21,40.4290161810954,-86.9292806734446,2.296588,,,625.15512105483,3.937008,6.039738,2.9444226664,5.468176028,26,5,8.044,625.48320505483,2.624672,6.039738,2.9444226664,6.039738,-0.223694,0,3.4, -23.5, 6.7,0,0,1684,1024,1070,1024,100,0,7,0,1.7,0,0,88,3.962,3.963,0,0,0,0,1.303,71.06,625.15512105483,2.296588,6,P-GPS,
218200,2024-02-04 17:14:22,40.4290187704874,-86.9292807365346,2.296588,,,625.15512105483,3.937008,6.71082,3.854494874,6.4130907564,26,5,8.044,625.48320505483,2.624672,6.71082,3.854494874,6.71082,0,0,3.4, -23.6, 6.7,0,0,1684,1024,1287,1024,100,0,40,0,1.7,0,0,88,3.962,3.963,0,0,0,0,1.303,71.06,625.15512105483,2.296588,6,P-GPS,
218300,2024-02-04 17:14:22,40.4290217543537,-86.9292807495709,2.296588,,,625.15512105483,3.937008,7.381902,4.916174698,7.5017390852,26,5,8.044,625.48320505483,2.624672,7.381902,4.916174698,7.381902,0,0,3.4, -23.6, 6.1,0,0,1684,1024,1287,1024,100,0,40,0,1.7,0,0,88,3.962,3.963,0,0,0,0,1.303,71.06,625.15512105483,2.296588,6,P-GPS,
218400,2024-02-04 17:14:22,40.4290247739514,-86.929280705892,2.296588,,,625.15512105483,3.937008,8.052984,5.997867646,8.603510774,26,5,8.044,625.48320505483,2.624672,8.052984,5.997867646,8.052984,0,0,3.3, -24.1, 6.2,0,0,1684,1024,1270,1024,100,0,37,0,1.7,0,0,88,3.962,3.963,0,0,0,0,1.303,71.06,625.15512105483,2.296588,6,P-GPS,
218500,2024-02-04 17:14:22,40.4290283247703,-86.9292804762791,2.296588,,,625.15512105483,3.937008,8.94776,7.2712600752,9.900590868,26,5,7.935,625.48320505483,2.624672,8.94776,7.2712600752,8.94776,0,-0.447388,3.5, -23.9, 6.4,0,0,1684,1024,1269,1024,100,0,37,0,1.7,0,0,88,3.954,3.953,0,0,0,0,3.823,70.88,625.15512105483,2.296588,6,P-GPS,
218600,2024-02-04 17:14:22,40.4290319772757,-86.9292802858442,2.296588,,,625.15512105483,4.265092,9.618842,8.5897640544,11.234252328,26,5,7.935,625.48320505483,2.624672,9.618842,8.5897640544,9.618842,0.223694,-0.447388,3.6, -23.7, 6.3,0,0,1671,1024,1252,1024,98,0,35,0,1.7,0,0,88,3.954,3.953,0,0,0,0,3.823,70.88,625.15512105483,2.296588,6,P-GPS,
218700,2024-02-04 17:14:22,40.4290360671389,-86.9292800334069,2.296588,,,625.15512105483,4.265092,10.06623,10.070046254,12.7280843968,26,5,7.935,625.48320505483,2.624672,10.06623,10.070046254,10.06623,0.223694,-0.671082,3.5, -22.5, 5.6,0,0,1669,1024,1223,1024,98,0,30,0,1.7,0,0,88,3.954,3.953,0,0,0,0,3.823,70.88,625.15512105483,2.296588,6,P-GPS,
218800,2024-02-04 17:14:22,40.4290401154897,-86.9292797629969,2.296588,,,625.15512105483,4.593176,10.513618,11.538386196,14.2070542604,26,5,7.935,625.48320505483,2.624672,10.513618,11.538386196,10.513618,0.447388,-0.671082,3.7, -21.4, 5.7,0,0,1666,1024,1231,1024,97,0,31,0,1.7,0,0,88,3.954,3.953,0,0,0,0,3.823,70.88,625.15512105483,2.296588,6,P-GPS,
218900,2024-02-04 17:14:22,40.4290445197598,-86.9292794634477,2.296588,,,625.15512105483,4.593176,10.961006,13.138451864,15.8160766216,26,5,7.935,625.48320505483,2.624672,10.961006,13.138451864,10.961006,0.447388,-0.671082,3.7, -21.4, 5.5,0,0,1623,1024,1230,1024,91,0,31,0,1.7,0,0,88,3.954,3.953,0,0,0,0,3.823,70.88,625.15512105483,2.296588,6,P-GPS,
219000,2024-02-04 17:14:22,40.4290490752407,-86.9292789921905,2.296588,,,625.15512105483,4.593176,11.408394,14.7939309196,17.4833010844,26,5,7.935,625.48320505483,2.624672,11.408394,14.7939309196,11.408394,0.447388,-0.671082,3.7, -21.9, 5.7,0,0,1024,1024,1234,1024,0,0,32,0,1.7,0,0,88,3.954,3.953,0,0,0,0,3.823,70.88,625.15512105483,2.296588,6,P-GPS,
219100,2024-02-04 17:14:22,40.4290538610878,-86.9292786214693,2.624672,,,625.48320505483,4.92126,11.408394,16.5364506604,19.232448122,26,5,7.935,625.48320505483,2.624672,11.408394,16.5364506604,11.632088,0.447388,-0.671082,3.6, -20, 5,0,0,1024,1024,1227,1024,0,0,31,0,1.7,0,0,88,3.954,3.953,0,0,0,0,3.823,70.88,625.48320505483,2.624672,6,P-GPS,
219200,2024-02-04 17:14:23,40.4290584500625,-86.9292782649526,2.624672,,,625.48320505483,4.92126,11.855782,18.208497958,20.9096463384,26,5,7.935,625.48320505483,2.624672,11.855782,18.208497958,11.855782,0.447388,-0.671082,4.3, -5.7, 5.3,0,0,1024,1024,1227,1024,0,0,31,0,1.7,0,0,88,3.954,3.953,0,0,0,0,3.823,70.88,625.48320505483,2.624672,6,P-GPS,
219300,2024-02-04 17:14:23,40.429063198488,-86.9292778687917,2.624672,,,625.48320505483,5.249344,11.1847,19.939469142,22.6456043992,26,5,7.935,625.48320505483,2.624672,11.855782,19.939469142,11.1847,0.447388,-1.342164,4.7, 12.3, 3.9,0,0,1024,1024,1227,1024,0,0,31,0,1.7,0,0,88,3.954,3.953,0,0,0,0,3.823,70.88,625.48320505483,2.624672,6,P-GPS,
219400,2024-02-04 17:14:23,40.4290674005053,-86.9292774746401,2.624672,,,625.48320505483,5.249344,10.289924,21.4718838892,24.1826123224,26,5,7.935,625.48320505483,2.624672,11.855782,21.4718838892,10.289924,0.447388,-1.342164,5, 22.7, 2.4,0,0,1024,1024,1230,1024,0,0,31,0,1.7,0,0,88,3.954,3.953,0,0,0,0,3.823,70.88,625.48320505483,2.624672,6,P-GPS,
219500,2024-02-04 17:14:23,40.429071399599,-86.9292771528804,2.952756,,,625.81128905483,5.577428,9.171454,22.9308406288,25.6444233928,26,5,7.935,625.81128905483,2.952756,11.855782,22.9308406288,9.171454,0.223694,-0.894776,5, 23.4, 1.5,0,0,1024,1024,1073,1024,0,0,7,0,1.7,0,0,88,3.954,3.953,0,0,0,0,3.823,70.88,625.81128905483,2.952756,6,P-GPS,"Home Point updated. RTH altitude adjusted to 100 m (Code: 120852)"
219600,2024-02-04 17:14:23,40.4290747328089,-86.9292769160811,2.952756,,,625.81128905483,5.577428,8.052984,24.1471136336,26.8623040092,26,5,7.935,625.81128905483,2.952756,11.855782,24.1471136336,8.052984,0.223694,-0.671082,5.1, 25.7, 2.5,0,0,1024,1024,1024,1024,0,0,0,0,1.7,0,0,88,3.954,3.953,0,0,0,0,3.823,70.88,625.81128905483,2.952756,6,P-GPS,
219700,2024-02-04 17:14:23,40.4290778084446,-86.9292767369481,2.952756,,,625.81128905483,5.905512,6.934514,25.2694561892,27.9855652,26,5,7.935,625.81128905483,2.952756,11.855782,25.2694561892,6.934514,0,-0.447388,5.1, 24.5, 2.3,0,0,1024,1024,1024,1024,0,0,0,0,1.7,0,0,88,3.954,3.953,0,0,0,0,3.823,70.88,625.81128905483,2.952756,6,P-GPS,
219800,2024-02-04 17:14:23,40.4290802725409,-86.929276401304,2.952756,,,625.81128905483,5.905512,5.816044,26.169128134,28.8894038116,26,5,7.935,625.81128905483,2.952756,11.855782,26.169128134,5.816044,0,0,5.1, 24, 1.9,0,0,1024,1024,1024,1024,0,0,0,0,1.7,0,0,88,3.954,3.953,0,0,0,0,3.823,70.88,625.81128905483,2.952756,6,P-GPS,
219900,2024-02-04 17:14:23,40.4290825010795,-86.9292762939812,3.28084,,,626.13937305483,5.905512,4.697574,26.98244837,29.7030193232,26,5,7.935,626.13937305483,3.28084,11.855782,26.98244837,4.697574,0,0,5.4, 24.2, 3.4,0,0,1024,1024,1024,860,0,0,0,-25,1.7,0,0,88,3.954,3.953,0,0,0,0,3.823,70.88,626.13937305483,3.28084,6,P-GPS,
220000,2024-02-04 17:14:23,40.4290841467264,-86.9292761709786,3.28084,,,626.13937305483,5.905512,3.802798,27.583170174,30.3043972952,26,5,7.885,626.13937305483,3.28084,11.855782,27.583170174,3.802798,0,0,5.8, 24.8, 4.7,0,0,1024,1024,1024,510,0,0,0,-78,1.7,0,0,88,3.987,3.979,0,0,0,0,5.106,70.88,626.13937305483,3.28084,6,P-GPS,
220100,2024-02-04 17:14:24,40.4290854466807,-86.9292760947434,3.28084,,,626.13937305483,5.905512,2.684328,28.0576780632,30.7791676516,26,5,7.885,626.13937305483,3.28084,11.855782,28.0576780632,2.684328,-0.223694,0,6.4, 24.5, 6.9,0,0,1024,1024,1024,510,0,0,0,-78,1.5,0,0,88,3.987,3.979,0,0,0,0,5.106,70.88,626.13937305483,3.28084,6,P-GPS,
220200,2024-02-04 17:14:24,40.4290859456359,-86.9292760725822,3.608924,,,626.46745705483,5.905512,1.8119214,28.2397646832,30.9613198884,26,5,7.885,626.46745705483,3.608924,11.855782,28.2397646832,1.789552,-0.223694,0,5, 16.3, 6.2,0,0,1024,1024,1024,1024,0,0,0,0,359.6,0,0,88,3.987,3.979,0,0,0,0,5.106,70.88,626.46745705483,3.608924,6,P-GPS,
220300,2024-02-04 17:14:24,40.4290863687643,-86.9292761510408,3.608924,,,626.46745705483,5.905512,1.1408394,28.3938985464,31.1172254052,26,5,7.885,626.46745705483,3.608924,11.855782,28.3938985464,1.11847,-0.223694,0,2.5, 9.2, 4.9,0,0,1024,1024,1024,1024,0,0,0,0,357.7,0,0,88,3.987,3.979,0,0,0,0,5.106,70.88,626.46745705483,3.608924,6,P-GPS,
220400,2024-02-04 17:14:24,40.429086605286,-86.9292762910143,3.608924,,,626.46745705483,5.905512,0.7158208,28.4797909376,31.2118776392,26,5,7.885,626.46745705483,3.608924,11.855782,28.4797909376,0.671082,-0.223694,0,0.7, 5.7, 3.8,0,0,1024,1024,1024,1024,0,0,0,0,357.3,0,0,88,3.987,3.979,0,0,0,0,5.106,70.88,626.46745705483,3.608924,6,P-GPS,
220500,2024-02-04 17:14:24,40.4290867118514,-86.929276456922,3.937008,,,626.79554105483,5.905512,0.3131716,28.5183079992,31.27214667,26,5,7.885,626.79554105483,3.937008,11.855782,28.5183079992,0.223694,-0.223694,0,0.2, 3.5, 4,0,0,1184,1024,1024,1024,24,0,0,0,357.3,0,0,88,3.987,3.979,0,0,0,0,5.106,70.88,626.79554105483,3.937008,6,P-GPS,
220600,2024-02-04 17:14:24,40.4290866939646,-86.9292766206582,3.937008,,,626.79554105483,5.905512,0.3131716,28.511483852,31.3181112384,26,5,7.885,626.79554105483,3.937008,11.855782,28.5183079992,0,-0.223694,0,0, 1.8, 5.1,0,0,1451,1024,1024,1024,65,0,0,0,357.3,0,0,88,3.987,3.979,0,0,0,0,5.106,70.88,626.79554105483,3.937008,6,P-GPS,
220700,2024-02-04 17:14:24,40.4290865150442,-86.9292769841226,3.937008,,,626.79554105483,5.905512,0.223694,28.4457686268,31.438321216,26,5,7.885,626.79554105483,3.937008,11.855782,28.5183079992,0,-0.223694,0,359.9, -2.7, 5.5,0,0,1461,1024,1024,1024,66,0,0,0,357.3,0,0,88,3.987,3.979,0,0,0,0,5.106,70.88,626.79554105483,3.937008,6,P-GPS,
220800,2024-02-04 17:14:24,40.429086405033,-86.9292772216714,3.937008,,,626.79554105483,5.905512,0.223694,28.4055455284,31.5155521896,26,5,7.885,626.79554105483,3.937008,11.855782,28.5183079992,0,-0.223694,0,359.5, -9.7, 5.8,0,0,1459,1024,1024,1024,66,0,0,0,357.3,0,0,88,3.987,3.979,0,0,0,0,5.106,70.88,626.79554105483,3.937008,6,P-GPS,
220900,2024-02-04 17:14:24,40.4290863640874,-86.9292774486032,3.937008,,,626.79554105483,5.905512,0.223694,28.3906833232,31.5803159712,26,5,7.885,626.79554105483,3.937008,11.855782,28.5183079992,0,-0.223694,0,359.4, -13.8, 5.3,0,0,1424,1024,1024,1024,61,0,0,0,357.3,0,0,88,3.987,3.979,0,0,0,0,5.106,70.88,626.79554105483,3.937008,6,P-GPS,
221000,2024-02-04 17:14:24,40.4290864841623,-86.929277575836,3.937008,,,626.79554105483,5.905512,0.447388,28.4345809624,31.6365823772,26,5,7.885,626.79554105483,3.937008,11.855782,28.5183079992,0.447388,0,0,359.5, -14.2, 5.4,0,0,1424,1024,1024,1024,61,0,0,0,357.3,0,0,88,3.987,3.979,0,0,0,0,5.106,70.88,626.79554105483,3.937008,6,P-GPS,
221100,2024-02-04 17:14:24,40.4290868408502,-86.9292778370459,3.937008,,,626.79554105483,5.905512,0.894776,28.5650599692,31.78559813,26,5,7.885,626.79554105483,3.937008,11.855782,28.5650599692,0.894776,0,0,359.6, -13.8, 4.9,0,0,1420,1024,1024,1024,60,0,0,0,357.3,0,0,88,3.987,3.979,0,0,0,0,5.106,70.88,626.79554105483,3.937008,6,P-GPS,
221200,2024-02-04 17:14:25,40.4290872603048,-86.9292778927018,4.265092,,,627.12362505483,5.905512,1.11847,28.7182095804,31.9394039092,26,5,7.885,627.12362505483,4.265092,11.855782,28.7182095804,1.11847,0,0,359.6, -12.7, 4.8,0,0,1435,1024,1024,1024,62,0,0,0,357.3,0,0,88,3.987,3.979,0,0,0,0,5.106,70.88,627.12362505483,4.265092,6,P-GPS,
221300,2024-02-04 17:14:25,40.4290878287881,-86.9292779289064,4.265092,,,627.12362505483,5.905512,1.565858,28.925689902,32.1470482728,26,5,7.885,627.12362505483,4.265092,11.855782,28.925689902,1.565858,0,0,359.9, -12.4, 4.6,0,0,1391,1024,1024,1024,56,0,0,0,357.3,0,0,88,3.987,3.979,0,0,0,0,5.106,70.88,627.12362505483,4.265092,6,P-GPS,
221400,2024-02-04 17:14:25,40.4290885252931,-86.9292779459491,4.265092,,,627.12362505483,5.905512,1.789552,29.1798237684,32.4012149476,26,5,7.933,627.12362505483,4.265092,11.855782,29.1798237684,1.789552,0,0,359.8, -12.7, 4,0,0,1446,1024,1024,1024,64,0,0,0,357.3,0,0,88,3.962,3.961,0,0,0,0,3.553,70.88,627.12362505483,4.265092,6,P-GPS,
221500,2024-02-04 17:14:25,40.4290894731257,-86.9292778845507,4.265092,,,627.12362505483,5.905512,2.013246,29.5255258792,32.7474419928,26,5,7.933,627.12362505483,4.265092,11.855782,29.5255258792,2.013246,0,0,359.8, -12, 3.5,0,0,1513,1024,1024,1024,74,0,0,0,357.3,0,0,88,3.962,3.961,0,0,0,0,3.553,70.88,627.12362505483,4.265092,6,P-GPS,
221600,2024-02-04 17:14:25,40.4290904209843,-86.9292778282975,4.265092,,,627.12362505483,5.905512,2.460634,29.8712607984,33.093504996,26,5,7.933,627.12362505483,4.265092,11.855782,29.8712607984,2.460634,0,0,359.8, -13.3, 3.3,0,0,1538,1024,1024,1024,78,0,0,0,357.3,0,0,88,3.962,3.961,0,0,0,0,3.553,70.88,627.12362505483,4.265092,6,P-GPS,
221700,2024-02-04 17:14:25,40.4290915458613,-86.9292777884673,4.265092,,,627.12362505483,5.905512,2.684328,30.2815954572,33.504266164,26,5,7.933,627.12362505483,4.265092,11.855782,30.2815954572,2.684328,0,0,359.6, -15.3, 3.4,0,0,1505,1024,1024,1024,73,0,0,0,357.3,0,0,88,3.962,3.961,0,0,0,0,3.553,70.88,627.12362505483,4.265092,6,P-GPS,
221800,2024-02-04 17:14:25,40.4290927146933,-86.9292777969354,4.265092,,,627.12362505483,5.905512,3.131716,30.7080390404,33.930775364,26,5,7.933,627.12362505483,4.265092,11.855782,30.7080390404,3.131716,0,0,359.6, -17.5, 3.3,0,0,1505,1024,1024,1024,73,0,0,0,357.3,0,0,88,3.962,3.961,0,0,0,0,3.553,70.88,627.12362505483,4.265092,6,P-GPS,
221900,2024-02-04 17:14:25,40.4290941706134,-86.9292777188523,4.265092,,,627.12362505483,5.905512,3.579104,31.2391414196,34.462271444,26,5,7.933,627.12362505483,4.265092,11.855782,31.2391414196,3.579104,0,0,359.6, -16.6, 3.8,0,0,1024,1024,1024,1024,0,0,0,0,357.3,0,0,88,3.962,3.961,0,0,0,0,3.553,70.88,627.12362505483,4.265092,6,P-GPS,
222000,2024-02-04 17:14:25,40.4290957107176,-86.9292777565688,4.265092,,,627.12362505483,5.905512,4.026492,31.8010836948,35.024279336,26,5,7.933,627.12362505483,4.265092,11.855782,31.8010836948,4.026492,0,0,359.9, -6.7, 4.2,0,0,1024,1024,1024,1024,0,0,0,0,357.3,0,0,88,3.962,3.961,0,0,0,0,3.553,70.88,627.12362505483,4.265092,6,P-GPS,
222100,2024-02-04 17:14:25,40.4290973682,-86.929277774969,4.265092,,,627.12362505483,5.905512,4.026492,32.4058081236,35.628938148,26,5,7.933,627.12362505483,4.265092,11.855782,32.4058081236,3.802798,0,0,0.2, 10.8, 3.3,0,0,1024,1024,1024,1024,0,0,0,0,357.3,0,0,88,3.962,3.961,0,0,0,0,3.553,70.88,627.12362505483,4.265092,6,P-GPS,
222200,2024-02-04 17:14:26,40.4290987809859,-86.9292777675226,4.265092,,,627.12362505483,5.905512,3.131716,32.921260896,36.144358112,26,5,7.933,627.12362505483,4.265092,11.855782,32.921260896,3.131716,0,0,0.5, 17.2, 3.2,0,0,1024,1024,1024,1024,0,0,0,0,357.3,0,0,88,3.962,3.961,0,0,0,0,3.553,70.88,627.12362505483,4.265092,6,P-GPS,
222300,2024-02-04 17:14:26,40.4290999910761,-86.9292777898284,4.265092,,,627.12362505483,5.905512,2.460634,33.36286196,36.585959176,26,5,7.933,627.12362505483,4.265092,11.855782,33.36286196,2.460634,0,0,0.6, 16.6, 4.3,0,0,1024,1024,1024,1024,0,0,0,0,357.3,0,0,88,3.962,3.961,0,0,0,0,3.553,70.88,627.12362505483,4.265092,6,P-GPS,
222400,2024-02-04 17:14:26,40.4291008334246,-86.929277857131,4.265092,,,627.12362505483,5.905512,1.789552,33.670276668,36.894030052,26,5,7.933,627.12362505483,4.265092,11.855782,33.670276668,1.789552,0,0,0.4, 13.6, 4.1,0,0,1024,1024,1024,1024,0,0,0,0,357.3,0,0,88,3.962,3.961,0,0,0,0,3.553,70.88,627.12362505483,4.265092,6,P-GPS,
222500,2024-02-04 17:14:26,40.4291014598805,-86.9292779530097,4.593176,,,627.45170905483,5.905512,1.11847,33.898951216,37.124016936,26,5,7.933,627.45170905483,4.593176,11.855782,33.898951216,1.11847,0,0,0.3, 10.4, 3.9,0,0,1024,1024,1024,1024,0,0,0,0,357.3,0,0,88,3.962,3.961,0,0,0,0,3.553,70.88,627.45170905483,4.593176,6,P-GPS,
222600,2024-02-04 17:14:26,40.4291018514105,-86.9292779803284,4.593176,,,627.45170905483,5.905512,0.671082,34.041667756,37.26706156,26,5,7.933,627.45170905483,4.593176,11.855782,34.041667756,0.671082,0,0,0.4, 9, 4,0,0,1024,1024,1024,1024,0,0,0,0,357.3,0,0,88,3.962,3.961,0,0,0,0,3.553,70.88,627.45170905483,4.593176,6,P-GPS,
222700,2024-02-04 17:14:26,40.4291020887204,-86.9292780165249,4.593176,,,627.45170905483,5.905512,0.447388,34.128610016,37.354331904,26,5,7.933,627.45170905483,4.593176,11.855782,34.128610016,0.447388,0,0,0.3, 5.5, 4.4,0,0,1024,1024,1024,1024,0,0,0,0,357.3,0,0,88,3.962,3.961,0,0,0,0,3.553,70.88,627.45170905483,4.593176,6,P-GPS,
222800,2024-02-04 17:14:26,40.429102138629,-86.9292779155777,4.593176,,,627.45170905483,5.905512,0.223694,34.146326552,37.387796472,26,5,7.917,627.45170905483,4.593176,11.855782,34.146326552,0.223694,0,0,0.2, 2.7, 4.9,0,0,1024,1024,1024,1024,0,0,0,0,357.3,0,0,88,3.974,3.967,0,0,0,0,3.806,70.88,627.45170905483,4.593176,6,P-GPS,
222900,2024-02-04 17:14:26,40.4291021472923,-86.9292779327684,4.92126,,,627.77979305483,5.905512,0,34.149607392,37.3933739,26,5,7.917,627.77979305483,4.92126,11.855782,34.149607392,0,0,0,0, 0.4, 4.3,0,0,1024,1024,1024,1024,0,0,0,0,357.3,0,0,88,3.974,3.967,0,0,0,0,3.806,70.88,627.77979305483,4.92126,6,P-GPS,
223000,2024-02-04 17:14:26,40.4291020888637,-86.9292779591548,4.92126,,,627.77979305483,5.905512,0,34.128281932,37.416011696,26,5,7.917,627.77979305483,4.92126,11.855782,34.149607392,0,0,0,0, -0.6, 4.1,0,0,1024,1024,1024,1024,0,0,0,0,357.3,0,0,88,3.974,3.967,0,0,0,0,3.806,70.88,627.77979305483,4.92126,6,P-GPS,
223100,2024-02-04 17:14:27,40.4291019870795,-86.929277985703,4.92126,,,627.77979305483,5.905512,0,34.09120844,37.453741356,26,5,7.917,627.77979305483,4.92126,11.855782,34.149607392,0,0,0,0, -1, 4,0,0,1024,1024,1024,1024,0,0,0,0,357.3,0,0,88,3.974,3.967,0,0,0,0,3.806,70.88,627.77979305483,4.92126,6,P-GPS,
223200,2024-02-04 17:14:27,40.4291019118714,-86.929278110324,4.92126,,,627.77979305483,5.905512,0,34.063977468,37.498032696,26,5,7.917,627.77979305483,4.92126,11.855782,34.149607392,0,0,0,0, -2, 4.3,0,0,1024,1024,1024,1024,0,0,0,0,357.3,0,0,88,3.974,3.967,0,0,0,0,3.806,70.88,627.77979305483,4.92126,6,P-GPS,
223300,2024-02-04 17:14:27,40.4291017742614,-86.9292781663469,4.92126,,,627.77979305483,5.905512,0.223694,34.0141087,37.550526136,26,5,7.917,627.77979305483,4.92126,11.855782,34.149607392,-0.223694,0,0,359.9, -4.7, 4.4,0,0,1024,1024,1024,1024,0,0,0,0,357.3,0,0,88,3.974,3.967,0,0,0,0,3.806,70.88,627.77979305483,4.92126,6,P-GPS,
223400,2024-02-04 17:14:27,40.4291016520369,-86.929278239292,4.593176,,,627.45170905483,5.905512,0.223694,33.969489276,37.599410652,26,5,7.917,627.77979305483,4.92126,11.855782,34.149607392,-0.223694,0,0,359.8, -5.2, 4.7,0,0,1024,1024,1024,1024,0,0,0,0,357.3,0,0,88,3.974,3.967,0,0,0,0,3.806,70.88,627.45170905483,4.593176,6,P-GPS,
223500,2024-02-04 17:14:27,40.4291015427097,-86.9292783106448,4.593176,,,627.45170905483,5.905512,0.223694,33.929791112,37.644030076,26,5,7.917,627.77979305483,4.92126,11.855782,34.149607392,-0.223694,0,0,359.9, -5.1, 5.1,0,0,1024,1024,1024,1024,0,0,0,0,357.3,0,0,88,3.974,3.967,0,0,0,0,3.806,70.88,627.45170905483,4.593176,6,P-GPS,
223600,2024-02-04 17:14:27,40.4291014053341,-86.9292784165477,4.593176,,,627.45170905483,5.905512,0,33.879922344,37.702100944,26,5,7.917,627.77979305483,4.92126,11.855782,34.149607392,0,0,0,359.9, -4.7, 4.8,0,0,1024,1024,1024,1024,0,0,0,0,357.3,0,0,88,3.974,3.967,0,0,0,0,3.806,70.88,627.45170905483,4.593176,6,P-GPS,
223700,2024-02-04 17:14:27,40.4291012886333,-86.929278429689,4.593176,,,627.45170905483,5.905512,0,33.837599508,37.745079948,26,5,7.917,627.77979305483,4.92126,11.855782,34.149607392,0,0,0,359.9, -4.8, 4.1,0,0,1024,1024,1024,1024,0,0,0,0,357.3,0,0,88,3.974,3.967,0,0,0,0,3.806,70.88,627.45170905483,4.593176,6,P-GPS,
223800,2024-02-04 17:14:27,40.4291012478571,-86.9292784322979,4.593176,,,627.45170905483,5.905512,0,33.822507644,37.759843728,26,5,7.917,627.77979305483,4.92126,11.855782,34.149607392,0,0,0,359.9, -5, 3.8,0,0,1024,1024,1024,1024,0,0,0,0,357.3,0,0,88,3.974,3.967,0,0,0,0,3.806,70.88,627.45170905483,4.593176,6,P-GPS,
223900,2024-02-04 17:14:27,40.4291012283548,-86.9292784390107,4.593176,,,627.45170905483,5.905512,0,33.81561788,37.767061576,26,5,7.917,627.77979305483,4.92126,11.855782,34.149607392,0,0,0,359.9, -4.8, 4.3,0,0,1024,1024,1024,1024,0,0,0,0,357.3,0,0,88,3.974,3.967,0,0,0,0,3.806,70.88,627.45170905483,4.593176,6,P-GPS,
224000,2024-02-04 17:14:27,40.4291012086311,-86.9292784505856,4.593176,,,627.45170905483,5.905512,0,33.808400032,37.774935592,26,5,7.917,627.77979305483,4.92126,11.855782,34.149607392,0,0,0,0, -4.2, 4.7,0,0,1024,1024,1024,1024,0,0,0,0,357.3,0,0,88,3.974,3.967,0,0,0,0,3.806,70.88,627.45170905483,4.593176,6,P-GPS,
224100,2024-02-04 17:14:27,40.4291012354027,-86.9292784654238,4.593176,,,627.45170905483,5.905512,0,33.818242552,37.785762364,26,5,7.917,627.77979305483,4.92126,11.855782,34.149607392,0,0,0,0, -4.2, 3.9,0,0,1024,1024,1024,1024,0,0,0,0,357.3,0,0,88,3.962,3.96,0,0,0,0,3.806,70.88,627.45170905483,4.593176,6,P-GPS,
224200,2024-02-04 17:14:28,40.4291012253846,-86.9292784319884,4.593176,,,627.45170905483,5.905512,0,33.814305544,37.795604884,26,5,7.917,627.77979305483,4.92126,11.855782,34.149607392,0,0,0,359.9, -4.7, 3.4,0,0,1024,1024,1024,1024,0,0,0,0,357.3,0,0,88,3.962,3.96,0,0,0,0,3.806,70.88,627.45170905483,4.593176,6,P-GPS,
224300,2024-02-04 17:14:28,40.4291012276383,-86.9292784034831,4.593176,,,627.45170905483,5.905512,0,33.815289796,37.8034789,26,5,7.917,627.77979305483,4.92126,11.855782,34.149607392,0,0,0,359.9, -4.8, 3.6,0,0,1024,1024,1024,1024,0,0,0,0,357.3,0,0,88,3.962,3.96,0,0,0,0,3.806,70.88,627.45170905483,4.593176,6,P-GPS,
224400,2024-02-04 17:14:28,40.4291012072372,-86.929278394798,4.593176,,,627.45170905483,5.905512,0,33.807743864,37.811352916,26,5,7.917,627.77979305483,4.92126,11.855782,34.149607392,0,0,0,359.9, -4.7, 3.8,0,0,1024,1024,1024,1024,0,0,0,0,357.3,0,0,88,3.962,3.96,0,0,0,0,3.806,70.88,627.45170905483,4.593176,6,P-GPS,
224500,2024-02-04 17:14:28,40.4291011313517,-86.9292783525517,4.593176,,,627.45170905483,5.905512,0,33.779856724,37.841536644,26,5,7.917,627.77979305483,4.92126,11.855782,34.149607392,0,0,0,359.9, -4, 4,0,0,1024,1024,1024,1024,0,0,0,0,357.3,0,0,88,3.962,3.96,0,0,0,0,3.806,70.88,627.45170905483,4.593176,6,P-GPS,
224600,2024-02-04 17:14:28,40.4291011921382,-86.9292783652439,4.593176,,,627.45170905483,5.905512,0,33.802166436,37.863846356,26,5,7.917,627.77979305483,4.92126,11.855782,34.149607392,0,0,0,359.9, -3.4, 4.3,0,0,1308,1024,1024,1024,43,0,0,0,357.3,0,0,88,3.962,3.96,0,0,0,0,3.806,70.88,627.45170905483,4.593176,6,P-GPS,
224700,2024-02-04 17:14:28,40.4291012629039,-86.9292783827248,4.593176,,,627.45170905483,5.905512,0,33.828085072,37.890093076,26,5,7.917,627.77979305483,4.92126,11.855782,34.149607392,0,0,0,0, -2.6, 4.9,0,0,1684,1024,1024,1024,100,0,0,0,357.3,0,0,88,3.962,3.96,0,0,0,0,3.806,70.88,627.45170905483,4.593176,6,P-GPS,
224800,2024-02-04 17:14:28,40.4291012746027,-86.9292784165115,4.593176,,,627.45170905483,5.905512,0,33.832350164,37.900591764,26,5,7.917,627.77979305483,4.92126,11.855782,34.149607392,0,0,0,359.9, -7.2, 6.2,0,0,1684,1024,1024,1024,100,0,0,0,357.3,0,0,88,3.962,3.96,0,0,0,0,3.806,70.88,627.45170905483,4.593176,6,P-GPS,
224900,2024-02-04 17:14:28,40.4291013211631,-86.929278489513,4.593176,,,627.45170905483,5.905512,0.223694,33.849410532,37.926838484,26,5,7.917,627.77979305483,4.92126,11.855782,34.149607392,0.223694,0,0,359.3, -20.4, 5.6,0,0,1684,1024,1024,1024,100,0,0,0,357.3,0,0,88,3.962,3.96,0,0,0,0,3.806,70.88,627.45170905483,4.593176,6,P-GPS,
225000,2024-02-04 17:14:28,40.4291016073003,-86.929278488766,4.593176,,,627.45170905483,5.905512,0.894776,33.954069328,38.03149728,26,5,7.917,627.77979305483,4.92126,11.855782,34.149607392,0.894776,0,0,359.3, -24.5, 4.6,0,0,1684,1024,1024,1010,100,0,0,-2,357.3,0,0,88,3.962,3.96,0,0,0,0,3.806,70.88,627.45170905483,4.593176,6,P-GPS,
225100,2024-02-04 17:14:29,40.4291022059684,-86.9292784959064,4.593176,,,627.45170905483,5.905512,1.789552,34.172245188,38.24967314,26,5,7.917,627.77979305483,4.92126,11.855782,34.172245188,1.789552,0,0,359.3, -24.7, 4.4,0,0,1684,1024,1024,1010,100,0,0,-2,357.3,0,0,88,3.962,3.96,0,0,0,0,3.806,70.88,627.45170905483,4.593176,6,P-GPS,
225200,2024-02-04 17:14:29,40.4291030968185,-86.9292784883816,4.593176,,,627.45170905483,5.905512,2.460634,34.497376432,38.574804384,26,5,7.917,627.77979305483,4.92126,11.855782,34.497376432,2.460634,0,0,359.4, -24.2, 4.7,0,0,1684,1024,1024,698,100,0,0,-49,357.2,0,0,88,3.962,3.96,0,0,0,0,3.806,70.88,627.45170905483,4.593176,6,P-GPS,
225300,2024-02-04 17:14:29,40.4291043981797,-86.9292784581839,4.265092,,,627.12362505483,5.905512,3.35541,34.97211398,39.049870016,26,5,7.917,627.77979305483,4.92126,11.855782,34.97211398,3.35541,0,0,359.5, -23.5, 4.8,0,0,1684,1024,1024,671,100,0,0,-53,357,0,0,88,3.962,3.96,0,0,0,0,3.806,70.88,627.12362505483,4.265092,6,P-GPS,
225400,2024-02-04 17:14:29,40.4291058616167,-86.9292784804882,4.265092,,,627.12362505483,5.905512,3.802798,35.505906648,39.583662684,26,5,7.917,627.77979305483,4.92126,11.855782,35.505906648,3.802798,0,0,359.1, -23.9, 4.8,0,0,1684,1024,1024,661,100,0,0,-55,356,0,0,88,3.962,3.96,0,0,0,0,3.806,70.88,627.12362505483,4.265092,6,P-GPS,
225500,2024-02-04 17:14:29,40.4291076340152,-86.9292784978421,4.265092,,,627.12362505483,5.905512,3.802798,36.152560212,40.230316248,26,5,7.925,627.77979305483,4.92126,11.855782,36.152560212,4.47388,0,0,358.1, -24.2, 4.5,0,0,1684,1024,1024,392,100,0,0,-96,354.7,0,0,88,3.936,3.937,0,0,0,0,3.847,70.88,627.12362505483,4.265092,6,P-GPS,
225600,2024-02-04 17:14:29,40.4291095823898,-86.9292785698785,3.937008,,,626.79554105483,5.905512,5.368656,36.863846324,40.94160236,26,5,7.925,627.77979305483,4.92126,11.855782,36.863846324,5.368656,0,0,356.3, -24.4, 4.3,0,0,1684,1024,1024,402,100,0,0,-94,353,0,0,88,3.936,3.937,0,0,0,0,3.847,70.88,626.79554105483,3.937008,6,P-GPS,
225700,2024-02-04 17:14:29,40.4291118920836,-86.929278695338,3.937008,,,626.79554105483,5.905512,5.816044,37.70669412,41.78477824,26,5,7.925,627.77979305483,4.92126,11.855782,37.70669412,5.816044,0,0,353.9, -24, 6.1,0,0,1684,1024,1024,471,100,0,0,-84,349,0,0,88,3.936,3.937,0,0,0,0,3.847,70.88,626.79554105483,3.937008,6,P-GPS,
225800,2024-02-04 17:14:29,40.4291145565827,-86.9292787168737,3.937008,,,626.79554105483,5.905512,6.487126,38.678807012,42.757219216,26,5,7.925,627.77979305483,4.92126,11.855782,38.678807012,6.487126,0,0,349.7, -23.9, 7.5,0,0,1684,1024,1024,729,100,0,0,-45,343.9,0,0,88,3.936,3.937,0,0,0,0,3.847,70.88,626.79554105483,3.937008,6,P-GPS,
225900,2024-02-04 17:14:29,40.4291173721494,-86.9292787804667,3.937008,,,626.79554105483,5.577428,6.934514,39.7063661,43.78445022,26,5,7.925,627.77979305483,4.92126,11.855782,39.7063661,6.934514,-0.223694,0,344.6, -23.8, 8.2,0,0,1684,1024,1024,633,100,0,0,-59,339.3,0,0,88,3.936,3.937,0,0,0,0,3.847,70.88,626.79554105483,3.937008,6,P-GPS,
226000,2024-02-04 17:14:29,40.4291202485026,-86.9292789160676,3.937008,,,626.79554105483,5.577428,7.605596,40.755906816,44.834647104,26,5,7.925,627.77979305483,4.92126,11.855782,40.755906816,7.605596,-0.223694,0,340.2, -24.3, 7.7,0,0,1684,1024,1024,633,100,0,0,-59,336.7,0,0,88,3.936,3.937,0,0,0,0,3.847,70.88,626.79554105483,3.937008,6,P-GPS,
226100,2024-02-04 17:14:29,40.4291235032019,-86.9292791491954,3.937008,,,626.79554105483,5.577428,8.0753534,41.944227064,46.023951604,26,5,7.925,627.77979305483,4.92126,11.855782,41.944227064,8.052984,-0.447388,0,337.9, -24.4, 6.9,0,0,1684,1024,1024,470,100,0,0,-84,335.3,0,0,88,3.936,3.937,0,0,0,0,3.847,70.88,626.79554105483,3.937008,6,P-GPS,
226200,2024-02-04 17:14:30,40.4291268947036,-86.9292794342809,3.608924,,,626.46745705483,5.577428,8.7464354,43.18241608,47.26378104,26,5,7.925,627.77979305483,4.92126,11.855782,43.18241608,8.724066,-0.671082,0,336.2, -24.3, 6.3,0,0,1591,1024,1024,617,86,0,0,-62,333.1,0,0,88,3.936,3.937,0,0,0,0,3.847,70.88,626.46745705483,3.608924,6,P-GPS,
226300,2024-02-04 17:14:30,40.4291306412191,-86.929279925902,3.608924,,,626.46745705483,5.577428,9.4398868,44.551510612,48.637468748,26,5,7.925,627.77979305483,4.92126,11.855782,44.551510612,9.395148,-0.894776,0,333.7, -24.2, 7,0,0,1326,1024,1024,1024,46,0,0,0,329.3,0,0,88,3.936,3.937,0,0,0,0,3.847,70.88,626.46745705483,3.608924,6,P-GPS,
226400,2024-02-04 17:14:30,40.4291344447693,-86.9292805289566,3.937008,,,626.79554105483,5.577428,9.9320136,45.941930604,50.035106588,26,5,7.925,627.77979305483,4.92126,11.855782,45.941930604,9.842536,-1.342164,0,330.7, -18, 7.2,0,0,1103,1024,1024,1141,12,0,0,18,327.2,0,0,88,3.936,3.937,0,0,0,0,3.847,70.88,626.79554105483,3.937008,6,P-GPS,
226500,2024-02-04 17:14:30,40.429138577226,-86.9292812820991,3.937008,,,626.79554105483,5.577428,9.9767524,47.45406976,51.557416348,26,5,7.925,627.77979305483,4.92126,11.855782,47.45406976,9.842536,-1.565858,-0.223694,329.6, -6.6, 5,0,0,1126,1024,1024,1226,15,0,0,31,327,0,0,88,3.936,3.937,0,0,0,0,3.847,70.88,626.79554105483,3.937008,6,P-GPS,
226600,2024-02-04 17:14:30,40.4291425681384,-86.9292820458759,3.937008,,,626.79554105483,5.577428,9.7530584,48.915027812,53.028873088,26,5,7.925,627.77979305483,4.92126,11.855782,48.915027812,9.618842,-1.565858,-0.447388,329.7, 1.2, 4.8,0,0,1144,1024,1111,1024,18,0,13,0,327.1,0,0,88,3.936,3.937,0,0,0,0,3.847,70.88,626.79554105483,3.937008,6,P-GPS,
226700,2024-02-04 17:14:30,40.4291465370212,-86.9292828675293,3.937008,,,626.79554105483,5.905512,9.2609316,50.3690961,54.4947524,26,5,7.925,627.77979305483,4.92126,11.855782,50.3690961,9.171454,-1.342164,-0.223694,330, 2.3, 5.3,0,0,1137,1024,1084,1175,17,0,9,23,327.4,0,0,88,3.936,3.937,0,0,0,0,3.847,70.88,626.79554105483,3.937008,6,P-GPS,
226800,2024-02-04 17:14:30,40.4291501267761,-86.9292836452492,4.265092,,,627.12362505483,5.905512,9.0372376,51.685041024,55.822180264,26,5,7.925,627.77979305483,4.92126,11.855782,51.685041024,8.94776,-1.342164,0,330.2, 1.6, 5.4,0,0,1124,1024,1084,1251,15,0,9,34,327.4,0,0,88,3.936,3.937,0,0,0,0,3.847,70.88,627.12362505483,4.265092,6,P-GPS,
226900,2024-02-04 17:14:30,40.4291537503506,-86.9292844300039,4.265092,,,627.12362505483,5.905512,8.612219,53.014109308,57.16207532,26,5,7.925,627.77979305483,4.92126,11.855782,53.014109308,8.500372,-1.342164,-0.223694,330.3, 0.9, 6.1,0,0,1124,1024,1084,1251,15,0,9,34,327.5,0,0,88,3.936,3.937,0,0,0,0,3.847,70.88,627.12362505483,4.265092,6,P-GPS,
227000,2024-02-04 17:14:30,40.4291571440019,-86.9292851204105,4.265092,,,627.12362505483,5.905512,8.388525,54.258860004,58.415028116,26,5,7.925,627.77979305483,4.92126,11.855782,54.258860004,8.276678,-1.342164,0,330.3, 0, 5.6,0,0,1105,1024,1085,1171,12,0,9,22,327.8,0,0,88,3.936,3.937,0,0,0,0,3.847,70.88,627.12362505483,4.265092,6,P-GPS,
227100,2024-02-04 17:14:31,40.4291605624836,-86.9292858032079,4.593176,,,627.45170905483,5.905512,7.9187676,55.513125136,59.676511096,26,5,7.923,627.77979305483,4.92126,11.855782,55.513125136,7.82929,-1.11847,0,330.5, -0.1, 5,0,0,1096,1024,1084,1173,11,0,9,23,328.1,0,0,88,3.954,3.957,0,0,0,0,3.834,70.88,627.45170905483,4.593176,6,P-GPS,
227200,2024-02-04 17:14:31,40.4291636647997,-86.9292864227302,4.593176,,,627.45170905483,5.905512,7.9187676,56.651248532,60.821524256,26,5,7.923,627.77979305483,4.92126,11.855782,56.651248532,7.605596,-1.11847,0,330.8, -0.4, 4.7,0,0,1097,1024,1076,1251,11,0,8,34,328.3,0,0,88,3.954,3.957,0,0,0,0,3.834,70.88,627.45170905483,4.593176,6,P-GPS,
227300,2024-02-04 17:14:31,40.429166804544,-86.929287061953,4.593176,,,627.45170905483,5.905512,7.4713796,57.803807624,61.980645028,26,5,7.923,627.77979305483,4.92126,11.855782,57.803807624,7.381902,-1.11847,0,331.3, 0, 5.4,0,0,1097,1024,1076,1269,11,0,8,37,328.5,0,0,88,3.954,3.957,0,0,0,0,3.834,70.88,627.45170905483,4.593176,6,P-GPS,
227400,2024-02-04 17:14:31,40.4291696948236,-86.9292876797847,4.593176,,,627.45170905483,5.905512,7.2476856,58.865487448,63.049214616,26,5,7.923,627.77979305483,4.92126,11.855782,58.865487448,7.158208,-1.11847,0,331.3, -0.9, 5.2,0,0,1101,1024,1075,1269,12,0,8,37,328.9,0,0,88,3.954,3.957,0,0,0,0,3.834,70.88,627.45170905483,4.593176,6,P-GPS,
227500,2024-02-04 17:14:31,40.4291726406658,-86.9292883302985,4.593176,,,627.45170905483,5.905512,7.0239916,59.947836564,64.13878158,26,5,7.923,627.77979305483,4.92126,11.855782,59.947836564,6.934514,-1.11847,0,331.6, -1.2, 5.6,0,0,1102,1024,1074,1242,12,0,8,33,329.4,0,0,88,3.954,3.957,0,0,0,0,3.834,70.88,627.45170905483,4.593176,6,P-GPS,
227600,2024-02-04 17:14:31,40.4291753064156,-86.9292889400906,4.593176,,,627.45170905483,5.905512,6.8002976,60.928151556,65.12631442,26,5,7.923,627.77979305483,4.92126,11.855782,60.928151556,6.71082,-1.11847,0,332.2, -0.4, 5.8,0,0,1105,1024,1074,1193,12,0,8,26,330,0,0,88,3.954,3.957,0,0,0,0,3.834,70.88,627.45170905483,4.593176,6,P-GPS,
227700,2024-02-04 17:14:31,40.4291780046821,-86.9292895616953,4.593176,,,627.45170905483,5.905512,6.5766036,61.920605656,66.125658284,26,5,7.923,627.77979305483,4.92126,11.855782,61.920605656,6.487126,-1.11847,0,332.8, -0.1, 6.3,0,0,1105,1024,1074,1193,12,0,8,26,330.4,0,0,88,3.954,3.957,0,0,0,0,3.834,70.88,627.45170905483,4.593176,6,P-GPS,
227800,2024-02-04 17:14:31,40.4291804543179,-86.9292901230467,4.593176,,,627.45170905483,5.905512,6.3529096,62.82152432,67.032810544,26,5,7.923,627.77979305483,4.92126,11.855782,62.82152432,6.263432,-1.11847,0,333.2, -0.4, 6.4,0,0,1105,1024,1074,1203,12,0,8,27,330.8,0,0,88,3.954,3.957,0,0,0,0,3.834,70.88,627.45170905483,4.593176,6,P-GPS,
227900,2024-02-04 17:14:31,40.4291829139067,-86.9292906938959,4.92126,,,627.77979305483,5.905512,6.151585,63.726708076,67.944227896,26,5,7.923,627.77979305483,4.92126,11.855782,63.726708076,6.039738,-1.11847,0,333.6, -0.5, 6.3,0,0,1107,1024,1060,1268,13,0,5,37,331.1,0,0,88,3.954,3.957,0,0,0,0,3.834,70.88,627.77979305483,4.92126,6,P-GPS,
228000,2024-02-04 17:14:31,40.4291851642208,-86.9292911966638,4.92126,,,627.77979305483,5.905512,5.8831522,64.554464008,68.776905088,26,5,7.923,627.77979305483,4.92126,11.855782,64.554464008,5.816044,-0.894776,0,333.9, -0.4, 6.3,0,0,1106,1024,1061,1265,12,0,6,37,331.4,0,0,88,3.954,3.957,0,0,0,0,3.834,70.88,627.77979305483,4.92126,6,P-GPS,
228100,2024-02-04 17:14:32,40.4291874421665,-86.9292917060646,4.92126,,,627.77979305483,5.905512,5.6594582,65.392718628,69.620080968,26,5,7.923,627.77979305483,4.92126,11.855782,65.392718628,5.59235,-0.894776,0,334.3, -0.5, 6.7,0,0,1106,1024,1062,1250,12,0,6,34,331.9,0,0,88,3.954,3.957,0,0,0,0,3.834,70.88,627.77979305483,4.92126,6,P-GPS,
228200,2024-02-04 17:14:32,40.4291895912957,-86.9292922118901,4.92126,,,627.77979305483,5.905512,5.4357642,66.184057236,70.41666892,26,5,7.923,627.77979305483,4.92126,11.855782,66.184057236,5.368656,-0.894776,0,334.7, -0.9, 6.2,0,0,1105,1024,1087,1229,12,0,10,31,332.4,0,0,88,3.954,3.957,0,0,0,0,3.834,70.88,627.77979305483,4.92126,6,P-GPS,
228300,2024-02-04 17:14:32,40.429191825586,-86.9292927180624,4.92126,,,627.77979305483,5.905512,5.2120702,67.006563824,71.243768684,26,5,7.923,627.77979305483,4.92126,11.855782,67.006563824,5.144962,-0.894776,0,335.2, -1, 5.6,0,0,1105,1024,1325,1024,12,0,46,0,332.9,0,0,88,3.954,3.957,0,0,0,0,3.834,70.88,627.77979305483,4.92126,6,P-GPS,
228400,2024-02-04 17:14:32,40.4291937938797,-86.9292931865094,4.92126,,,627.77979305483,5.905512,5.0107456,67.731629464,71.973755584,26,5,7.923,627.77979305483,4.92126,11.855782,67.731629464,4.921268,-0.894776,0,335.7, -1.3, 5.6,0,0,1105,1024,1329,1024,12,0,46,0,333.2,0,0,88,3.954,3.957,0,0,0,0,3.834,70.88,627.77979305483,4.92126,6,P-GPS,
228500,2024-02-04 17:14:32,40.4291957856361,-86.929293664144,4.92126,,,627.77979305483,5.905512,4.7423128,68.465225288,72.712272668,26,5,7.874,627.77979305483,4.92126,11.855782,68.465225288,4.697574,-0.671082,-0.223694,335.9, -1.7, 5.2,0,0,1105,1024,1329,1024,12,0,46,0,333.3,0,0,88,3.954,3.953,0,0,0,0,4.644,70.88,627.77979305483,4.92126,6,P-GPS,
228600,2024-02-04 17:14:32,40.4291976347538,-86.9292940477741,4.92126,,,627.77979305483,6.233596,4.5186188,69.145671504,73.395343556,26,5,7.874,627.77979305483,4.92126,11.855782,69.145671504,4.47388,-0.671082,-0.894776,336, -1.5, 5.4,0,0,1105,1024,1384,1024,12,0,55,0,333.4,0,0,88,3.954,3.953,0,0,0,0,4.644,70.88,627.77979305483,4.92126,6,P-GPS,
228700,2024-02-04 17:14:32,40.4291996004811,-86.9292944345933,4.92126,,,627.77979305483,6.233596,4.5186188,69.868440556,74.12073728,26,5,7.874,627.77979305483,4.92126,11.855782,69.868440556,4.250186,-0.671082,-1.11847,336.1, -1.7, 5.9,0,0,1099,1024,1411,1024,11,0,59,0,333.4,0,0,88,3.954,3.953,0,0,0,0,4.644,70.88,627.77979305483,4.92126,6,P-GPS,
228800,2024-02-04 17:14:32,40.4292012873146,-86.9292948163875,5.249344,,,628.10787705483,6.56168,4.2949248,70.489831652,74.745081132,26,5,7.874,628.10787705483,5.249344,11.855782,70.489831652,4.250186,-0.671082,-1.565858,336.1, -1.8, 5.8,0,0,1098,1024,1418,1024,11,0,60,0,333.4,0,0,88,3.954,3.953,0,0,0,0,4.644,70.88,628.10787705483,5.249344,6,P-GPS,
228900,2024-02-04 17:14:32,40.4292029850912,-86.9292951973391,5.577428,,,628.43596105483,6.889764,4.0712308,71.115159756,75.373361992,26,5,7.874,628.43596105483,5.577428,11.855782,71.115159756,4.026492,-0.671082,-2.013246,336.2, -1.8, 6.2,0,0,1088,1024,1445,1024,10,0,64,0,333.4,0,0,88,3.954,3.953,0,0,0,0,4.644,70.88,628.43596105483,5.577428,6,P-GPS,
229000,2024-02-04 17:14:32,40.4292045308884,-86.9292955460771,5.577428,,,628.43596105483,7.217848,3.8699062,71.684385496,75.945868572,26,5,7.874,628.43596105483,5.577428,11.855782,71.684385496,3.802798,-0.671082,-2.23694,336.1, -2.2, 5.7,0,0,1062,1024,1445,1024,6,0,64,0,333.4,0,0,88,3.954,3.953,0,0,0,0,4.644,70.88,628.43596105483,5.577428,6,P-GPS,
229100,2024-02-04 17:14:32,40.4292060954453,-86.9292958956352,5.905512,,,628.76404505483,7.545932,3.8699062,72.260829084,76.524608748,26,5,7.874,628.76404505483,5.905512,11.855782,72.260829084,3.802798,-0.671082,-2.460634,336.1, -2.4, 5.6,0,0,1024,1024,1449,1024,0,0,64,0,333.4,0,0,88,3.954,3.953,0,0,0,0,4.644,70.88,628.76404505483,5.905512,6,P-GPS,
229200,2024-02-04 17:14:33,40.4292075339215,-86.929296329584,6.56168,,,629.42021305483,7.874016,3.6462122,72.792981332,77.063322676,26,5,7.874,629.42021305483,6.56168,11.855782,72.792981332,3.579104,-0.671082,-2.684328,336.1, -1.4, 5.4,0,0,1024,1024,1449,1024,0,0,64,0,333.4,0,0,88,3.954,3.953,0,0,0,0,4.644,70.88,629.42021305483,6.56168,6,P-GPS,
229300,2024-02-04 17:14:33,40.4292089576766,-86.9292966969617,6.889764,,,629.74829705483,8.2021,3.3777794,73.3185719,77.592522168,26,5,7.874,629.74829705483,6.889764,11.855782,73.3185719,3.35541,-0.447388,-2.684328,336.4, 10.1, 2.8,0,0,1188,1024,1448,1024,25,0,64,0,333.4,0,0,88,3.954,3.953,0,0,0,0,4.644,70.88,629.74829705483,6.889764,6,P-GPS,
229400,2024-02-04 17:14:33,40.4292100393022,-86.9292969961926,7.217848,,,630.07638105483,8.858268,2.5053728,73.718178212,77.996065488,26,5,7.874,630.07638105483,7.217848,11.855782,73.718178212,2.460634,-0.447388,-2.908022,336.5, 15.4, 1.1,0,0,1188,1024,1448,1024,25,0,64,0,333.4,0,0,88,3.954,3.953,0,0,0,0,4.644,70.88,630.07638105483,7.217848,6,P-GPS,
229500,2024-02-04 17:14:33,40.429210868558,-86.9292972522232,7.545932,,,630.40446505483,9.186352,1.8342908,74.025264836,78.306761036,26,5,7.874,630.40446505483,7.545932,11.855782,74.025264836,1.789552,-0.447388,-2.908022,336.5, 13, 1,0,0,1253,1024,1445,1024,35,0,64,0,333.4,0,0,88,3.954,3.953,0,0,0,0,4.644,70.88,630.40446505483,7.545932,6,P-GPS,
229600,2024-02-04 17:14:33,40.4292114065698,-86.9292974466892,8.2021,,,631.06063305483,9.514436,1.2079476,74.225067992,78.510173116,26,5,7.874,631.06063305483,8.2021,11.855782,74.225067992,1.11847,-0.447388,-2.908022,336.4, 5.8, 2.9,0,0,1282,1024,1428,1024,39,0,61,0,333.4,0,0,88,3.954,3.953,0,0,0,0,4.644,70.88,631.06063305483,8.2021,6,P-GPS,
229700,2024-02-04 17:14:33,40.4292118291836,-86.929297645204,8.530184,,,631.38871705483,9.84252,0.9171454,74.382876396,78.673887032,26,5,7.874,631.38871705483,8.530184,11.855782,74.382876396,0.894776,-0.223694,-2.684328,336.2, 0.4, 5.4,0,0,1298,1024,1422,1024,42,0,60,0,333.4,0,0,88,3.954,3.953,0,0,0,0,4.644,70.88,631.38871705483,8.530184,6,P-GPS,
229800,2024-02-04 17:14:33,40.4292122047679,-86.9292977931314,8.858268,,,631.71680105483,10.498688,0.9171454,74.52264018,78.81725974,26,5,7.874,631.71680105483,8.858268,11.855782,74.52264018,0.894776,-0.223694,-2.684328,336.1, -2.4, 6.7,0,0,1311,1024,1420,1024,43,0,60,0,333.4,0,0,88,3.954,3.953,0,0,0,0,4.644,70.88,631.71680105483,8.858268,6,P-GPS,
229900,2024-02-04 17:14:33,40.4292125770432,-86.9292979400445,9.514436,,,632.37296905483,10.826772,0.7158208,74.661419712,78.958992028,26,5,7.874,632.37296905483,9.514436,11.855782,74.661419712,0.671082,-0.223694,-2.460634,335.9, -4.5, 6.8,0,0,1312,1024,1420,1024,44,0,60,0,333.4,0,0,88,3.954,3.953,0,0,0,0,4.644,70.88,632.37296905483,9.514436,6,P-GPS,
230000,2024-02-04 17:14:33,40.4292128207887,-86.9292980945105,9.84252,,,632.70105305483,11.154856,0.7158208,74.753283232,79.057745312,26,5,7.87,632.70105305483,9.84252,11.855782,74.753283232,0.671082,-0.223694,-2.460634,335.9, -5.8, 6.1,0,0,1319,1024,1419,1024,45,0,60,0,333.4,0,0,88,3.943,3.942,0,0,0,0,4.487,71.06,632.70105305483,9.84252,6,P-GPS,
230100,2024-02-04 17:14:34,40.4292131207351,-86.9292983096828,10.170604,,,633.02913705483,11.48294,0.9171454,74.86712838,79.182417232,26,5,7.87,633.02913705483,10.170604,11.855782,74.86712838,0.894776,-0.223694,-2.460634,336, -6.1, 5.9,0,0,1344,1024,1415,1024,48,0,59,0,333.4,0,0,88,3.943,3.942,0,0,0,0,4.487,71.06,633.02913705483,10.170604,6,P-GPS,
230200,2024-02-04 17:14:34,40.4292134489252,-86.9292984917904,10.498688,,,633.35722105483,11.811024,1.006623,74.990487964,79.312338496,26,5,7.87,633.35722105483,10.498688,11.855782,74.990487964,0.894776,-0.447388,-2.460634,336, -6.1, 5.8,0,0,1344,1024,1415,1024,48,0,59,0,333.4,0,0,88,3.943,3.942,0,0,0,0,4.487,71.06,633.35722105483,10.498688,6,P-GPS,
230300,2024-02-04 17:14:34,40.4292138429044,-86.9292987117725,10.826772,,,633.68530505483,12.139108,1.006623,75.138453848,79.46850648,26,5,7.87,633.68530505483,10.826772,11.855782,75.138453848,1.11847,-0.447388,-2.460634,336, -6.2, 6,0,0,1398,1024,1415,1024,57,0,59,0,333.4,0,0,88,3.943,3.942,0,0,0,0,4.487,71.06,633.68530505483,10.826772,6,P-GPS,
230400,2024-02-04 17:14:34,40.4292143849027,-86.9292989609183,11.48294,,,634.34147305483,12.467192,1.4092722,75.34120976,79.678152156,26,5,7.87,634.34147305483,11.48294,11.855782,75.34120976,1.342164,-0.447388,-2.460634,335.8, -8, 5.4,0,0,1418,1024,1415,1024,60,0,59,0,333.4,0,0,88,3.943,3.942,0,0,0,0,4.487,71.06,634.34147305483,11.48294,6,P-GPS,
230500,2024-02-04 17:14:34,40.4292149878438,-86.9292993057215,11.811024,,,634.66955705483,12.795276,1.7000744,75.568243888,79.91798156,26,5,7.87,634.66955705483,11.811024,11.855782,75.568243888,1.565858,-0.671082,-2.460634,335.8, -9.4, 6.1,0,0,1452,1024,1414,1024,65,0,59,0,333.3,0,0,88,3.943,3.942,0,0,0,0,4.487,71.06,634.66955705483,11.811024,6,P-GPS,
230600,2024-02-04 17:14:34,40.4292156252559,-86.9292997041564,12.139108,,,634.99764105483,13.12336,1.901399,75.809057544,80.1755275,26,5,7.87,634.99764105483,12.139108,11.855782,75.809057544,1.789552,-0.671082,-2.460634,335.8, -10.3, 6.3,0,0,1488,1024,1414,1024,70,0,59,0,333.4,0,0,88,3.943,3.942,0,0,0,0,4.487,71.06,634.99764105483,12.139108,6,P-GPS,
230700,2024-02-04 17:14:34,40.4292163971384,-86.9293001710166,12.467192,,,635.32572505483,13.451444,2.1922012,76.100396136,80.48556688,26,5,7.87,635.32572505483,12.467192,11.855782,76.100396136,2.013246,-0.894776,-2.460634,335.7, -11.9, 6.3,0,0,1508,1024,1412,1024,73,0,59,0,333.4,0,0,88,3.943,3.942,0,0,0,0,4.487,71.06,635.32572505483,12.467192,6,P-GPS,
230800,2024-02-04 17:14:34,40.4292172964303,-86.9293006831508,12.795276,,,635.65380905483,13.779528,2.6172198,76.439306908,80.84317844,26,5,7.87,635.65380905483,12.795276,11.855782,76.439306908,2.460634,-0.894776,-2.460634,335.7, -13.3, 5.2,0,0,1528,1024,1409,1024,76,0,58,0,333.4,0,0,88,3.943,3.942,0,0,0,0,4.487,71.06,635.65380905483,12.795276,6,P-GPS,
230900,2024-02-04 17:14:34,40.4292184772476,-86.9293013151529,13.12336,,,635.98189305483,14.107612,2.908022,76.883532644,81.308401552,26,5,7.87,635.98189305483,13.12336,11.855782,76.883532644,2.684328,-1.11847,-2.460634,335.7, -14.5, 4.4,0,0,1541,1024,1409,1024,78,0,58,0,333.4,0,0,88,3.943,3.942,0,0,0,0,4.487,71.06,635.98189305483,13.12336,6,P-GPS,
231000,2024-02-04 17:14:34,40.4292196653603,-86.9293018820526,13.779528,,,636.63806105483,14.435696,3.4001488,77.3293988,81.769687656,26,5,7.87,636.63806105483,13.779528,11.855782,77.3293988,3.131716,-1.342164,-2.23694,335.6, -14.7, 4.9,0,0,1557,1024,1410,1024,81,0,58,0,333.4,0,0,88,3.943,3.942,0,0,0,0,4.487,71.06,636.63806105483,13.779528,6,P-GPS,
231100,2024-02-04 17:14:35,40.4292210678023,-86.9293025778995,14.107612,,,636.96614505483,14.76378,3.914645,77.856301704,82.316603684,26,5,7.87,636.96614505483,14.107612,11.855782,77.856301704,3.579104,-1.565858,-2.23694,335.6, -15.3, 4.7,0,0,1557,1024,1410,1024,81,0,58,0,333.4,0,0,88,3.943,3.942,0,0,0,0,4.487,71.06,636.96614505483,14.107612,6,P-GPS,
231200,2024-02-04 17:14:35,40.4292225994777,-86.9293035118069,14.435696,,,637.29422905483,15.091864,4.4067718,78.436354216,82.932417352,26,5,7.87,637.29422905483,14.435696,11.855782,78.436354216,4.026492,-1.789552,-2.460634,335.4, -15.4, 5.2,0,0,1576,1024,1409,1024,84,0,58,0,333.4,0,0,88,3.943,3.942,0,0,0,0,4.487,71.06,637.29422905483,14.435696,6,P-GPS,
231300,2024-02-04 17:14:35,40.4292245310989,-86.92930475303,14.76378,,,637.62231305483,15.419948,4.8988986,79.170606208,83.71719428,26,5,7.87,637.62231305483,14.76378,11.855782,79.170606208,4.47388,-2.013246,-2.460634,335.5, -15.5, 5.7,0,0,1579,1024,1399,1024,84,0,57,0,333.4,0,0,88,3.943,3.942,0,0,0,0,4.487,71.06,637.62231305483,14.76378,6,P-GPS,
231400,2024-02-04 17:14:35,40.4292263319495,-86.9293058558917,15.091864,,,637.95039705483,15.748032,5.2120702,79.854661348,84.441931836,26,5,7.878,637.95039705483,15.091864,11.855782,79.854661348,4.697574,-2.23694,-2.460634,335.5, -16.2, 6.2,0,0,1579,1024,1381,1024,84,0,54,0,333.4,0,0,88,3.931,3.931,0,0,0,0,4.224,71.06,637.95039705483,15.091864,6,P-GPS,
231500,2024-02-04 17:14:35,40.4292283703184,-86.9293071017346,15.419948,,,638.27848105483,16.4042,5.6147194,80.629595756,85.262141836,26,5,7.878,638.27848105483,15.419948,11.855782,80.629595756,5.144962,-2.23694,-2.23694,335.5, -16.8, 6.4,0,0,1579,1024,1358,1100,84,0,51,12,333.4,0,0,88,3.931,3.931,0,0,0,0,4.224,71.06,638.27848105483,15.419948,6,P-GPS,
231600,2024-02-04 17:14:35,40.429230441152,-86.9293083892684,15.748032,,,638.60656505483,16.4042,6.1068462,81.418309692,86.098099868,26,5,7.878,638.60656505483,15.748032,11.855782,81.418309692,5.59235,-2.460634,-2.013246,335.5, -17.1, 6.6,0,0,1580,1024,1340,1130,84,0,48,16,333.4,0,0,88,3.931,3.931,0,0,0,0,4.224,71.06,638.60656505483,15.748032,6,P-GPS,
231700,2024-02-04 17:14:35,40.4292327984615,-86.9293098410257,16.076116,,,638.93464905483,16.732284,6.3976484,82.316931768,87.047903048,26,5,7.878,638.93464905483,16.076116,11.855782,82.316931768,5.816044,-2.684328,-1.789552,335.4, -17.8, 6.3,0,0,1584,1024,1337,1123,85,0,47,15,333.4,0,0,88,3.931,3.931,0,0,0,0,4.224,71.06,638.93464905483,16.076116,6,P-GPS,
231800,2024-02-04 17:14:35,40.4292351816958,-86.9293112705588,16.4042,,,639.26273305483,17.060368,6.822667,83.225396364,88.003939824,26,5,7.878,639.26273305483,16.4042,11.855782,83.225396364,6.263432,-2.684328,-1.789552,335.4, -17.9, 6,0,0,1584,1024,1336,1121,85,0,47,15,333.5,0,0,88,3.931,3.931,0,0,0,0,4.224,71.06,639.26273305483,16.4042,6,P-GPS,
231900,2024-02-04 17:14:35,40.4292378363201,-86.929312864034,16.732284,,,639.59081705483,17.388452,7.3147938,84.238519756,89.068900488,26,5,7.878,639.59081705483,16.732284,11.855782,84.238519756,6.71082,-2.908022,-1.565858,335.5, -17.9, 6.2,0,0,1584,1024,1336,1121,85,0,47,15,333.5,0,0,88,3.931,3.931,0,0,0,0,4.224,71.06,639.59081705483,16.732284,6,P-GPS,
