time(millisecond),datetime(utc),latitude,longitude,height_above_takeoff(feet),height_above_ground_at_drone_location(feet),ground_elevation_at_drone_location(feet),altitude_above_seaLevel(feet),height_sonar(feet),speed(mph),distance(feet),mileage(feet),satellites,gpslevel,voltage(v),max_altitude(feet),max_ascent(feet),max_speed(mph),max_distance(feet), xSpeed(mph), ySpeed(mph), zSpeed(mph), compass_heading(degrees), pitch(degrees), roll(degrees),isPhoto,isVideo,rc_elevator,rc_aileron,rc_throttle,rc_rudder,rc_elevator(percent),rc_aileron(percent),rc_throttle(percent),rc_rudder(percent),gimbal_heading(degrees),gimbal_pitch(degrees),gimbal_roll(degrees),battery_percent,voltageCell1,voltageCell2,voltageCell3,voltageCell4,voltageCell5,voltageCell6,current(A),battery_temperature(f),altitude(feet),ascent(feet),flycStateRaw,flycState,message
0,2024-02-08 21:50:01,40.4295404223909,-86.9293311341182,0,Available with any HD 360 subscription,Available with any HD 360 subscription,625.48406594725,0.328084,0,0,0,22,5,0,625.48406594725,0,0,0,0,0,0,283.1, -2.4, 1.6,0,0,1024,1024,1024,1024,0,0,0,0,287.4,1.3,0,92,4.038,4.019,0,0,0,0,0,70.7,625.48406594725,0,41,Motors_Started,"Remote ID functionality normal (Code: 30331)"
100,2024-02-08 21:50:01,40.4295404190884,-86.9293311360989,0,,,625.48406594725,0.328084,0,0.00132454400564,0.00132454400564,22,5,0,625.48406594725,0,0,0.00132454400564,0,0,0,283.1, -2.4, 1.6,0,0,1024,1024,1024,1024,0,0,0,0,287.4,1.3,0,92,4.038,4.019,0,0,0,0,0,70.7,625.48406594725,0,41,Motors_Started,
200,2024-02-08 21:50:01,40.4295404225081,-86.9293311393401,0,,,625.48406594725,0.328084,0,0.00145089899656,0.0028630578344,22,5,0,625.48406594725,0,0,0.00145089899656,0,0,0,283.1, -2.4, 1.6,0,0,1024,1024,1024,1024,0,0,0,0,287.4,1.3,0,92,4.038,4.019,0,0,0,0,0,70.7,625.48406594725,0,41,Motors_Started,"Aircraft in Warning Zone (Class D Airspace). Fly with caution"
300,2024-02-08 21:50:02,40.4295404289828,-86.9293311422212,0,,,625.48406594725,0.328084,0,0.0032937337012,0.0053571852108,22,5,0,625.48406594725,0,0,0.0032937337012,0,0,0,283.3, -2.4, 1.6,0,0,1024,1024,1024,1024,0,0,0,0,287.4,1.3,0,92,4.038,4.019,0,0,0,0,0,70.7,625.48406594725,0,41,Motors_Started,
400,2024-02-08 21:50:02,40.4295404884471,-86.9293311413209,0,,,625.48406594725,0.328084,0,0.0241834325324,0.027054134724,22,5,0,625.48406594725,0,0,0.0241834325324,0,0,0,283, -2.4, 1.6,0,0,1024,1024,1024,1024,0,0,0,0,287.4,1.3,0,92,4.038,4.019,0,0,0,0,0,70.7,625.48406594725,0,41,Motors_Started,
500,2024-02-08 21:50:02,40.4295404696939,-86.9293311413209,0,,,625.48406594725,0.328084,0,0.017374016304,0.033896326544,22,5,0,625.48406594725,0,0,0.0241834325324,0,0,0,282.9, -2.3, 1.7,0,0,1024,1024,1024,1024,0,0,0,0,287.4,1.3,0,92,4.038,4.019,0,0,0,0,0,70.7,625.48406594725,0,41,Motors_Started,
600,2024-02-08 21:50:02,40.4295404259539,-86.9293311398803,0,,,625.48406594725,0.328084,0,0.00206176515784,0.049859581648,22,5,0,625.48406594725,0,0,0.0241834325324,0,0,0,282.8, -2.4, 1.6,0,0,1024,1024,1024,1024,0,0,0,0,287.4,1.3,0,92,4.038,4.019,0,0,0,0,0,70.7,625.48406594725,0,41,Motors_Started,
700,2024-02-08 21:50:02,40.4295404009866,-86.9293311411408,0,,,625.48406594725,0.328084,0,0.008049212856,0.058975723672,22,5,0,625.48406594725,0,0,0.0241834325324,0,0,0,282.8, -2.5, 1.6,0,0,1024,1024,1024,1024,0,0,0,0,287.4,1.3,0,92,4.038,4.019,0,0,0,0,0,70.7,625.48406594725,0,41,Motors_Started,
800,2024-02-08 21:50:02,40.4295403905711,-86.9293311418611,0,,,625.48406594725,0.328084,0,0.01180692295,0.062781169988,22,5,0,625.48406594725,0,0,0.0241834325324,0,0,0,282.7, -2.5, 1.6,0,0,1024,1024,1024,1024,0,0,0,0,287.4,1.3,0,92,4.038,4.019,0,0,0,0,0,70.7,625.48406594725,0,41,Motors_Started,
900,2024-02-08 21:50:02,40.42954032884,-86.9293311297965,0,,,625.48406594725,0.328084,0,0.034153216316,0.085551511924,22,5,0,625.48406594725,0,0,0.034153216316,0,0,0,282.6, -2.5, 1.6,0,0,1024,1024,1024,1024,0,0,0,0,287.4,1.3,0,92,4.038,4.019,0,0,0,0,0,70.7,625.48406594725,0,41,Motors_Started,"Setting new Return-To-Home altitude to 100m (328 ft). Data Recorder File Index is 4. Setting new Maximum Flight Altitude to 120m (394 ft)"
1000,2024-02-08 21:50:02,40.429540331693,-86.9293311319573,0,,,625.48406594725,0.328084,0,0.033096457752,0.086752955532,22,5,0,625.48406594725,0,0,0.034153216316,0,0,0,282.6, -2.4, 1.8,0,0,1024,1024,1024,1024,0,0,0,0,287.4,1.3,0,92,4.038,4.019,0,0,0,0,0,70.7,625.48406594725,0,41,Motors_Started,
1100,2024-02-08 21:50:02,40.4295403393923,-86.9293311306969,0,,,625.48406594725,0.328084,0,0.0302968841716,0.089583992368,22,5,0,625.48406594725,0,0,0.034153216316,0,0,0,282.7, -2.3, 2.1,0,0,1024,1024,1024,1024,0,0,0,0,287.3,1.3,0,92,4.038,4.019,0,0,0,0,0,70.7,625.48406594725,0,11,AutoTakeoff,
1200,2024-02-08 21:50:03,40.4295403509869,-86.9293311288962,0,,,625.48406594725,0.328084,0,0.0260920612024,0.09384350694,22,5,0,625.48406594725,0,0,0.034153216316,0,0,0,282.4, -2.3, 1.9,0,0,1024,1024,1024,1024,0,0,0,0,287.3,1.3,0,92,4.038,4.019,0,0,0,0,0,70.7,625.48406594725,0,11,AutoTakeoff,
1300,2024-02-08 21:50:03,40.4295404230748,-86.9293311155711,0.328084,,,625.81214994725,0.328084,0,0.0051570211624,0.120403875244,22,5,0,625.81214994725,0.328084,0,0.034153216316,0,0,0,282.6, -2.1, 2.2,0,0,1024,1024,1024,1024,0,0,0,0,287.3,1.3,0,92,4.038,4.019,0,0,0,0,0,70.7,625.81214994725,0.328084,11,AutoTakeoff,
1400,2024-02-08 21:50:03,40.4295404550379,-86.9293311058474,0.328084,,,625.81214994725,0.328084,0,0.0142661749972,0.132374348068,22,5,0,625.81214994725,0.328084,0,0.034153216316,0,0,0,282.7, -2.1, 2.4,0,0,1024,1024,1024,1024,0,0,0,0,287.3,1.3,0,92,4.038,4.019,0,0,0,0,0,70.7,625.81214994725,0.328084,11,AutoTakeoff,
1500,2024-02-08 21:50:03,40.4295405043798,-86.9293310827987,0.328084,,,625.81214994725,0.328084,0,0.033135499748,0.151480647892,22,5,0,625.81214994725,0.328084,0,0.034153216316,0.223694,0,0,282.9, -2.2, 3.8,0,0,1024,1024,1024,1024,0,0,0,0,287.3,1.3,0,92,4.038,4.019,0,0,0,0,0,70.7,625.81214994725,0.328084,11,AutoTakeoff,
1600,2024-02-08 21:50:03,40.4295406848244,-86.9293310222958,0.656168,,,626.14023394725,0.328084,0.671082,0.100659123956,0.219426516208,22,5,8.053,626.14023394725,0.656168,0.671082,0.100659123956,0.671082,0,0,283.1, -3.1, 5.4,0,0,1024,1024,1024,1024,0,0,0,0,287.3,1.3,0,92,4.038,4.019,0,0,0,0,1.606,70.7,626.14023394725,0.656168,11,AutoTakeoff,
1700,2024-02-08 21:50:03,40.4295410259118,-86.9293309443263,0.984252,,,626.46831794725,0.328084,1.342164,0.226415033492,0.34574148088,22,5,8.053,626.46831794725,0.984252,1.342164,0.226415033492,1.342164,0,0,283.4, -4.3, 4,0,0,1024,1024,1024,1024,0,0,0,0,287.3,1.3,0,92,4.038,4.019,0,0,0,0,1.606,70.7,626.46831794725,0.984252,11,AutoTakeoff,
1800,2024-02-08 21:50:03,40.4295417487585,-86.9293308928267,0.984252,,,626.46831794725,0.328084,2.013246,0.48854332272,0.6098589434,22,5,8.053,626.46831794725,0.984252,2.013246,0.48854332272,2.013246,0,-0.447388,284.2, -3.4, 0.6,0,0,1024,1024,1024,1024,0,0,0,0,287.3,1.3,0,92,4.038,4.019,0,0,0,0,1.606,70.7,626.46831794725,0.984252,11,AutoTakeoff,
1900,2024-02-08 21:50:03,40.429542649288,-86.9293309268596,1.312336,,,626.79640194725,0.656168,2.23694,0.8145177426,0.93855317964,22,5,8.053,626.79640194725,1.312336,2.23694,0.8145177426,2.23694,0,-0.894776,284.4, 0, -11.1,0,0,1024,1024,1024,1024,0,0,0,0,287.4,1.3,0,92,4.038,4.019,0,0,0,0,1.606,70.7,626.79640194725,1.312336,11,AutoTakeoff,
2000,2024-02-08 21:50:03,40.4295436184988,-86.9293310689335,1.64042,,,627.12448594725,0.656168,2.0356154,1.1662401948,1.29436355848,22,5,8.053,627.12448594725,1.64042,2.23694,1.1662401948,2.013246,-0.223694,-1.11847,283.2, 5.4, -15.8,0,0,1024,1024,1024,1024,0,0,0,0,287.4,1.3,0,92,4.038,4.019,0,0,0,0,1.606,70.7,627.12448594725,1.64042,11,AutoTakeoff,
2100,2024-02-08 21:50:03,40.4295444205661,-86.9293313012215,1.968504,,,627.45256994725,0.984252,1.5882274,1.45946855064,1.59402564156,22,5,8.053,627.45256994725,1.968504,2.23694,1.45946855064,1.565858,-0.223694,-1.342164,283, 7.4, -14.1,0,0,1024,1024,1024,1024,0,0,0,0,287.4,1.3,0,92,4.038,4.019,0,0,0,0,1.606,70.7,627.45256994725,1.968504,11,AutoTakeoff,
2200,2024-02-08 21:50:03,40.4295449706089,-86.9293314757076,1.968504,,,627.45256994725,1.312336,1.1408394,1.6621227566,1.8004757794,22,5,8.053,627.45256994725,1.968504,2.23694,1.6621227566,1.11847,-0.223694,-1.789552,283.9, 4.5, -10.8,0,0,1024,1024,1024,1024,0,0,0,0,287.4,1.3,0,92,4.038,4.019,0,0,0,0,1.606,70.7,627.45256994725,1.968504,11,AutoTakeoff,
2300,2024-02-08 21:50:04,40.4295454405127,-86.9293316134598,2.296588,,,627.78065394725,1.64042,0.9171454,1.83569231596,1.97613523384,22,5,8.053,627.78065394725,2.296588,2.23694,1.83569231596,0.894776,-0.223694,-2.23694,283.8, 4.1, -7.6,0,0,1024,1024,1024,1024,0,0,0,0,287.5,1.3,0,92,4.038,4.019,0,0,0,0,1.606,70.7,627.78065394725,2.296588,11,AutoTakeoff,
2400,2024-02-08 21:50:04,40.4295459452001,-86.9293317452697,2.624672,,,628.10873794725,1.968504,0.9171454,2.0221293298,2.16387474116,22,5,8.053,628.10873794725,2.624672,2.23694,2.0221293298,0.894776,-0.223694,-2.460634,283.5, 3.9, -7.7,0,0,1024,1024,1024,1024,0,0,0,0,287.5,1.3,0,92,4.038,4.019,0,0,0,0,1.606,70.7,628.10873794725,2.624672,11,AutoTakeoff,
2500,2024-02-08 21:50:04,40.4295463847822,-86.9293319067909,2.952756,,,628.43682194725,2.296588,0.7158208,2.18593510932,2.33041017956,22,5,8.053,628.43682194725,2.952756,2.23694,2.18593510932,0.671082,-0.223694,-2.460634,282.8, 5.7, -8.3,0,0,1024,1024,1024,1024,0,0,0,0,287.5,1.3,0,92,4.038,4.019,0,0,0,0,1.606,70.7,628.43682194725,2.952756,11,AutoTakeoff,
2600,2024-02-08 21:50:04,40.4295470401463,-86.9293321493428,3.608924,,,629.09298994725,2.624672,0.8052984,2.43089246624,2.57882882268,22,5,8.053,629.09298994725,3.608924,2.23694,2.43089246624,0.671082,-0.447388,-2.460634,283.2, 4.9, -8.5,0,0,1024,1024,1024,1024,0,0,0,0,287.5,1.3,0,92,4.038,4.019,0,0,0,0,1.606,70.7,629.09298994725,3.608924,11,AutoTakeoff,
2700,2024-02-08 21:50:04,40.4295473934404,-86.9293325192029,3.937008,,,629.42107394725,2.952756,0.8052984,2.5723097936,2.74364838176,22,5,8.053,629.42107394725,3.937008,2.23694,2.5723097936,0.671082,-0.447388,-2.460634,283.2, 6.3, -7.2,0,0,1024,1024,1024,1024,0,0,0,0,287.5,1.3,0,92,4.038,4.019,0,0,0,0,1.606,70.7,629.42107394725,3.937008,6,P-GPS,
2800,2024-02-08 21:50:04,40.4295477211029,-86.9293330495038,4.265092,,,629.74915794725,3.28084,0.6263432,2.71554142548,2.93333998888,22,5,8.053,629.74915794725,4.265092,2.23694,2.71554142548,0.447388,-0.447388,-2.23694,283.4, 9.2, -5.8,0,0,1024,1024,1024,1024,0,0,0,0,287.5,1.3,0,92,4.038,4.019,0,0,0,0,1.606,70.7,629.74915794725,4.265092,6,P-GPS,
2900,2024-02-08 21:50:04,40.4295479800255,-86.9293334310684,4.593176,,,630.07724194725,3.608924,0.6263432,2.83022646852,3.07530193568,22,5,8.053,630.07724194725,4.593176,2.23694,2.83022646852,0.447388,-0.447388,-1.342164,283.4, 9.8, -6.3,0,0,1024,1024,1024,1024,0,0,0,0,287.5,1.3,0,92,4.038,4.019,0,0,0,0,1.606,70.7,630.07724194725,4.593176,6,P-GPS,
3000,2024-02-08 21:50:04,40.4295482224748,-86.9293339370601,4.92126,,,630.40532594725,3.937008,0.7158208,2.95040363772,3.24135180976,22,5,8.053,630.40532594725,4.92126,2.23694,2.95040363772,0.671082,-0.223694,-0.894776,283.5, 6.1, -6,0,0,1024,1024,1024,1024,0,0,0,0,287.5,1.3,0,92,4.038,4.019,0,0,0,0,1.606,70.7,630.40532594725,4.92126,6,P-GPS,
3100,2024-02-08 21:50:04,40.4295485106442,-86.9293342069824,4.92126,,,630.40532594725,3.937008,0.7158208,3.0719161088,3.3704725488,22,5,8.053,630.40532594725,4.92126,2.23694,3.0719161088,0.671082,-0.447388,-0.671082,283.5, 5.5, -9,0,0,1024,1024,1024,1024,0,0,0,0,287.5,1.3,0,92,4.038,4.019,0,0,0,0,1.606,70.7,630.40532594725,4.92126,6,P-GPS,
3200,2024-02-08 21:50:04,40.4295488164269,-86.9293345478515,5.249344,,,630.73340994725,3.937008,1.006623,3.20595154616,3.5167980128,22,5,8.053,630.73340994725,5.249344,2.23694,3.20595154616,0.894776,-0.447388,-0.447388,283, 7.7, -10.4,0,0,1024,1024,1024,1024,0,0,0,0,287.5,1.3,0,92,4.038,4.019,0,0,0,0,1.606,70.7,630.73340994725,5.249344,6,P-GPS,
3300,2024-02-08 21:50:05,40.4295491702683,-86.9293348557682,5.577428,,,631.06149394725,3.937008,0.9171454,3.3548557504,3.6716536608,22,5,7.889,631.06149394725,5.577428,2.23694,3.3548557504,0.894776,-0.223694,-0.223694,283.5, 6.1, -9.1,0,0,1024,1024,1024,1024,0,0,0,0,287.5,1.3,0,92,3.979,3.977,0,0,0,0,5.029,70.7,631.06149394725,5.577428,6,P-GPS,
3400,2024-02-08 21:50:05,40.4295494640656,-86.9293350351161,5.577428,,,631.06149394725,3.937008,1.1408394,3.4722113972,3.789862326,22,5,7.889,631.06149394725,5.577428,2.23694,3.4722113972,1.11847,-0.223694,0,283.4, 7.7, -9,0,0,1024,1024,1024,1024,0,0,0,0,287.5,1.3,0,92,3.979,3.977,0,0,0,0,5.029,70.7,631.06149394725,5.577428,6,P-GPS,
3500,2024-02-08 21:50:05,40.429549943486,-86.9293351933961,5.577428,,,631.06149394725,3.937008,1.11847,3.6521326628,3.9702101008,22,5,7.889,631.06149394725,5.577428,2.23694,3.6521326628,1.11847,0,0,283.9, 5.9, -10.7,0,0,1024,1024,1024,1024,0,0,0,0,287.5,1.3,0,92,3.979,3.977,0,0,0,0,5.029,70.7,631.06149394725,5.577428,6,P-GPS,
3600,2024-02-08 21:50:05,40.4295504986421,-86.9293353062989,5.905512,,,631.38957794725,3.937008,1.342164,3.8545932992,4.1751641756,22,5,7.889,631.38957794725,5.905512,2.23694,3.8545932992,1.342164,0,0.223694,283.5, 6.5, -11.4,0,0,1024,1024,1024,1024,0,0,0,0,287.5,1.3,0,92,3.979,3.977,0,0,0,0,5.029,70.7,631.38957794725,5.905512,6,P-GPS,
3700,2024-02-08 21:50:05,40.4295510285964,-86.9293353974134,5.905512,,,631.38957794725,3.937008,1.342164,4.046752098,4.3701773052,22,5,7.889,631.38957794725,5.905512,2.23694,4.046752098,1.342164,0,0,284.7, 3, -11.4,0,0,1024,1024,1024,1024,0,0,0,0,287.5,1.3,0,92,3.979,3.977,0,0,0,0,5.029,70.7,631.38957794725,5.905512,6,P-GPS,
3800,2024-02-08 21:50:05,40.4295516130059,-86.9293353855289,5.905512,,,631.38957794725,3.937008,1.1408394,4.2501969864,4.5833990968,22,5,7.889,631.38957794725,5.905512,2.23694,4.2501969864,1.11847,-0.223694,0,284.7, 4.8, -11.1,0,0,1024,1024,1024,1024,0,0,0,0,287.5,1.3,0,92,3.979,3.977,0,0,0,0,5.029,70.7,631.38957794725,5.905512,6,P-GPS,
3900,2024-02-08 21:50:05,40.4295520792946,-86.9293355202199,5.905512,,,631.38957794725,3.937008,1.11847,4.4240158896,4.7576117008,22,5,7.889,631.38957794725,5.905512,2.23694,4.4240158896,1.11847,0,0,284.4, 8.7, -13.2,0,0,1024,1024,1024,1024,0,0,0,0,287.5,1.3,0,92,3.979,3.977,0,0,0,0,5.029,70.7,631.38957794725,5.905512,6,P-GPS,
4000,2024-02-08 21:50:05,40.4295525689221,-86.9293356084533,6.233596,,,631.71766194725,3.937008,1.11847,4.6025920108,4.9379266672,22,5,7.889,631.71766194725,6.233596,2.23694,4.6025920108,1.11847,0,0.223694,284.8, 7.1, -11.8,0,0,1024,1024,1024,1024,0,0,0,0,287.5,1.3,0,92,3.979,3.977,0,0,0,0,5.029,70.7,631.71766194725,6.233596,6,P-GPS,
4100,2024-02-08 21:50:05,40.4295530399462,-86.9293356896641,6.233596,,,631.71766194725,3.937008,1.11847,4.7742127512,5.1112534444,22,5,7.889,631.71766194725,6.233596,2.23694,4.7742127512,1.11847,0,0.223694,285.1, 6.5, -10.9,0,0,1024,1024,1024,1024,0,0,0,0,287.5,1.3,0,92,3.979,3.977,0,0,0,0,5.029,70.7,631.71766194725,6.233596,6,P-GPS,
4200,2024-02-08 21:50:06,40.4295535496622,-86.9293357451251,6.233596,,,631.71766194725,3.937008,1.11847,4.9577101324,5.2978348152,22,5,7.889,631.71766194725,6.233596,2.23694,4.9577101324,1.11847,0,0,285.3, 5.1, -11.8,0,0,1024,1024,1024,1024,0,0,0,0,287.5,1.3,0,92,3.979,3.977,0,0,0,0,5.029,70.7,631.71766194725,6.233596,6,P-GPS,
4300,2024-02-08 21:50:06,40.4295541444807,-86.9293357429643,6.233596,,,631.71766194725,3.937008,1.11847,5.1675198504,5.5148623812,22,5,7.889,631.71766194725,6.233596,2.23694,5.1675198504,1.11847,0,0,285.9, 3.6, -14.4,0,0,1024,1024,1024,1024,0,0,0,0,287.5,1.3,0,92,3.979,3.977,0,0,0,0,5.029,70.7,631.71766194725,6.233596,6,P-GPS,
4400,2024-02-08 21:50:06,40.4295546540339,-86.9293357074908,6.233596,,,631.71766194725,3.937008,1.1408394,5.3455054204,5.7010500512,22,5,7.889,631.71766194725,6.233596,2.23694,5.3455054204,1.11847,0.223694,0,286.3, 2.7, -15,0,0,1024,1024,1024,1024,0,0,0,0,287.5,1.3,0,92,3.979,3.977,0,0,0,0,5.029,70.7,631.71766194725,6.233596,6,P-GPS,
4500,2024-02-08 21:50:06,40.4295551398313,-86.9293356673356,6.233596,,,631.71766194725,3.937008,1.1408394,5.515256082,5.8786419204,22,5,7.889,631.71766194725,6.233596,2.23694,5.515256082,1.11847,0.223694,0,286.2, 3.5, -14,0,0,1024,1024,1024,1024,0,0,0,0,287.5,1.3,0,92,3.979,3.977,0,0,0,0,5.029,70.7,631.71766194725,6.233596,6,P-GPS,
4600,2024-02-08 21:50:06,40.4295556340575,-86.9293356161963,6.233596,,,631.71766194725,3.937008,0.9171454,5.6878610744,6.0595146296,22,5,7.889,631.71766194725,6.233596,2.23694,5.6878610744,0.894776,0.223694,0,286.3, 2.4, -13.6,0,0,1024,1024,1024,1024,0,0,0,0,287.5,1.3,0,92,3.979,3.977,0,0,0,0,5.029,70.7,631.71766194725,6.233596,6,P-GPS,
4700,2024-02-08 21:50:06,40.4295560955846,-86.9293355677579,6.233596,,,631.71766194725,3.937008,0.9171454,5.849409636,6.2284450812,22,5,7.889,631.71766194725,6.233596,2.23694,5.849409636,0.894776,0.223694,-0.223694,286.5, 2.9, -12.8,0,0,1024,1024,1024,1024,0,0,0,0,287.5,1.3,0,92,3.979,3.977,0,0,0,0,5.029,70.7,631.71766194725,6.233596,6,P-GPS,
4800,2024-02-08 21:50:06,40.429556559131,-86.9293354478325,6.233596,,,631.71766194725,3.937008,0.9171454,6.0081366752,6.4008204148,22,5,7.889,631.71766194725,6.233596,2.23694,6.0081366752,0.894776,0.223694,-0.223694,286.7, 1.6, -13.8,0,0,1024,1024,1024,1024,0,0,0,0,287.5,1.3,0,92,3.979,3.977,0,0,0,0,5.029,70.7,631.71766194725,6.233596,6,P-GPS,
4900,2024-02-08 21:50:06,40.4295569744037,-86.9293354105584,6.233596,,,631.71766194725,3.937008,0.894776,6.1546589896,6.55265769,22,5,7.917,631.71766194725,6.233596,2.23694,6.1546589896,0.894776,0,0,286.6, 2.9, -13.6,0,0,1024,1024,1024,1024,0,0,0,0,287.5,1.3,0,92,3.957,3.944,0,0,0,0,3.999,70.7,631.71766194725,6.233596,6,P-GPS,
5000,2024-02-08 21:50:06,40.4295573725778,-86.9293354328868,5.905512,,,631.38957794725,3.937008,0.894776,6.2984582068,6.6980645188,22,5,7.917,631.71766194725,6.233596,2.23694,6.2984582068,0.894776,0,0,286.6, 3.3, -12.3,0,0,1024,1024,1024,1024,0,0,0,0,287.5,1.3,0,92,3.957,3.944,0,0,0,0,3.999,70.7,631.38957794725,5.905512,6,P-GPS,"Home Point updated. RTH altitude adjusted to 100 m (Code: 120852)"
5100,2024-02-08 21:50:06,40.4295577805877,-86.9293353561778,5.905512,,,631.38957794725,3.937008,0.7158208,6.4407482376,6.8484582244,22,5,7.917,631.71766194725,6.233596,2.23694,6.4407482376,0.671082,0.223694,0,286.8, 3.8, -11.4,0,0,1024,1024,1024,1024,0,0,0,0,287.5,1.3,0,92,3.957,3.944,0,0,0,0,3.999,70.7,631.38957794725,5.905512,6,P-GPS,
5200,2024-02-08 21:50:06,40.4295581249385,-86.9293352717258,5.905512,,,631.38957794725,3.937008,0.7158208,6.560203622,6.9762797508,22,5,7.917,631.71766194725,6.233596,2.23694,6.560203622,0.671082,0.223694,0,287.1, 1.9, -12.6,0,0,1024,1024,1024,1024,0,0,0,0,287.5,1.3,0,92,3.957,3.944,0,0,0,0,3.999,70.7,631.38957794725,5.905512,6,P-GPS,
5300,2024-02-08 21:50:07,40.4295584098185,-86.9293351717879,5.577428,,,631.06149394725,3.937008,0.7158208,6.657808612,7.0838584944,22,5,7.917,631.71766194725,6.233596,2.23694,6.657808612,0.671082,0.223694,0,287.3, 1.9, -11,0,0,1024,1024,1024,1024,0,0,0,0,287.5,1.3,0,92,3.957,3.944,0,0,0,0,3.999,70.7,631.06149394725,5.577428,6,P-GPS,
5400,2024-02-08 21:50:07,40.4295586678747,-86.9293350365567,5.577428,,,631.06149394725,3.937008,0.4921268,6.7444884048,7.185203642,22,5,7.917,631.71766194725,6.233596,2.23694,6.7444884048,0.447388,0.223694,0,287.2, 1.7, -10.9,0,0,1024,1024,1024,1024,0,0,0,0,287.5,1.3,0,92,3.957,3.944,0,0,0,0,3.999,70.7,631.06149394725,5.577428,6,P-GPS,
5500,2024-02-08 21:50:07,40.4295588560447,-86.9293348001271,5.577428,,,631.06149394725,3.937008,0.4921268,6.8021327636,7.2802167684,22,5,7.917,631.71766194725,6.233596,2.23694,6.8021327636,0.447388,0.223694,0,287.2, 0.6, -12,0,0,1024,1024,1024,1024,0,0,0,0,287.5,1.3,0,92,3.957,3.944,0,0,0,0,3.999,70.7,631.06149394725,5.577428,6,P-GPS,
5600,2024-02-08 21:50:07,40.4295591136124,-86.9293346530114,5.249344,,,630.73340994725,3.937008,0.4921268,6.8891406404,7.3826774016,22,5,7.917,631.71766194725,6.233596,2.23694,6.8891406404,0.447388,0.223694,0,287.3, 1, -11,0,0,1024,1024,1024,1024,0,0,0,0,287.5,1.3,0,92,3.957,3.944,0,0,0,0,3.999,70.7,630.73340994725,5.249344,6,P-GPS,
5700,2024-02-08 21:50:07,40.4295593225092,-86.9293344862682,5.249344,,,630.73340994725,3.937008,0.4921268,6.9582679392,7.4718506328,22,5,7.917,631.71766194725,6.233596,2.23694,6.9582679392,0.447388,0.223694,0,287.7, -0.4, -10.5,0,0,1024,1024,1483,1024,0,0,70,0,287.5,1.3,0,92,3.957,3.944,0,0,0,0,3.999,70.7,630.73340994725,5.249344,6,P-GPS,
5800,2024-02-08 21:50:07,40.429559525726,-86.9293343126824,5.249344,,,630.73340994725,3.937008,0.4921268,7.0255251592,7.5603020792,22,5,7.917,631.71766194725,6.233596,2.23694,7.0255251592,0.447388,0.223694,0,287.7, 0.1, -11.5,0,0,1024,1024,1564,1024,0,0,82,0,287.5,1.3,0,92,3.957,3.944,0,0,0,0,3.999,70.7,630.73340994725,5.249344,6,P-GPS,
5900,2024-02-08 21:50:07,40.4295597596878,-86.9293341842938,5.249344,,,630.73340994725,3.937008,0.4921268,7.1058729308,7.6528217672,22,5,7.917,631.71766194725,6.233596,2.23694,7.1058729308,0.447388,0.223694,-0.223694,288, -0.5, -9.7,0,0,1024,1024,1564,1024,0,0,82,0,287.5,1.3,0,92,3.957,3.944,0,0,0,0,3.999,70.7,630.73340994725,5.249344,6,P-GPS,
6000,2024-02-08 21:50:07,40.4295600521173,-86.9293340411395,5.249344,,,630.73340994725,3.937008,0.7158208,7.2072508868,7.7666669152,22,5,7.917,631.71766194725,6.233596,2.23694,7.2072508868,0.671082,0.223694,-0.894776,288.1, 0.2, -11.3,0,0,1024,1024,1521,1024,0,0,75,0,287.5,1.3,0,92,3.957,3.944,0,0,0,0,3.999,70.7,630.73340994725,5.249344,6,P-GPS,
6100,2024-02-08 21:50:07,40.4295603819879,-86.9293339413817,5.249344,,,630.73340994725,4.265092,0.7158208,7.3238519404,7.8901577328,22,5,7.917,631.71766194725,6.233596,2.23694,7.3238519404,0.671082,0.223694,-1.565858,287.9, 1.7, -12.7,0,0,1024,1024,1423,1024,0,0,60,0,287.5,1.3,0,92,3.957,3.944,0,0,0,0,3.999,70.7,630.73340994725,5.249344,6,P-GPS,
6200,2024-02-08 21:50:08,40.4295607242478,-86.9293337899444,5.577428,,,631.06149394725,4.593176,0.6263432,7.4437666424,8.0219490756,22,5,7.917,631.71766194725,6.233596,2.23694,7.4437666424,0.447388,0.447388,-2.23694,287.9, 1.5, -13.7,0,0,1024,1024,1224,1024,0,0,30,0,287.5,1.3,0,92,3.957,3.944,0,0,0,0,3.999,70.7,631.06149394725,5.577428,6,P-GPS,
6300,2024-02-08 21:50:08,40.4295610077534,-86.9293335310063,5.577428,,,631.06149394725,4.92126,0.6263432,7.5399936796,8.1479005232,22,5,7.917,631.71766194725,6.233596,2.23694,7.5399936796,0.447388,0.447388,-2.23694,287.7, 0, -13.1,0,0,1024,1024,1024,1024,0,0,0,0,287.5,1.3,0,92,3.927,3.912,0,0,0,0,3.999,70.7,631.06149394725,5.577428,6,P-GPS,
6400,2024-02-08 21:50:08,40.4295614005862,-86.929333078855,5.905512,,,631.38957794725,5.249344,0.8052984,7.672900508,8.3384845188,22,5,7.917,631.71766194725,6.233596,2.23694,7.672900508,0.447388,0.671082,-1.789552,287.8, -0.5, -15,0,0,1024,1024,1024,1024,0,0,0,0,287.5,1.3,0,92,3.927,3.912,0,0,0,0,3.999,70.7,631.38957794725,5.905512,6,P-GPS,
6500,2024-02-08 21:50:08,40.4295616657034,-86.9293327468091,5.905512,,,631.38957794725,5.577428,0.8052984,7.7635501172,8.472113132,22,5,7.917,631.71766194725,6.233596,2.23694,7.7635501172,0.447388,0.671082,-1.11847,288.5, -2.7, -15.1,0,0,1024,1024,1024,1024,0,0,0,0,287.5,1.3,0,92,3.927,3.912,0,0,0,0,3.999,70.7,631.38957794725,5.905512,6,P-GPS,
6600,2024-02-08 21:50:08,40.429561984468,-86.9293324523976,5.905512,,,631.38957794725,5.577428,0.8052984,7.8754267612,8.6142719292,22,5,7.917,631.71766194725,6.233596,2.23694,7.8754267612,0.671082,0.447388,-0.447388,288.6, -2.2, -13.4,0,0,1024,1024,1024,1024,0,0,0,0,287.5,1.3,0,92,3.927,3.912,0,0,0,0,3.999,70.7,631.38957794725,5.905512,6,P-GPS,
6700,2024-02-08 21:50:08,40.4295623366483,-86.9293321497029,5.905512,,,631.38957794725,5.905512,0.8052984,8.0003611484,8.7678152412,22,5,7.917,631.71766194725,6.233596,2.23694,8.0003611484,0.671082,0.447388,-0.447388,288.5, -1.3, -12.9,0,0,1124,1024,1024,1024,15,0,0,0,287.5,1.3,0,92,3.927,3.912,0,0,0,0,3.999,70.7,631.38957794725,5.905512,6,P-GPS,
6800,2024-02-08 21:50:08,40.4295628229929,-86.9293316629785,5.905512,,,631.38957794725,5.905512,0.8052984,8.1741800516,8.9908795528,22,5,7.917,631.71766194725,6.233596,2.23694,8.1741800516,0.671082,0.447388,-0.223694,288.3, -0.6, -14.1,0,0,1640,1024,1024,1024,93,0,0,0,287.5,1.3,0,92,3.927,3.912,0,0,0,0,3.999,70.7,631.38957794725,5.905512,6,P-GPS,
6900,2024-02-08 21:50:08,40.4295631992026,-86.9293313266111,5.905512,,,631.38957794725,5.905512,0.8052984,8.3102692948,9.1569228652,22,5,7.917,631.71766194725,6.233596,2.23694,8.3102692948,0.671082,0.447388,0,288.5, -1.4, -14.8,0,0,1640,1024,1024,1024,93,0,0,0,287.5,1.3,0,92,3.927,3.912,0,0,0,0,3.999,70.7,631.38957794725,5.905512,6,P-GPS,
7000,2024-02-08 21:50:08,40.4295635666707,-86.9293309823206,5.577428,,,631.06149394725,5.905512,0.8052984,8.4442916088,9.3215882248,22,5,7.917,631.71766194725,6.233596,2.23694,8.4442916088,0.671082,0.447388,0,288.9, -5.5, -14.3,0,0,1677,1024,1024,1024,99,0,0,0,287.5,1.3,0,92,3.927,3.912,0,0,0,0,3.999,70.7,631.06149394725,5.577428,6,P-GPS,
7100,2024-02-08 21:50:08,40.4295639168969,-86.9293307864064,5.577428,,,631.06149394725,5.905512,0.894776,8.572506836,9.4604989904,22,5,7.917,631.71766194725,6.233596,2.23694,8.572506836,0.894776,0,0,290.5, -17.5, -13.7,0,0,1684,1024,1024,1024,100,0,0,0,287.5,1.3,0,92,3.927,3.912,0,0,0,0,3.999,70.7,631.06149394725,5.577428,6,P-GPS,
7200,2024-02-08 21:50:08,40.4295643222427,-86.9293308481698,5.249344,,,630.73340994725,5.905512,0.9171454,8.7202102528,9.6093507012,22,5,7.917,631.71766194725,6.233596,2.23694,8.7202102528,0.894776,-0.223694,0,290.8, -21.5, -11.9,0,0,1684,1024,1024,1024,100,0,0,0,287.5,1.3,0,92,3.927,3.912,0,0,0,0,3.999,70.7,630.73340994725,5.249344,6,P-GPS,
7300,2024-02-08 21:50:09,40.4295647861082,-86.9293312857356,5.249344,,,630.73340994725,5.905512,1.7448132,8.8891735128,9.8177168496,22,5,7.917,631.71766194725,6.233596,2.23694,8.8891735128,1.342164,-1.11847,0,290.5, -21.2, -12.8,0,0,1675,1024,1024,1024,99,0,0,0,287.5,1.3,0,92,3.927,3.912,0,0,0,0,3.999,70.7,630.73340994725,5.249344,6,P-GPS,
7400,2024-02-08 21:50:09,40.429565330738,-86.9293320837979,4.92126,,,630.40532594725,5.577428,2.0579848,9.0916341492,10.1153874628,22,5,7.917,631.71766194725,6.233596,2.23694,9.0916341492,1.342164,-1.565858,0,290.4, -20.3, -12,0,0,1684,1024,1024,1024,100,0,0,0,287.5,1.3,0,92,3.927,3.912,0,0,0,0,3.999,70.7,630.40532594725,4.92126,6,P-GPS,
7500,2024-02-08 21:50:09,40.4295659170756,-86.929333155564,4.593176,,,630.07724194725,5.577428,2.7290668,9.3186354688,10.481955716,22,5,7.917,631.71766194725,6.233596,2.7290668,9.3186354688,1.565858,-2.23694,0,290.5, -21, -10.9,0,0,1680,1024,1024,1024,99,0,0,0,287.5,1.3,0,92,3.927,3.912,0,0,0,0,3.999,70.7,630.07724194725,4.593176,6,P-GPS,
7600,2024-02-08 21:50:09,40.42956661446,-86.9293346159173,4.265092,,,629.74915794725,5.577428,3.3106712,9.6049543756,10.9607286972,22,5,7.917,631.71766194725,6.233596,3.3106712,9.6049543756,1.565858,-2.908022,0,290.5, -21.6, -12.4,0,0,1683,1024,1024,1024,100,0,0,0,287.5,1.3,0,92,3.927,3.912,0,0,0,0,3.999,70.7,629.74915794725,4.265092,6,P-GPS,
7700,2024-02-08 21:50:09,40.4295671818685,-86.9293363375496,3.937008,,,629.42107394725,5.577428,4.0041226,9.8695541216,11.4817588976,22,5,7.917,631.71766194725,6.233596,4.0041226,9.8695541216,1.789552,-3.579104,0,290.3, -21.6, -11.4,0,0,1683,1024,1024,1024,100,0,0,0,287.5,1.3,0,92,3.927,3.912,0,0,0,0,3.999,70.7,629.42107394725,3.937008,6,P-GPS,
7800,2024-02-08 21:50:09,40.4295679231818,-86.9293385491475,3.608924,,,629.09298994725,5.577428,4.6080964,10.2428152884,12.152887528,22,5,7.917,631.71766194725,6.233596,4.6080964,10.2428152884,1.789552,-4.250186,0,290.1, -21.7, -10.4,0,0,1683,1024,1024,1049,100,0,0,4,287.5,1.3,0,92,3.927,3.912,0,0,0,0,3.999,70.7,629.09298994725,3.608924,6,P-GPS,
7900,2024-02-08 21:50:09,40.4295686518454,-86.9293410187831,3.28084,,,628.76490594725,5.577428,4.6080964,10.6590882676,12.8884846644,22,5,7.932,631.71766194725,6.233596,4.6080964,10.6590882676,2.013246,-4.921268,0,290.2, -23.3, -9,0,0,1668,1024,1024,1366,98,0,0,52,287.5,1.3,0,92,3.951,3.936,0,0,0,0,3.575,70.7,628.76490594725,3.28084,6,P-GPS,
8000,2024-02-08 21:50:09,40.4295694719363,-86.929343985047,2.952756,,,628.43682194725,5.577428,5.9502604,11.1834977332,13.7649610704,22,5,7.932,631.71766194725,6.233596,5.9502604,11.1834977332,2.013246,-5.59235,0,290.3, -23.6, -9,0,0,1657,1024,1024,1381,96,0,0,54,287.8,1.3,0,92,3.951,3.936,0,0,0,0,3.575,70.7,628.43682194725,2.952756,6,P-GPS,
8100,2024-02-08 21:50:09,40.4295701359376,-86.9293473796931,2.952756,,,628.43682194725,5.577428,6.6660812,11.7423560188,14.73835349,22,5,7.932,631.71766194725,6.233596,6.6660812,11.7423560188,1.565858,-6.487126,0,284.6, -23.6, -10.2,0,0,1643,1024,1024,1456,94,0,0,65,288.8,1.3,0,92,3.951,3.936,0,0,0,0,3.575,70.7,628.43682194725,2.952756,6,P-GPS,
8200,2024-02-08 21:50:09,40.4295709298235,-86.9293510118492,2.624672,,,628.10873794725,5.577428,7.3371632,12.4244426548,15.7878613976,22,5,7.932,631.71766194725,6.233596,7.3371632,12.4244426548,1.565858,-7.158208,0,285.6, -23.3, -9.3,0,0,1636,1024,1024,1474,93,0,0,68,290.2,1.3,0,92,3.951,3.936,0,0,0,0,3.575,70.7,628.10873794725,2.624672,6,P-GPS,
8300,2024-02-08 21:50:10,40.4295716887371,-86.9293548044461,2.296588,,,627.78065394725,5.577428,7.7621818,13.1661093452,16.8769362356,22,5,7.932,631.71766194725,6.233596,7.7621818,13.1661093452,1.565858,-7.605596,0,287, -22.8, -9.8,0,0,1634,1024,1024,1343,92,0,0,48,292.2,1.3,0,92,3.951,3.936,0,0,0,0,3.575,70.7,627.78065394725,2.296588,6,P-GPS,
8400,2024-02-08 21:50:10,40.4295725014348,-86.9293591196009,1.968504,,,627.45256994725,5.577428,8.4780026,14.0496395572,18.1115163276,22,5,7.932,631.71766194725,6.233596,8.4780026,14.0496395572,1.789552,-8.276678,0,289, -21.9, -10.2,0,0,1635,1024,1024,1024,93,0,0,0,294.4,1.3,0,92,3.951,3.936,0,0,0,0,3.575,70.7,627.45256994725,1.968504,6,P-GPS,
8500,2024-02-08 21:50:10,40.4295717892186,-86.9293636976554,1.968504,,,627.45256994725,5.577428,8.9030212,14.5862209392,19.4092197812,22,5,7.932,631.71766194725,6.233596,8.9030212,14.5862209392,1.789552,-8.724066,0,290.7, -20.3, -9.5,0,0,1684,1024,1024,1024,100,0,0,0,296.2,1.3,0,92,3.951,3.936,0,0,0,0,3.575,70.7,627.45256994725,1.968504,6,P-GPS,
8600,2024-02-08 21:50:10,40.4295725049849,-86.9293685902891,1.64042,,,627.12448594725,5.577428,9.3504092,15.6597117872,20.7928812428,22,5,7.932,631.71766194725,6.233596,9.3504092,15.6597117872,1.789552,-9.171454,0,292.3, -20.1, -7.5,0,0,1684,1024,1024,1024,100,0,0,0,296.7,1.3,0,92,3.951,3.936,0,0,0,0,3.575,70.7,627.12448594725,1.64042,6,P-GPS,
8700,2024-02-08 21:50:10,40.4295732592866,-86.9293735034505,1.64042,,,627.12448594725,5.577428,9.8201666,16.7927170728,22.184876038,22,5,7.932,631.71766194725,6.233596,9.8201666,16.7927170728,2.013246,-9.618842,0,292.6, -21, -6.7,0,0,1684,1024,1024,1024,100,0,0,0,296.7,1.3,0,92,3.951,3.936,0,0,0,0,3.575,70.7,627.12448594725,1.64042,6,P-GPS,
8800,2024-02-08 21:50:10,40.4295741610603,-86.9293789456524,1.312336,,,626.79640194725,5.577428,10.5359874,18.1063982172,23.7316936728,22,5,7.932,631.71766194725,6.233596,10.5359874,18.1063982172,2.23694,-10.289924,0,292.4, -22, -5.9,0,0,1684,1024,1024,1024,100,0,0,0,296.7,1.3,0,92,3.951,3.936,0,0,0,0,3.575,70.7,626.79640194725,1.312336,6,P-GPS,
8900,2024-02-08 21:50:10,40.4295750897814,-86.9293844272892,1.312336,,,626.79640194725,5.577428,11.0057448,19.4690951112,25.291339392,22,5,7.932,631.71766194725,6.233596,11.0057448,19.4690951112,2.460634,-10.737312,0,292.6, -21.9, -4.6,0,0,1658,1024,1024,1024,96,0,0,0,296.7,1.3,0,92,3.951,3.936,0,0,0,0,3.575,70.7,626.79640194725,1.312336,6,P-GPS,
9000,2024-02-08 21:50:10,40.4295762556757,-86.9293903904285,1.312336,,,626.79640194725,5.577428,11.5649798,21.0179468668,27.0012147748,22,5,7.932,631.71766194725,6.233596,11.5649798,21.0179468668,2.908022,-11.1847,0,292.4, -19.6, -3.5,0,0,1684,1024,1024,1024,100,0,0,0,296.7,1.3,0,92,3.951,3.936,0,0,0,0,3.575,70.7,626.79640194725,1.312336,6,P-GPS,
9100,2024-02-08 21:50:10,40.4295774981654,-86.9293962671349,1.312336,,,626.79640194725,5.577428,12.0571066,22.5875007228,28.6951124668,22,5,7.932,631.71766194725,6.233596,12.0571066,22.5875007228,3.131716,-11.632088,-0.223694,292.1, -17.5, -7.1,0,0,1679,1024,1024,1024,99,0,0,0,296.7,1.3,0,92,3.951,3.936,0,0,0,0,3.575,70.7,626.79640194725,1.312336,6,P-GPS,
9200,2024-02-08 21:50:11,40.4295788765521,-86.9294026321865,1.312336,,,626.79640194725,5.577428,12.3255394,24.3132225628,30.532973418,22,5,7.932,631.71766194725,6.233596,12.3255394,24.3132225628,3.35541,-11.855782,0,292.2, -18.9, -8.2,0,0,1624,1024,1024,1024,91,0,0,0,296.7,1.3,0,92,3.951,3.936,0,0,0,0,3.575,70.7,626.79640194725,1.312336,6,P-GPS,
9300,2024-02-08 21:50:11,40.4295802285058,-86.9294088935187,1.312336,,,626.79640194725,5.577428,12.750558,26.0249680244,32.3405194076,22,5,7.932,631.71766194725,6.233596,12.750558,26.0249680244,3.35541,-12.30317,0,292.2, -18.6, -6,0,0,1684,1024,1024,1024,100,0,0,0,296.7,1.3,0,92,3.942,3.925,0,0,0,0,3.575,70.7,626.79640194725,1.312336,6,P-GPS,
9400,2024-02-08 21:50:11,40.4295817058042,-86.9294157894113,1.312336,,,626.79640194725,5.577428,13.2426848,27.9218840956,34.330053592,22,5,7.932,631.71766194725,6.233596,13.2426848,27.9218840956,3.579104,-12.750558,0,292, -15.7, -5.5,0,0,1684,1024,1024,1024,100,0,0,0,296.7,1.3,0,92,3.942,3.925,0,0,0,0,3.575,70.7,626.79640194725,1.312336,6,P-GPS,
9500,2024-02-08 21:50:11,40.4295831851804,-86.9294224521156,1.312336,,,626.79640194725,5.577428,13.2426848,29.77608363,36.257547092,22,5,7.932,631.71766194725,6.233596,13.2426848,29.77608363,3.579104,-12.974252,0,292, -16.1, -3.4,0,0,1684,1024,1024,1024,100,0,0,0,296.7,1.3,0,92,3.942,3.925,0,0,0,0,3.575,70.7,626.79640194725,1.312336,6,P-GPS,
9600,2024-02-08 21:50:11,40.4295848370349,-86.9294296123484,1.312336,,,626.79640194725,5.577428,13.9585056,31.790027264,38.335631148,22,5,7.932,631.71766194725,6.233596,13.9585056,31.790027264,3.802798,-13.42164,0,292.1, -16.4, -4.5,0,0,1684,1024,1024,1024,100,0,0,0,296.7,1.3,0,92,3.942,3.925,0,0,0,0,3.575,70.7,626.79640194725,1.312336,6,P-GPS,
9700,2024-02-08 21:50:11,40.4295864341346,-86.9294366020565,1.64042,,,627.12448594725,5.577428,14.2269384,33.760499768,40.362206016,21,5,7.932,631.71766194725,6.233596,14.2269384,33.760499768,4.026492,-13.645334,0,291.9, -15.9, -4.1,0,0,1684,1024,1024,1024,100,0,0,0,296.7,1.3,0,92,3.942,3.925,0,0,0,0,3.575,70.7,627.12448594725,1.64042,6,P-GPS,
9800,2024-02-08 21:50:11,40.4295881686034,-86.9294441433137,1.64042,,,627.12448594725,5.577428,14.651957,35.89567044,42.550198212,21,5,7.932,631.71766194725,6.233596,14.651957,35.89567044,4.026492,-14.092722,0,291.6, -15.1, -2.7,0,0,1684,1024,1024,1024,100,0,0,0,296.7,1.3,0,92,3.942,3.925,0,0,0,0,3.575,70.7,627.12448594725,1.64042,6,P-GPS,
9900,2024-02-08 21:50:11,40.4295898652596,-86.9294514783927,1.968504,,,627.45256994725,5.577428,14.9427592,37.979988092,44.679135288,22,5,7.932,631.71766194725,6.233596,14.9427592,37.979988092,4.250186,-14.316416,0,291.6, -14.5, -2.9,0,0,1684,1024,1024,1024,100,0,0,0,296.7,1.3,0,92,3.942,3.925,0,0,0,0,3.575,70.7,627.45256994725,1.968504,6,P-GPS,
10000,2024-02-08 21:50:11,40.4295917327918,-86.9294593417919,2.296588,,,627.78065394725,5.905512,15.211192,40.227691576,46.96686502,22,5,7.932,631.71766194725,6.233596,15.211192,40.227691576,4.47388,-14.54011,-0.223694,291.7, -14.2, -3.5,0,0,1684,1024,1024,1024,100,0,0,0,296.7,1.3,0,92,3.942,3.925,0,0,0,0,3.575,70.7,627.78065394725,2.296588,6,P-GPS,
10100,2024-02-08 21:50:11,40.4295935496597,-86.9294669732632,2.296588,,,627.78065394725,5.905512,15.434886,42.414043352,49.187665616,22,5,7.932,631.71766194725,6.233596,15.434886,42.414043352,4.47388,-14.763804,0,291.7, -15, -3.8,0,0,1024,1024,1024,1024,0,0,0,0,296.7,1.3,0,92,3.942,3.925,0,0,0,0,3.575,70.7,627.78065394725,2.296588,6,P-GPS,
10200,2024-02-08 21:50:11,40.4295955309876,-86.9294752430764,2.624672,,,628.10873794725,5.905512,15.7033188,44.789371512,51.595474092,22,5,7.932,631.71766194725,6.233596,15.7033188,44.789371512,4.697574,-14.987498,0,291.7, -13.7, -3.4,0,0,1024,1024,1024,1024,0,0,0,0,296.7,1.3,0,92,3.942,3.925,0,0,0,0,3.575,70.7,628.10873794725,2.624672,6,P-GPS,
10300,2024-02-08 21:50:12,40.4295973963897,-86.9294830609183,2.624672,,,628.10873794725,5.905512,15.7033188,47.036418828,53.870736632,22,5,7.932,631.71766194725,6.233596,15.7033188,47.036418828,4.697574,-14.987498,0,291.3, 4, -1.8,0,0,1024,1024,1024,1024,0,0,0,0,296.7,1.3,0,92,3.942,3.925,0,0,0,0,3.575,70.7,628.10873794725,2.624672,6,P-GPS,
10400,2024-02-08 21:50:12,40.4295993122443,-86.9294910692724,2.952756,,,628.43682194725,5.905512,15.0098674,49.341537012,56.202101536,22,5,7.932,631.71766194725,6.233596,15.7033188,49.341537012,4.47388,-14.316416,-0.447388,291, 22.4, -1.4,0,0,1024,1024,1048,1024,0,0,4,0,296.7,1.3,0,92,3.942,3.925,0,0,0,0,3.575,70.7,628.43682194725,2.952756,6,P-GPS,
10500,2024-02-08 21:50:12,40.4296010365059,-86.9294981790861,3.28084,,,628.76490594725,6.233596,13.8019198,51.394030516,58.274608164,22,5,7.932,631.71766194725,6.233596,15.7033188,51.394030516,4.026492,-13.197946,-0.447388,291.2, 25, 0.6,0,0,1024,1024,1668,1024,0,0,98,0,296.7,1.3,0,92,3.942,3.925,0,0,0,0,3.575,70.7,628.76490594725,3.28084,6,P-GPS,
10600,2024-02-08 21:50:12,40.4296027413826,-86.9295051185552,3.28084,,,628.76490594725,6.233596,12.6610804,53.401904596,60.299870696,22,5,7.932,631.71766194725,6.233596,15.7033188,53.401904596,3.802798,-12.079476,0,291.4, 24.5, 1.5,0,0,1024,1024,1668,1024,0,0,98,0,296.7,1.3,0,92,3.942,3.925,0,0,0,0,3.575,70.7,628.76490594725,3.28084,6,P-GPS,
10700,2024-02-08 21:50:12,40.4296043046823,-86.9295111387761,3.28084,,,628.76490594725,6.233596,11.520241,55.158138248,62.066274952,22,5,7.932,631.71766194725,6.233596,15.7033188,55.158138248,3.579104,-10.961006,-0.223694,291.3, 24.5, 3.3,0,0,1024,1024,1684,1024,0,0,100,0,296.7,1.3,0,92,3.942,3.925,0,0,0,0,3.575,70.7,628.76490594725,3.28084,6,P-GPS,
10800,2024-02-08 21:50:12,40.429605878987,-86.9295167030642,3.608924,,,629.09298994725,6.56168,9.9767524,56.801511004,63.714897052,22,5,7.932,631.71766194725,6.233596,15.7033188,56.801511004,3.35541,-9.395148,-1.11847,291.2, 25.1, 1.3,0,0,1024,1024,1684,1024,0,0,100,0,296.7,1.3,0,92,3.942,3.925,0,0,0,0,3.575,70.7,629.09298994725,3.608924,6,P-GPS,
10900,2024-02-08 21:50:12,40.4296072728276,-86.9295212114323,3.937008,,,629.42107394725,6.889764,8.4332638,58.15124858,65.066275048,22,5,7.932,631.71766194725,6.233596,15.7033188,58.15124858,3.131716,-7.82929,-1.789552,291.1, 23.9, -1.2,0,0,1024,1024,1684,1024,0,0,100,0,296.7,1.3,0,92,3.942,3.925,0,0,0,0,3.575,70.7,629.42107394725,3.937008,6,P-GPS,
11000,2024-02-08 21:50:12,40.4296085845002,-86.9295251922005,4.265092,,,629.74915794725,7.217848,8.4332638,59.355644944,66.270999496,22,5,7.886,631.71766194725,6.233596,15.7033188,59.355644944,2.684328,-6.487126,-2.23694,291.2, 23.1, -0.6,0,0,1024,1024,1684,1024,0,0,100,0,296.7,1.3,0,92,3.965,3.981,0,0,0,0,4.735,70.88,629.74915794725,4.265092,6,P-GPS,
11100,2024-02-08 21:50:12,40.4296098216617,-86.9295281379365,4.92126,,,630.40532594725,7.545932,5.6147194,60.287731588,67.205382728,22,5,7.886,631.71766194725,6.233596,15.7033188,60.287731588,2.23694,-5.144962,-3.131716,291.2, 21.8, -1.1,0,0,1024,1024,1684,1024,0,0,100,0,296.7,1.3,0,92,3.965,3.981,0,0,0,0,4.735,70.88,630.40532594725,4.92126,6,P-GPS,
11200,2024-02-08 21:50:12,40.4296107797567,-86.9295307287581,5.249344,,,630.73340994725,8.2021,4.2949248,61.08760038,68.00525152,22,5,7.886,631.71766194725,6.233596,15.7033188,61.08760038,2.013246,-3.802798,-3.802798,290.8, 21.9, -3.3,0,0,1024,1024,1684,1024,0,0,100,0,296.7,1.3,0,92,3.965,3.981,0,0,0,0,4.735,70.88,630.73340994725,5.249344,6,P-GPS,
11300,2024-02-08 21:50:13,40.4296114858761,-86.9295324795614,5.905512,,,631.38957794725,8.858268,3.1093466,61.63714108,68.555776472,22,5,7.886,631.71766194725,6.233596,15.7033188,61.63714108,1.565858,-2.684328,-4.47388,290.2, 22.7, -3.9,0,0,1024,1024,1684,1024,0,0,100,0,296.7,1.3,0,92,3.965,3.981,0,0,0,0,4.735,70.88,631.38957794725,5.905512,6,P-GPS,
11400,2024-02-08 21:50:13,40.429612006102,-86.9295335887817,6.56168,,,632.04574594725,9.514436,1.8119214,61.99639306,68.91732504,22,5,7.886,632.04574594725,6.56168,15.7033188,61.99639306,0.894776,-1.565858,-5.59235,290.1, 19, -5.3,0,0,1024,1024,1684,1024,0,0,100,0,296.7,1.3,0,92,3.965,3.981,0,0,0,0,4.735,70.88,632.04574594725,6.56168,6,P-GPS,
11500,2024-02-08 21:50:13,40.4296121740076,-86.9295338360153,7.545932,,,633.02999794725,10.498688,0.9395148,62.084319572,69.009516644,22,5,7.886,633.02999794725,7.545932,15.7033188,62.084319572,0.671082,-0.671082,-6.039738,290.8, 10, -7.4,0,0,1024,1024,1684,1024,0,0,100,0,296.7,1.3,0,92,3.965,3.981,0,0,0,0,4.735,70.88,633.02999794725,7.545932,6,P-GPS,
11600,2024-02-08 21:50:13,40.4296124491398,-86.929534165,8.2021,,,633.68616594725,11.154856,0.4921268,62.20964766,69.14534342,22,5,7.886,633.68616594725,8.2021,15.7033188,62.20964766,0.223694,-0.447388,-6.263432,291.1, 6.6, -7.5,0,0,1024,1024,1684,1024,0,0,100,0,296.7,1.3,0,92,3.965,3.981,0,0,0,0,4.735,70.88,633.68616594725,8.2021,6,P-GPS,
11700,2024-02-08 21:50:13,40.4296125545196,-86.9295343450682,9.186352,,,634.67041794725,12.139108,0.223694,62.271327452,69.208335548,22,5,7.886,634.67041794725,9.186352,15.7033188,62.271327452,0,-0.223694,-6.487126,291.3, 4.8, -5.5,0,0,1024,1024,1684,1024,0,0,100,0,296.7,1.3,0,92,3.965,3.981,0,0,0,0,4.735,70.88,634.67041794725,9.186352,6,P-GPS,
11800,2024-02-08 21:50:13,40.4296125686382,-86.9295344568906,10.170604,,,635.65466994725,13.12336,0,62.30151118,69.239831612,22,5,7.886,635.65466994725,10.170604,15.7033188,62.30151118,0,0,-6.487126,291.2, 4.3, -4.7,0,0,1024,1024,1684,1024,0,0,100,0,296.7,1.3,0,92,3.965,3.981,0,0,0,0,4.735,70.88,635.65466994725,10.170604,6,P-GPS,
11900,2024-02-08 21:50:13,40.4296125464458,-86.9295342661983,11.154856,,,636.63892194725,14.107612,0,62.250001992,69.293309304,22,5,7.886,636.63892194725,11.154856,15.7033188,62.30151118,0,0,-6.487126,291.2, 4.9, -4.9,0,0,1024,1024,1684,1024,0,0,100,0,296.7,1.3,0,92,3.965,3.981,0,0,0,0,4.735,70.88,636.63892194725,11.154856,6,P-GPS,
12000,2024-02-08 21:50:13,40.429612690156,-86.9295342328857,12.139108,,,637.62317394725,15.091864,0.223694,62.26378152,69.346458912,22,5,7.886,637.62317394725,12.139108,15.7033188,62.30151118,0.223694,0,-6.487126,291.3, 2.9, -4.9,0,0,1024,1024,1684,1024,0,0,100,0,296.7,1.3,0,92,3.965,3.981,0,0,0,0,4.735,70.88,637.62317394725,12.139108,6,P-GPS,
12100,2024-02-08 21:50:13,40.4296128050525,-86.9295341509547,13.12336,,,638.60742594725,16.076116,0.223694,62.261156848,69.394359176,21,5,7.886,638.60742594725,13.12336,15.7033188,62.30151118,0.223694,0,-6.71082,291.2, 2.2, -4.9,0,0,1024,1024,1684,1024,0,0,100,0,296.7,1.3,0,92,3.965,3.981,0,0,0,0,4.735,70.88,638.60742594725,13.12336,6,P-GPS,
12200,2024-02-08 21:50:14,40.4296129180567,-86.9295340520972,14.107612,,,639.59167794725,17.060368,0.223694,62.253610916,69.44389986,21,5,7.886,639.59167794725,14.107612,15.7033188,62.30151118,0.223694,0,-6.487126,291, 3.5, -6,0,0,1024,1024,1684,1024,0,0,100,0,296.7,1.3,0,92,3.965,3.981,0,0,0,0,4.735,70.88,639.59167794725,14.107612,6,P-GPS,
12300,2024-02-08 21:50:14,40.4296132242368,-86.9295338129666,15.091864,,,640.57592994725,18.04462,0.447388,62.241143724,69.573821124,21,5,7.886,640.57592994725,15.091864,15.7033188,62.30151118,0.447388,0,-6.71082,291.1, 3.6, -7.7,0,0,1024,1024,1684,1024,0,0,100,0,296.7,1.3,0,92,3.965,3.981,0,0,0,0,4.735,70.88,640.57592994725,15.091864,6,P-GPS,
12400,2024-02-08 21:50:14,40.4296134574625,-86.9295336599086,16.076116,,,641.56018194725,19.028872,0.223694,62.23917522,69.668965484,21,5,7.886,641.56018194725,16.076116,15.7033188,62.30151118,0.223694,0,-6.487126,291.1, 3.7, -9.1,0,0,1024,1024,1684,1024,0,0,100,0,296.7,1.3,0,92,3.965,3.981,0,0,0,0,4.735,70.88,641.56018194725,16.076116,6,P-GPS,
12500,2024-02-08 21:50:14,40.4296136230329,-86.9295335430443,17.060368,,,642.54443394725,20.013124,0.223694,62.235566296,69.73753504,22,5,7.886,642.54443394725,17.060368,15.7033188,62.30151118,0.223694,0,-6.487126,291.1, 4.8, -7.4,0,0,1024,1024,1684,1024,0,0,100,0,296.7,1.3,0,92,3.965,3.981,0,0,0,0,4.735,70.88,642.54443394725,17.060368,6,P-GPS,
12600,2024-02-08 21:50:14,40.4296137419061,-86.929533402411,18.04462,,,643.52868594725,20.997376,0.223694,62.219162096,69.795933992,22,5,7.823,643.52868594725,18.04462,15.7033188,62.30151118,0.223694,0,-6.71082,291.2, 2.4, -7.8,0,0,1024,1024,1684,1024,0,0,100,0,296.7,1.3,0,91,3.932,3.906,0,0,0,0,6.669,71.06,643.52868594725,18.04462,6,P-GPS,
12700,2024-02-08 21:50:14,40.4296138325681,-86.92953321496,18.700788,,,644.18485394725,21.981628,0,62.186353696,69.857613784,22,5,7.823,644.18485394725,18.700788,15.7033188,62.30151118,0,0,-6.487126,291.4, 1, -8.3,0,0,1024,1024,1684,1024,0,0,100,0,296.7,1.3,0,91,3.932,3.906,0,0,0,0,6.669,71.06,644.18485394725,18.700788,6,P-GPS,
12800,2024-02-08 21:50:14,40.4296140332901,-86.9295330982758,19.68504,,,645.16910594725,22.96588,0,62.188650284,69.93766628,22,5,7.823,645.16910594725,19.68504,15.7033188,62.30151118,0,0,-6.487126,290.9, 3.6, -9.5,0,0,1024,1024,1684,1024,0,0,100,0,296.7,1.3,0,91,3.932,3.906,0,0,0,0,6.669,71.06,645.16910594725,19.68504,6,P-GPS,
12900,2024-02-08 21:50:14,40.4296140821564,-86.9295330188657,20.669292,,,646.15335794725,23.622048,0,62.176511176,69.965881504,21,5,7.823,646.15335794725,20.669292,15.7033188,62.30151118,0,0,-6.487126,291.1, 3.2, -7.3,0,0,1024,1024,1232,1024,0,0,32,0,296.7,1.3,0,91,3.932,3.906,0,0,0,0,6.669,71.06,646.15335794725,20.669292,6,P-GPS,
13000,2024-02-08 21:50:14,40.429614104427,-86.9295329558419,21.653544,,,647.13760994725,24.6063,0.223694,62.164043984,69.98523846,21,5,7.823,647.13760994725,21.653544,15.7033188,62.30151118,0,0.223694,-6.487126,291.2, 3, -4.5,0,0,1024,1024,1024,1024,0,0,0,0,296.7,1.3,0,91,3.932,3.906,0,0,0,0,6.669,71.06,647.13760994725,21.653544,6,P-GPS,
13100,2024-02-08 21:50:14,40.4296140570393,-86.9295328071055,22.309712,,,647.79377794725,25.590552,0.223694,62.11942456,70.030185968,22,5,7.823,647.79377794725,22.309712,15.7033188,62.30151118,0,0.223694,-6.039738,291.4, 0.9, -7.5,0,0,1024,1024,1024,1024,0,0,0,0,296.7,1.3,0,91,3.932,3.906,0,0,0,0,6.669,71.06,647.79377794725,22.309712,6,P-GPS,
13200,2024-02-08 21:50:14,40.4296139821993,-86.929532969347,23.293964,,,648.77802994725,26.574804,0.447388,62.148295952,70.082679408,22,5,7.823,648.77802994725,23.293964,15.7033188,62.30151118,0,0.447388,-5.368656,291.6, -2, -10.7,0,0,1024,1024,1024,1024,0,0,0,0,296.7,1.3,0,91,3.932,3.906,0,0,0,0,6.669,71.06,648.77802994725,23.293964,6,P-GPS,
13300,2024-02-08 21:50:15,40.4296139428496,-86.929532697624,23.950132,,,649.43419794725,27.230972,0.447388,62.074148968,70.159451064,22,5,7.823,649.43419794725,23.950132,15.7033188,62.30151118,0,0.447388,-4.250186,291.4, -1.5, -11.1,0,0,1024,1024,1024,1024,0,0,0,0,296.7,1.3,0,91,3.932,3.906,0,0,0,0,6.669,71.06,649.43419794725,23.950132,6,P-GPS,
13400,2024-02-08 21:50:15,40.4296139174556,-86.9295323817844,24.6063,,,650.09036594725,27.559056,0.223694,61.990815632,70.24770566,22,5,7.823,650.09036594725,24.6063,15.7033188,62.30151118,0,0.223694,-3.579104,291.5, -2.1, -9.4,0,0,1024,1024,1024,1024,0,0,0,0,296.7,1.3,0,91,3.932,3.906,0,0,0,0,6.669,71.06,650.09036594725,24.6063,6,P-GPS,
13500,2024-02-08 21:50:15,40.4296139146905,-86.9295320814306,24.934384,,,650.41844994725,28.215224,0.223694,61.915356312,70.331038996,22,5,7.823,650.41844994725,24.934384,15.7033188,62.30151118,0,0.223694,-2.908022,291.7, -2.9, -9.8,0,0,1024,1024,1479,1024,0,0,69,0,296.7,1.3,0,91,3.932,3.906,0,0,0,0,6.669,71.06,650.41844994725,24.934384,6,P-GPS,
13600,2024-02-08 21:50:15,40.4296139371533,-86.9295316465658,25.590552,,,651.07461794725,28.543308,0.223694,61.810041348,70.452101992,22,5,7.823,651.07461794725,25.590552,15.7033188,62.30151118,0,0.223694,-2.013246,291.6, -3, -10,0,0,1024,1024,1631,1024,0,0,92,0,296.7,1.3,0,91,3.932,3.906,0,0,0,0,6.669,71.06,651.07461794725,25.590552,6,P-GPS,
13700,2024-02-08 21:50:15,40.4296139849383,-86.9295314364262,25.590552,,,651.07461794725,28.871392,0,61.76509384,70.513125616,22,5,7.823,651.07461794725,25.590552,15.7033188,62.30151118,0,0,-1.342164,291.8, -3.5, -8.9,0,0,1024,1024,1621,1024,0,0,90,0,296.7,1.3,0,91,3.932,3.906,0,0,0,0,6.669,71.06,651.07461794725,25.590552,6,P-GPS,
13800,2024-02-08 21:50:15,40.4296140535349,-86.9295313114588,25.918636,,,651.40270194725,28.871392,0,61.744752632,70.555776536,22,5,7.823,651.40270194725,25.918636,15.7033188,62.30151118,0,0,-1.789552,292, -3, -6.9,0,0,1024,1024,1621,1024,0,0,90,0,296.7,1.3,0,91,3.932,3.906,0,0,0,0,6.669,71.06,651.40270194725,25.918636,6,P-GPS,
13900,2024-02-08 21:50:15,40.4296140646051,-86.9295312650012,26.574804,,,652.05886994725,29.199476,0,61.734910112,70.569556064,22,5,7.823,652.05886994725,26.574804,15.7033188,62.30151118,0,0,-2.684328,291.9, -1.7, -7.8,0,0,1024,1024,1599,1024,0,0,87,0,296.7,1.3,0,91,3.932,3.906,0,0,0,0,6.669,71.06,652.05886994725,26.574804,6,P-GPS,
14000,2024-02-08 21:50:15,40.429613959147,-86.9295312205244,26.902888,,,652.38695394725,29.855644,0.223694,61.707022972,70.609910396,22,5,7.823,652.38695394725,26.902888,15.7033188,62.30151118,0,-0.223694,-3.579104,291.8, 0.1, -9.5,0,0,1024,1024,1554,1024,0,0,80,0,296.7,1.3,0,91,3.923,3.882,0,0,0,0,6.669,71.06,652.38695394725,26.902888,6,P-GPS,
14100,2024-02-08 21:50:15,40.4296139301835,-86.9295313096582,27.559056,,,653.04312194725,30.183728,0.223694,61.724739508,70.636813284,22,5,7.823,653.04312194725,27.559056,15.7033188,62.30151118,0,-0.223694,-3.802798,291.1, 3.1, -10.2,0,0,1024,1024,1554,1024,0,0,80,0,296.7,1.3,0,91,3.923,3.882,0,0,0,0,6.669,71.06,653.04312194725,27.559056,6,P-GPS,
14200,2024-02-08 21:50:16,40.429613870348,-86.9295314321046,28.215224,,,653.69928994725,30.839896,0.223694,61.745736884,70.677167616,22,5,7.823,653.69928994725,28.215224,15.7033188,62.30151118,0,-0.223694,-4.026492,291.1, 2.8, -9,0,0,1024,1024,1544,1024,0,0,79,0,296.7,1.3,0,91,3.923,3.882,0,0,0,0,6.669,71.06,653.69928994725,28.215224,6,P-GPS,
14300,2024-02-08 21:50:16,40.429613767059,-86.9295315048521,28.871392,,,654.35545794725,31.496064,0.223694,61.747705388,70.719818536,22,5,7.823,654.35545794725,28.871392,15.7033188,62.30151118,-0.223694,-0.223694,-4.250186,291, 2.2, -7.4,0,0,1024,1024,1024,1024,0,0,0,0,296.7,1.3,0,91,3.923,3.882,0,0,0,0,6.669,71.06,654.35545794725,28.871392,6,P-GPS,
14400,2024-02-08 21:50:16,40.4296136429195,-86.9295315444671,29.52756,,,655.01162594725,32.152232,0.223694,61.737862868,70.766406464,22,5,7.823,655.01162594725,29.52756,15.7033188,62.30151118,-0.223694,0,-4.250186,291.1, 2.9, -6.9,0,0,1024,1024,1024,1024,0,0,0,0,296.7,1.3,0,91,3.923,3.882,0,0,0,0,6.669,71.06,655.01162594725,29.52756,6,P-GPS,
14500,2024-02-08 21:50:16,40.4296134917152,-86.9295315295215,30.183728,,,655.66779394725,32.8084,0.223694,61.710303812,70.82185266,22,5,7.823,655.66779394725,30.183728,15.7033188,62.30151118,-0.223694,0,-3.579104,290.9, 3.8, -7.9,0,0,1024,1024,1024,1024,0,0,0,0,296.7,1.3,0,91,3.923,3.882,0,0,0,0,6.669,71.06,655.66779394725,30.183728,6,P-GPS,
14600,2024-02-08 21:50:16,40.4296133631756,-86.9295315376245,30.511812,,,655.99587794725,33.136484,0.223694,61.692259192,70.868768672,22,5,7.823,655.99587794725,30.511812,15.7033188,62.30151118,-0.223694,0,-2.460634,291.2, 1.2, -7.1,0,0,1024,1024,1024,1024,0,0,0,0,296.7,1.3,0,91,3.923,3.882,0,0,0,0,6.669,71.06,655.99587794725,30.511812,6,P-GPS,
14700,2024-02-08 21:50:16,40.4296132752299,-86.9295314614557,30.839896,,,656.32396194725,33.464568,0,61.659122708,70.9071545,22,5,7.823,656.32396194725,30.839896,15.7033188,62.30151118,0,0,-1.789552,291.4, -1, -5.8,0,0,1024,1024,1024,1024,0,0,0,0,296.7,1.3,0,91,3.923,3.882,0,0,0,0,6.669,71.06,656.32396194725,30.839896,6,P-GPS,
14800,2024-02-08 21:50:16,40.4296132317211,-86.9295313283853,31.16798,,,656.65204594725,33.792652,0,61.61909646,70.947508832,22,5,7.823,656.65204594725,31.16798,15.7033188,62.30151118,0,0,-1.11847,291.4, -2, -6.5,0,0,1024,1024,1024,1024,0,0,0,0,296.7,1.3,0,91,3.923,3.882,0,0,0,0,6.669,71.06,656.65204594725,31.16798,6,P-GPS,
14900,2024-02-08 21:50:16,40.429613230845,-86.9295311873918,31.496064,,,656.98012994725,33.792652,0,61.583663388,70.986550828,22,5,7.823,656.98012994725,31.496064,15.7033188,62.30151118,0,0,-0.671082,291.6, -3.6, -6.8,0,0,1024,1024,1024,1024,0,0,0,0,296.7,1.3,0,91,3.923,3.882,0,0,0,0,6.669,71.06,656.98012994725,31.496064,6,P-GPS,
15000,2024-02-08 21:50:16,40.4296132371666,-86.9295311146443,31.496064,,,656.98012994725,34.120736,0,61.566274936,71.006892036,22,5,7.823,656.98012994725,31.496064,15.7033188,62.30151118,0,0,-0.447388,291.7, -3.2, -8.8,0,0,1024,1024,1024,594,0,0,0,-65,296.7,1.3,0,91,3.923,3.882,0,0,0,0,6.669,71.06,656.98012994725,31.496064,6,P-GPS,
15100,2024-02-08 21:50:16,40.4296132792521,-86.9295310764698,31.824148,,,657.30821394725,34.120736,0,61.56332218,71.025592824,22,5,7.823,657.30821394725,31.824148,15.7033188,62.30151118,0,0,-0.223694,291.8, -2.5, -10.7,0,0,1024,1024,1024,364,0,0,0,-100,296.6,1.3,0,91,3.923,3.882,0,0,0,0,6.669,71.06,657.30821394725,31.824148,6,P-GPS,
15200,2024-02-08 21:50:16,40.429613346204,-86.9295310719681,31.824148,,,657.30821394725,34.120736,0.223694,61.572836616,71.050199124,22,5,7.823,657.30821394725,31.824148,15.7033188,62.30151118,0.223694,0,0,291.1, -2.1, -11.3,0,0,1024,1024,1024,364,0,0,0,-100,294.5,1.3,0,91,3.923,3.882,0,0,0,0,6.669,71.06,657.30821394725,31.824148,6,P-GPS,
15300,2024-02-08 21:50:17,40.4296135968736,-86.9295307905215,31.824148,,,657.30821394725,34.120736,0.223694,61.54199672,71.170277868,22,5,7.823,657.30821394725,31.824148,15.7033188,62.30151118,0.223694,0,0,288.6, -1.5, -11.2,0,0,1251,1024,1024,364,34,0,0,-100,289.6,1.3,0,91,3.923,3.882,0,0,0,0,6.669,71.06,657.30821394725,31.824148,6,P-GPS,
15400,2024-02-08 21:50:17,40.4296138195959,-86.9295306628531,31.824148,,,657.30821394725,34.120736,0,61.54527756,71.259188632,22,5,7.823,657.30821394725,31.824148,15.7033188,62.30151118,0,0,0,283.7, -1.9, -11.4,0,0,1556,1024,1024,364,81,0,0,-100,283.8,1.3,0,91,3.923,3.882,0,0,0,0,6.669,71.06,657.30821394725,31.824148,6,P-GPS,
15500,2024-02-08 21:50:17,40.429613961873,-86.9295305784011,31.824148,,,657.30821394725,34.120736,0,61.54691798,71.315947164,22,5,7.938,657.30821394725,31.824148,15.7033188,62.30151118,0,0,0,278, -3.3, -9.9,0,0,1625,1024,1024,364,91,0,0,-100,277.8,1.3,0,91,3.969,3.956,0,0,0,0,4.608,71.06,657.30821394725,31.824148,6,P-GPS,
15600,2024-02-08 21:50:17,40.4296140442202,-86.9295305571531,31.824148,,,657.30821394725,34.120736,0.223694,61.554791996,71.34678706,22,5,7.938,657.30821394725,31.824148,15.7033188,62.30151118,0,-0.223694,0,272.3, -10.3, -8.8,0,0,1625,1024,1024,364,91,0,0,-100,271.8,1.3,0,91,3.969,3.956,0,0,0,0,4.608,71.06,657.30821394725,31.824148,6,P-GPS,
15700,2024-02-08 21:50:17,40.4296140598924,-86.929530564896,31.824148,,,657.30821394725,34.120736,0.447388,61.559057088,71.352692572,22,5,7.938,657.30821394725,31.824148,15.7033188,62.30151118,0,-0.447388,0,266.4, -18.1, -7.1,0,0,1625,1024,1024,423,91,0,0,-91,265.8,1.3,0,91,3.969,3.956,0,0,0,0,4.608,71.06,657.30821394725,31.824148,6,P-GPS,
15800,2024-02-08 21:50:17,40.4296140855892,-86.929530926473,31.824148,,,657.30821394725,34.120736,0.894776,61.65354528,71.453742444,22,5,7.938,657.30821394725,31.824148,15.7033188,62.30151118,0,-0.894776,0,260.4, -23.6, -5.2,0,0,1635,1024,1024,760,93,0,0,-40,259.9,1.3,0,91,3.969,3.956,0,0,0,0,4.608,71.06,657.30821394725,31.824148,6,P-GPS,
15900,2024-02-08 21:50:17,40.4296140716725,-86.9295316137934,31.496064,,,656.98012994725,34.120736,1.565858,61.823164708,71.644687332,22,5,7.938,657.30821394725,31.824148,15.7033188,62.30151118,0,-1.565858,0,254.6, -23.6, -3.2,0,0,1684,1024,1024,1024,100,0,0,0,255.9,1.3,0,91,3.969,3.956,0,0,0,0,4.608,71.06,656.98012994725,31.496064,6,P-GPS,
16000,2024-02-08 21:50:17,40.4296140056065,-86.9295327087883,31.16798,,,656.65204594725,34.120736,2.23694,62.08661616,71.949477368,22,5,7.938,657.30821394725,31.824148,15.7033188,62.30151118,0,-2.23694,0,250.9, -23.6, -3.2,0,0,1684,1024,1024,1024,100,0,0,0,254.7,1.3,0,91,3.969,3.956,0,0,0,0,4.608,71.06,656.65204594725,31.16798,6,P-GPS,
16100,2024-02-08 21:50:17,40.4296138825678,-86.9295340274278,31.16798,,,656.65204594725,34.120736,2.684328,62.397967876,72.318571868,22,5,7.938,657.30821394725,31.824148,15.7033188,62.397967876,-0.223694,-2.684328,0,249.6, -24, -4.1,0,0,1684,1024,1024,1024,100,0,0,0,254.5,1.3,0,91,3.969,3.956,0,0,0,0,4.608,71.06,656.65204594725,31.16798,6,P-GPS,
16200,2024-02-08 21:50:17,40.4296135539153,-86.9295357107056,30.839896,,,656.32396194725,34.120736,2.684328,62.769358964,72.801183432,22,5,7.938,657.30821394725,31.824148,15.7033188,62.769358964,-0.447388,-3.131716,0.223694,249.7, -24.4, -4.9,0,0,1684,1024,1024,1024,100,0,0,0,254.5,1.3,0,91,3.969,3.956,0,0,0,0,4.608,71.06,656.32396194725,30.839896,6,P-GPS,
16300,2024-02-08 21:50:18,40.4296132997054,-86.9295374678113,30.511812,,,655.99587794725,34.120736,3.6014734,63.172246116,73.297902608,22,5,7.938,657.30821394725,31.824148,15.7033188,63.172246116,-0.447388,-3.579104,0.223694,249.7, -23.9, -3.9,0,0,1684,1024,1024,1024,100,0,0,0,254.5,1.3,0,91,3.969,3.956,0,0,0,0,4.608,71.06,655.99587794725,30.511812,6,P-GPS,
16400,2024-02-08 21:50:18,40.4296129627022,-86.9295395618247,30.183728,,,655.66779394725,34.120736,4.2949248,63.648952168,73.892390816,22,5,7.938,657.30821394725,31.824148,15.7033188,63.648952168,-0.671082,-4.250186,0,249.8, -22.9, -2.6,0,0,1684,1024,1024,1024,100,0,0,0,254.5,1.3,0,91,3.969,3.956,0,0,0,0,4.608,71.06,655.66779394725,30.183728,6,P-GPS,
16500,2024-02-08 21:50:18,40.4296126057961,-86.9295418213207,30.183728,,,655.66779394725,34.120736,4.7870516,64.16666872,74.533138868,22,5,7.938,657.30821394725,31.824148,15.7033188,64.16666872,-0.894776,-4.697574,-0.223694,250.1, -24.4, -4.7,0,0,1684,1024,1024,1024,100,0,0,0,254.5,1.3,0,91,3.969,3.956,0,0,0,0,4.608,71.06,655.66779394725,30.183728,6,P-GPS,
16600,2024-02-08 21:50:18,40.4296120075839,-86.9295444146632,29.855644,,,655.33970994725,34.120736,5.2120702,64.73589446,75.285763564,22,5,7.938,657.30821394725,31.824148,15.7033188,64.73589446,-0.894776,-5.144962,0.223694,250.2, -26.1, -3.6,0,0,1684,1024,1024,1024,100,0,0,0,254.5,1.3,0,91,3.969,3.956,0,0,0,0,4.608,71.06,655.33970994725,29.855644,6,P-GPS,
16700,2024-02-08 21:50:18,40.429611526382,-86.9295471489992,29.855644,,,655.33970994725,34.120736,5.927891,65.361550648,76.065291148,22,5,7.938,657.30821394725,31.824148,15.7033188,65.361550648,-1.11847,-5.816044,0.223694,250.4, -25.8, -3.1,0,0,1684,1024,1024,1024,100,0,0,0,254.5,1.3,0,91,3.969,3.956,0,0,0,0,4.608,71.06,655.33970994725,29.855644,6,P-GPS,
16800,2024-02-08 21:50:18,40.4296109110581,-86.929550394909,29.52756,,,655.01162594725,34.120736,6.6213424,66.102036236,76.994096952,22,5,7.938,657.30821394725,31.824148,15.7033188,66.102036236,-1.342164,-6.487126,0,250.2, -24.5, -3,0,0,1684,1024,1024,1024,100,0,0,0,254.5,1.3,0,91,3.969,3.956,0,0,0,0,4.608,71.06,655.01162594725,29.52756,6,P-GPS,
16900,2024-02-08 21:50:18,40.4296102844133,-86.929553839614,29.52756,,,655.01162594725,34.120736,7.3371632,66.896983768,77.978020868,22,5,7.866,657.30821394725,31.824148,15.7033188,66.896983768,-1.565858,-7.158208,-0.223694,250.1, -24.1, -5.6,0,0,1684,1024,1024,1024,100,0,0,0,254.5,1.3,0,91,3.929,3.926,0,0,0,0,4.077,71.06,655.01162594725,29.52756,6,P-GPS,
17000,2024-02-08 21:50:18,40.4296094834469,-86.9295577582587,29.52756,,,655.01162594725,34.120736,7.605596,67.79527776,79.104661324,22,5,7.866,657.30821394725,31.824148,15.7033188,67.79527776,-1.789552,-7.381902,0,250.2, -23.2, -6.8,0,0,1684,1024,1024,1024,100,0,0,0,254.5,1.3,0,91,3.929,3.926,0,0,0,0,4.077,71.06,655.01162594725,29.52756,6,P-GPS,
17100,2024-02-08 21:50:18,40.4296087175375,-86.9295616565556,29.52756,,,655.01162594725,34.120736,8.0753534,68.699805348,80.222771596,22,5,7.866,657.30821394725,31.824148,15.7033188,68.699805348,-2.013246,-7.82929,0,250.4, -23.6, -6,0,0,1684,1024,1024,1024,100,0,0,0,254.5,1.3,0,91,3.929,3.926,0,0,0,0,4.077,71.06,655.01162594725,29.52756,6,P-GPS,
17200,2024-02-08 21:50:18,40.4296078439327,-86.9295659614466,29.52756,,,655.01162594725,34.120736,8.5227414,69.702101968,81.460304444,22,5,7.866,657.30821394725,31.824148,15.7033188,69.702101968,-2.013246,-8.276678,-0.223694,250.4, -24.5, -7.1,0,0,1684,1024,1024,1024,100,0,0,0,254.5,1.3,0,91,3.929,3.926,0,0,0,0,4.077,71.06,655.01162594725,29.52756,6,P-GPS,
