time(millisecond),datetime(utc),latitude,longitude,height_above_takeoff(feet),height_above_ground_at_drone_location(feet),ground_elevation_at_drone_location(feet),altitude_above_seaLevel(feet),height_sonar(feet),speed(mph),distance(feet),mileage(feet),satellites,gpslevel,voltage(v),max_altitude(feet),max_ascent(feet),max_speed(mph),max_distance(feet), xSpeed(mph), ySpeed(mph), zSpeed(mph), compass_heading(degrees), pitch(degrees), roll(degrees),isPhoto,isVideo,rc_elevator,rc_aileron,rc_throttle,rc_rudder,rc_elevator(percent),rc_aileron(percent),rc_throttle(percent),rc_rudder(percent),gimbal_heading(degrees),gimbal_pitch(degrees),gimbal_roll(degrees),battery_percent,voltageCell1,voltageCell2,voltageCell3,voltageCell4,voltageCell5,voltageCell6,current(A),battery_temperature(f),altitude(feet),ascent(feet),flycStateRaw,flycState,message
432300,2024-02-04 17:20:18,40.4290044167779,-86.9292986266208,0,Available with any HD 360 subscription,Available with any HD 360 subscription,622.85853305483,0,0,0,0,29,5,0,622.85853305483,0,0,0,0,0,0,278.1, -6, 2.6,0,0,1024,1024,1024,1024,0,0,0,0,275.7,0,0,76,3.939,3.94,0,0,0,0,0,70.7,622.85853305483,0,41,Motors_Started,"Gimbal stuck Gimbal stuck. Check whether gimbal cover is removed and make sure gimbal can rotate freely on all three axes (Code: 40028). Remote ID functionality normal (Code: 30331)"
432400,2024-02-04 17:20:18,40.4290044223439,-86.9292986676098,0,,,622.85853305483,0,0,0.011563484622,0.011563484622,29,5,0,622.85853305483,0,0,0.011563484622,0,0,0,278.2, -5.9, 2.5,0,0,1024,1024,1024,1024,0,0,0,0,275.7,0,0,76,3.939,3.94,0,0,0,0,0,70.7,622.85853305483,0,41,Motors_Started,
432500,2024-02-04 17:20:18,40.4290044855259,-86.9292987349954,0,,,622.85853305483,0,0,0.03917979128,0.041255906832,29,5,0,622.85853305483,0,0,0.03917979128,0,0,0,278, -5.9, 2.8,0,0,1024,1024,1024,1024,0,0,0,0,275.7,0,0,76,3.939,3.94,0,0,0,0,0,70.7,622.85853305483,0,41,Motors_Started,"Setting new Return-To-Home altitude to 100m (328 ft). Data Recorder File Index is 3. Setting new Maximum Flight Altitude to 120m (394 ft) Aircraft in Warning Zone (Class D Airspace). Fly with caution"
432600,2024-02-04 17:20:18,40.4290045182022,-86.9292987457193,0,,,622.85853305483,0,0,6.7485894548,0.053544293052,29,5,0,622.85853305483,0,0,6.7485894548,0,0,0,277.7, -5.8, 2.4,0,0,1024,1024,1024,1024,0,0,0,0,275.7,0,0,76,3.939,3.94,0,0,0,0,0,70.7,622.85853305483,0,41,Motors_Started,
432700,2024-02-04 17:20:18,40.4290045342196,-86.9292987419927,0,,,622.85853305483,0,0,6.747211502,0.059479004528,29,5,0,622.85853305483,0,0,6.7485894548,0,0,0,277.6, -5.9, 2.7,0,0,1024,1024,1024,1024,0,0,0,0,275.7,0,0,76,3.939,3.94,0,0,0,0,0,70.7,622.85853305483,0,41,Motors_Started,
432800,2024-02-04 17:20:18,40.4290045399827,-86.9292987529824,0,,,622.85853305483,0,0,6.7501314496,0.063185369476,29,5,7.88,622.85853305483,0,0,6.7501314496,0,0,0,277.5, -5.9, 2.6,0,0,1024,1024,1024,1024,0,0,0,0,275.7,0,0,76,3.939,3.94,0,0,0,0,0.707,70.7,622.85853305483,0,41,Motors_Started,
432900,2024-02-04 17:20:18,40.4290044849771,-86.9292988123002,0,,,622.85853305483,0,0,6.7677495604,0.089149609152,29,5,7.88,622.85853305483,0,0,6.7677495604,0,0,0,277.5, -5.9, 2.6,0,0,1024,1024,1024,1024,0,0,0,0,275.7,0,0,76,3.939,3.94,0,0,0,0,0.707,70.7,622.85853305483,0,41,Motors_Started,
433000,2024-02-04 17:20:18,40.4290044910626,-86.9292988520935,0,,,622.85853305483,0,0,6.7786419492,0.100422247308,29,5,7.88,622.85853305483,0,0,6.7786419492,0,0,0,277.5, -5.9, 2.7,0,0,1024,1024,1024,1024,0,0,0,0,275.7,0,0,76,3.939,3.94,0,0,0,0,0.707,70.7,622.85853305483,0,41,Motors_Started,
433100,2024-02-04 17:20:18,40.4290045336057,-86.9292988670235,0,,,622.85853305483,0,0,6.7818899808,0.116488520788,29,5,7.88,622.85853305483,0,0,6.7818899808,0,0,0,277.5, -5.9, 2.8,0,0,1024,1024,1024,1024,0,0,0,0,275.6,0,0,76,3.939,3.94,0,0,0,0,0.707,70.7,622.85853305483,0,41,Motors_Started,
433200,2024-02-04 17:20:19,40.4290045702669,-86.9292988771424,0,,,622.85853305483,0,0,6.78395691,0.130156172144,29,5,7.88,622.85853305483,0,0,6.78395691,0,0,0,277.5, -6, 2.8,0,0,1024,1024,1024,1024,0,0,0,0,275.6,0,0,76,3.939,3.94,0,0,0,0,0.707,70.7,622.85853305483,0,41,Motors_Started,
433300,2024-02-04 17:20:19,40.4290046142283,-86.9292988221096,0,,,622.85853305483,0,0,6.7678479856,0.152311684664,29,5,7.88,622.85853305483,0,0,6.78395691,0,0,0,277.5, -6, 2.8,0,0,1024,1024,1024,1024,0,0,0,0,275.6,0,0,76,3.939,3.94,0,0,0,0,0.707,70.7,622.85853305483,0,41,Motors_Started,
433400,2024-02-04 17:20:19,40.4290046206411,-86.9292988311186,0,,,622.85853305483,0,0,6.7702101904,0.155737209708,29,5,7.88,622.85853305483,0,0,6.78395691,0,0,0,277.4, -6, 2.8,0,0,1024,1024,1024,1024,0,0,0,0,275.6,0,0,76,3.939,3.94,0,0,0,0,0.707,70.7,622.85853305483,0,11,AutoTakeoff,
433500,2024-02-04 17:20:19,40.4290046166612,-86.9292988756343,0,,,622.85853305483,0,0,6.782644574,0.168185372836,29,5,7.88,622.85853305483,0,0,6.78395691,0,0,0,277.4, -5.8, 2.7,0,0,1024,1024,1024,1024,0,0,0,0,275.6,0,0,76,3.939,3.94,0,0,0,0,0.707,70.7,622.85853305483,0,11,AutoTakeoff,
433600,2024-02-04 17:20:19,40.4290046202585,-86.9292989095937,0,,,622.85853305483,0,0,6.791994968,0.177707682852,29,5,7.88,622.85853305483,0,0,6.791994968,0,0,0,277.4, -5.6, 2.3,0,0,1024,1024,1024,1024,0,0,0,0,275.6,0,0,76,3.939,3.94,0,0,0,0,0.707,70.7,622.85853305483,0,11,AutoTakeoff,
433700,2024-02-04 17:20:19,40.4290046816215,-86.9292989313973,0,,,622.85853305483,0,0,6.796916228,0.20090059698,29,5,7.88,622.85853305483,0,0,6.796916228,0,0,0,277.1, -5.4, 2.2,0,0,1024,1024,1024,1024,0,0,0,0,275.5,0,0,76,3.939,3.94,0,0,0,0,0.707,70.7,622.85853305483,0,11,AutoTakeoff,
433800,2024-02-04 17:20:19,40.4290047182061,-86.9292989593976,0,,,622.85853305483,0,0,6.8040356508,0.21634843212,29,5,7.88,622.85853305483,0,0,6.8040356508,0,0,0,277, -5.4, 0.1,0,0,1024,1024,1024,1024,0,0,0,0,275.5,0,0,76,3.939,3.94,0,0,0,0,0.707,70.7,622.85853305483,0,11,AutoTakeoff,
433900,2024-02-04 17:20:19,40.4290047227804,-86.9292990761707,0,,,622.85853305483,0,0,6.8363519248,0.248822514524,29,5,7.88,622.85853305483,0,0,6.8363519248,0,0,0,276.9, -4.2, -1.7,0,0,1024,1024,1024,1024,0,0,0,0,275.5,0,0,76,3.939,3.94,0,0,0,0,0.707,70.7,622.85853305483,0,11,AutoTakeoff,
434000,2024-02-04 17:20:19,40.4290047133908,-86.9292992744575,0,,,622.85853305483,0,0.223694,6.8915356536,0.303998369308,29,5,7.88,622.85853305483,0,0.223694,6.8915356536,0,-0.223694,0,277, -1.5, -1.1,0,0,1024,1024,1024,1024,0,0,0,0,275.4,0,0,76,3.939,3.94,0,0,0,0,0.707,70.7,622.85853305483,0,11,AutoTakeoff,
434100,2024-02-04 17:20:19,40.4290046763486,-86.9292995661735,0,,,622.85853305483,0,0.447388,6.973097336,0.38613518296,29,5,7.88,622.85853305483,0,0.447388,6.973097336,0,-0.447388,-0.223694,277.2, -0.7, 0.1,0,0,1024,1024,1024,1024,0,0,0,0,275.4,0,0,76,3.887,3.885,0,0,0,0,0.707,70.7,622.85853305483,0,11,AutoTakeoff,
434200,2024-02-04 17:20:20,40.4290046028569,-86.9292999462051,0,,,622.85853305483,0,0.671082,7.0798230612,0.49503282424,29,5,7.88,622.85853305483,0,0.671082,7.0798230612,0,-0.671082,-0.894776,277.3, 1, 0.5,0,0,1024,1024,1024,1024,0,0,0,0,275.3,0,0,76,3.887,3.885,0,0,0,0,0.707,70.7,622.85853305483,0,11,AutoTakeoff,
434300,2024-02-04 17:20:20,40.4290046205206,-86.9293003839831,0,,,622.85853305483,0,0.671082,7.200951674,0.61678807748,29,5,7.88,622.85853305483,0,0.671082,7.200951674,0,-0.671082,-1.342164,277.2, 4.7, 0.8,0,0,1024,1024,1024,1024,0,0,0,0,275.3,0,0,76,3.887,3.885,0,0,0,0,0.707,70.7,622.85853305483,0,11,AutoTakeoff,
434400,2024-02-04 17:20:20,40.4290046387853,-86.9293007882195,0.328084,,,623.18661705483,0.984252,0.671082,7.3127627012,0.72925199184,29,5,7.88,623.18661705483,0.328084,0.671082,7.3127627012,0,-0.671082,-1.789552,277.1, 4.9, 0.6,0,0,1024,1024,1024,1024,0,0,0,0,275.3,0,0,76,3.887,3.885,0,0,0,0,0.707,70.7,623.18661705483,0.328084,11,AutoTakeoff,
434500,2024-02-04 17:20:20,40.4290046316103,-86.9293011942904,0.656168,,,623.51470105483,1.312336,0.671082,7.425525172,0.8420603944,29,5,7.88,623.51470105483,0.656168,0.671082,7.425525172,0,-0.671082,-2.013246,277.2, 5.6, 1.5,0,0,1024,1024,1024,1024,0,0,0,0,275.2,0,0,75,3.887,3.885,0,0,0,0,0.707,70.7,623.51470105483,0.656168,11,AutoTakeoff,
434600,2024-02-04 17:20:20,40.4290046780112,-86.9293015185632,0.984252,,,623.84278505483,1.64042,0.447388,7.5147312116,0.9336942556,29,5,7.88,623.84278505483,0.984252,0.671082,7.5147312116,0,-0.447388,-2.23694,277.2, 5.7, 1,0,0,1024,1024,1024,1024,0,0,0,0,275.2,0,0,75,3.887,3.885,0,0,0,0,0.707,70.7,623.84278505483,0.984252,11,AutoTakeoff,
434700,2024-02-04 17:20:20,40.4290046470333,-86.9293018911375,1.312336,,,624.17086905483,1.968504,0.447388,7.618602606,1.03778546628,29,5,7.88,624.17086905483,1.312336,0.671082,7.618602606,0,-0.447388,-2.460634,277.1, 5.2, 0.1,0,0,1024,1024,1024,1024,0,0,0,0,275.2,0,0,75,3.887,3.885,0,0,0,0,0.707,70.7,624.17086905483,1.312336,11,AutoTakeoff,
434800,2024-02-04 17:20:20,40.4290046300438,-86.9293022256756,1.64042,,,624.49895305483,2.296588,0.447388,7.7117128452,1.13090226716,29,5,7.88,624.49895305483,1.64042,0.671082,7.7117128452,0,-0.447388,-2.460634,277.1, 5.4, 0.8,0,0,1024,1024,1024,1024,0,0,0,0,275.2,0,0,75,3.887,3.885,0,0,0,0,0.707,70.7,624.49895305483,1.64042,11,AutoTakeoff,
434900,2024-02-04 17:20:20,40.4290046784053,-86.9293025690467,1.968504,,,624.82703705483,2.952756,0.223694,7.8062010372,1.22788389756,29,5,7.88,624.82703705483,1.968504,0.671082,7.8062010372,0,-0.223694,-2.23694,277.1, 4.6, 1,0,0,1024,1024,1024,1024,0,0,0,0,275.1,0,0,75,3.887,3.885,0,0,0,0,0.707,70.7,624.82703705483,1.968504,6,P-GPS,
435000,2024-02-04 17:20:20,40.4290047430041,-86.9293030477969,2.624672,,,625.48320505483,3.28084,0.223694,7.9380908052,1.36291999112,29,5,7.88,625.48320505483,2.624672,0.671082,7.9380908052,0,-0.223694,-2.23694,277.1, 5, 0.7,0,0,1024,1024,1024,1024,0,0,0,0,275.1,0,0,75,3.887,3.885,0,0,0,0,0.707,70.7,625.48320505483,2.624672,6,P-GPS,
435100,2024-02-04 17:20:20,40.4290047710801,-86.9293032650371,2.624672,,,625.48320505483,3.608924,0.223694,7.9979989436,1.4241142188,29,5,7.88,625.48320505483,2.624672,0.671082,7.9979989436,0,-0.223694,-1.789552,277.3, 5.5, 0.7,0,0,1024,1024,1024,1024,0,0,0,0,275.1,0,0,75,3.887,3.885,0,0,0,0,0.707,70.7,625.48320505483,2.624672,6,P-GPS,"Gimbal stuck. Check whether gimbal cover is removed and make sure gimbal can rotate freely on all three axes (Code: 40028)"
435200,2024-02-04 17:20:21,40.4290047826322,-86.9293034787141,2.952756,,,625.81128905483,3.608924,0.223694,8.0571524888,1.48360897136,29,5,7.88,625.81128905483,2.952756,0.671082,8.0571524888,0,-0.223694,-1.11847,277.5, 5.6, 0.9,0,0,1024,1024,1024,1024,0,0,0,0,275.1,0,0,75,3.887,3.885,0,0,0,0,0.707,70.7,625.81128905483,2.952756,6,P-GPS,
435300,2024-02-04 17:20:21,40.4290047301703,-86.9293037390676,3.28084,,,626.13937305483,3.937008,0.223694,8.1301183704,1.55840556168,29,5,7.88,626.13937305483,3.28084,0.671082,8.1301183704,0,-0.223694,-0.671082,277.7, 6.2, 1.1,0,0,1024,1024,1024,1024,0,0,0,0,275.1,0,0,75,3.887,3.885,0,0,0,0,0.707,70.7,626.13937305483,3.28084,6,P-GPS,
435400,2024-02-04 17:20:21,40.4290045880511,-86.929303856378,3.28084,,,626.13937305483,3.937008,0.223694,8.1648296576,1.61964572112,29,5,7.88,626.13937305483,3.28084,0.671082,8.1648296576,0,-0.223694,-0.223694,277.9, 6.6, 1,0,0,1024,1024,1024,1024,0,0,0,0,275.1,0,0,75,3.887,3.885,0,0,0,0,0.707,70.7,626.13937305483,3.28084,6,P-GPS,
435500,2024-02-04 17:20:21,40.4290045694982,-86.9293040750518,3.28084,,,626.13937305483,3.937008,0.223694,8.2257876648,1.68075136612,29,5,7.88,626.13937305483,3.28084,0.671082,8.2257876648,0,-0.223694,0,278, 7.3, 0.9,0,0,1024,1024,1024,1024,0,0,0,0,275.1,0,0,75,3.887,3.885,0,0,0,0,0.707,70.7,626.13937305483,3.28084,6,P-GPS,
435600,2024-02-04 17:20:21,40.4290045519957,-86.9293042525241,3.28084,,,626.13937305483,3.937008,0.223694,8.2753283488,1.73045281128,29,5,7.88,626.13937305483,3.28084,0.671082,8.2753283488,0,-0.223694,0,278.1, 7.2, 1.5,0,0,1024,1024,1024,1024,0,0,0,0,275.1,0,0,75,3.887,3.885,0,0,0,0,0.707,70.7,626.13937305483,3.28084,6,P-GPS,
435700,2024-02-04 17:20:21,40.4290045529874,-86.929304403099,3.28084,,,626.13937305483,3.937008,0,8.317093442,1.77227367876,29,5,7.88,626.13937305483,3.28084,0.671082,8.317093442,0,0,0,278.2, 6.9, 0.8,0,0,1024,1024,1024,1024,0,0,0,0,275.1,0,0,75,3.887,3.885,0,0,0,0,0.707,70.7,626.13937305483,3.28084,6,P-GPS,
435800,2024-02-04 17:20:21,40.4290045638492,-86.9293045187157,3.608924,,,626.46745705483,3.937008,0,8.3489832068,1.804626042,29,5,7.88,626.46745705483,3.608924,0.671082,8.3489832068,0,0,0,278.1, 6.9, 0.7,0,0,1024,1024,1024,1024,0,0,0,0,275.1,0,0,75,3.887,3.885,0,0,0,0,0.707,70.7,626.46745705483,3.608924,6,P-GPS,
435900,2024-02-04 17:20:21,40.4290047169196,-86.9293047298689,3.608924,,,626.46745705483,3.937008,0,8.4052824212,1.88560701572,29,5,7.88,626.46745705483,3.608924,0.671082,8.4052824212,0,0,0,278.1, 6.9, 1.5,0,0,1024,1024,1024,1024,0,0,0,0,275.1,0,0,75,3.887,3.885,0,0,0,0,0.707,70.7,626.46745705483,3.608924,6,P-GPS,
436000,2024-02-04 17:20:21,40.4290047510225,-86.9293048163346,3.608924,,,626.46745705483,3.937008,0,8.428806044,1.91265426068,29,5,7.88,626.46745705483,3.608924,0.671082,8.428806044,0,0,0,278.1, 6.4, 1.6,0,0,1024,1024,1024,1024,0,0,0,0,275.1,0,0,75,3.887,3.885,0,0,0,0,0.707,70.7,626.46745705483,3.608924,6,P-GPS,
436100,2024-02-04 17:20:21,40.4290047294863,-86.9293048253688,3.608924,,,626.46745705483,3.937008,0,8.431594758,1.92090229244,29,5,7.811,626.46745705483,3.608924,0.671082,8.431594758,0,0,0,278.1, 6.2, 0.9,0,0,1024,1024,1024,1024,0,0,0,0,275.1,0,0,75,3.867,3.867,0,0,0,0,2.334,70.7,626.46745705483,3.608924,6,P-GPS,
436200,2024-02-04 17:20:22,40.4290047173023,-86.9293048087591,3.608924,,,626.46745705483,3.937008,0,8.427165624,1.92730977296,29,5,7.811,626.46745705483,3.608924,0.671082,8.431594758,0,0,0,278, 6.1, 0.6,0,0,1024,1024,1024,1024,0,0,0,0,275.1,0,0,75,3.867,3.867,0,0,0,0,2.334,70.7,626.46745705483,3.608924,6,P-GPS,
436300,2024-02-04 17:20:22,40.4290046224324,-86.9293047131832,3.608924,,,626.46745705483,3.937008,0,8.4020015812,1.97092854076,29,5,7.811,626.46745705483,3.608924,0.671082,8.431594758,0,0,0,278, 5.8, 0.6,0,0,1024,1024,1024,1024,0,0,0,0,275.1,0,0,75,3.867,3.867,0,0,0,0,2.334,70.7,626.46745705483,3.608924,6,P-GPS,
436400,2024-02-04 17:20:22,40.4290046202243,-86.9293046646385,3.608924,,,626.46745705483,3.937008,0,8.3885829456,1.98443575904,29,5,7.811,626.46745705483,3.608924,0.671082,8.431594758,0,0,0,278, 5.7, 0.7,0,0,1024,1024,1024,1024,0,0,0,0,275.1,0,0,75,3.867,3.867,0,0,0,0,2.334,70.7,626.46745705483,3.608924,6,P-GPS,
436500,2024-02-04 17:20:22,40.4290046327747,-86.929304624139,3.608924,,,626.46745705483,3.937008,0,8.3771656224,1.99657814788,29,5,7.811,626.46745705483,3.608924,0.671082,8.431594758,0,0,0,278.1, 5.5, 1.1,0,0,1024,1024,1024,1024,0,0,0,0,275.1,0,0,75,3.867,3.867,0,0,0,0,2.334,70.7,626.46745705483,3.608924,6,P-GPS,
436600,2024-02-04 17:20:22,40.429004652145,-86.9293045698616,3.608924,,,626.46745705483,3.937008,0,8.3618112912,2.01322841088,29,5,7.811,626.46745705483,3.608924,0.671082,8.431594758,0,0,0,278, 5.4, 0.7,0,0,1024,1024,1024,1024,0,0,0,0,275.1,0,0,75,3.867,3.867,0,0,0,0,2.334,70.7,626.46745705483,3.608924,6,P-GPS,
436700,2024-02-04 17:20:22,40.4290046818267,-86.929304486277,3.608924,,,626.46745705483,3.937008,0,8.3381564348,2.03884192876,29,5,7.811,626.46745705483,3.608924,0.671082,8.431594758,0,0,0,278, 5.1, 0.5,0,0,1024,1024,1024,1024,0,0,0,0,275.1,0,0,75,3.867,3.867,0,0,0,0,2.334,70.7,626.46745705483,3.608924,6,P-GPS,
436800,2024-02-04 17:20:22,40.4290047128795,-86.9293044078455,3.608924,,,626.46745705483,3.937008,0,8.3159779564,2.06339573532,29,5,7.811,626.46745705483,3.608924,0.671082,8.431594758,0,0,0,278, 4.9, 0.2,0,0,1024,1024,1024,1024,0,0,0,0,275.1,0,0,75,3.867,3.867,0,0,0,0,2.334,70.7,626.46745705483,3.608924,6,P-GPS,
436900,2024-02-04 17:20:22,40.4290047776981,-86.9293043563704,3.608924,,,626.46745705483,3.937008,0,8.3007876672,2.09103025064,29,5,7.811,626.46745705483,3.608924,0.671082,8.431594758,0,0,0,278, 5.2, -0.1,0,0,1024,1024,1024,1024,0,0,0,0,275.1,0,0,75,3.867,3.867,0,0,0,0,2.334,70.7,626.46745705483,3.608924,6,P-GPS,
437000,2024-02-04 17:20:22,40.4290048265465,-86.9293043218356,3.608924,,,626.46745705483,3.937008,0,8.2906170632,2.1112697526,29,5,7.811,626.46745705483,3.608924,0.671082,8.431594758,0,0,0,278, 5.4, 0.1,0,0,1024,1024,1024,1024,0,0,0,0,275.1,0,0,75,3.867,3.867,0,0,0,0,2.334,70.7,626.46745705483,3.608924,6,P-GPS,
437100,2024-02-04 17:20:22,40.4290048801272,-86.929304443946,3.608924,,,626.46745705483,3.937008,0,8.3238847808,2.15041345464,29,5,7.811,626.46745705483,3.608924,0.671082,8.431594758,0,0,0,278, 5.4, 0.3,0,0,1024,1024,1024,1024,0,0,0,0,275.1,0,0,75,3.867,3.867,0,0,0,0,2.334,70.7,626.46745705483,3.608924,6,P-GPS,
437200,2024-02-04 17:20:22,40.4290048937035,-86.9293044293114,3.608924,,,626.46745705483,3.937008,0,8.3196524972,2.15682093516,29,5,7.811,626.46745705483,3.608924,0.671082,8.431594758,0,0,0,278, 5.2, 0.3,0,0,1024,1024,1024,1024,0,0,0,0,275.1,0,0,75,3.867,3.867,0,0,0,0,2.334,70.7,626.46745705483,3.608924,6,P-GPS,
437300,2024-02-04 17:20:23,40.429004924188,-86.9293043544628,3.608924,,,626.46745705483,3.937008,0,8.298556696,2.1803970514,29,5,7.811,626.46745705483,3.608924,0.671082,8.431594758,0,0,0,278, 5.2, 0.5,0,0,1024,1024,1024,1024,0,0,0,0,275.1,0,0,75,3.867,3.867,0,0,0,0,2.334,70.7,626.46745705483,3.608924,6,P-GPS,"Home Point updated. RTH altitude adjusted to 100 m (Code: 120852)"
437400,2024-02-04 17:20:23,40.429004947294,-86.9293042900933,3.608924,,,626.46745705483,3.937008,0,8.2804464592,2.20016083156,29,5,7.811,626.46745705483,3.608924,0.671082,8.431594758,0,0,0,278, 5.3, 0.6,0,0,1024,1024,1024,1024,0,0,0,0,275.1,0,0,75,3.867,3.867,0,0,0,0,2.334,70.7,626.46745705483,3.608924,6,P-GPS,
437500,2024-02-04 17:20:23,40.42900494235,-86.9293042391852,3.608924,,,626.46745705483,3.937008,0,8.2663388472,2.21441608136,29,5,7.811,626.46745705483,3.608924,0.671082,8.431594758,0,0,0,278, 5, 0.2,0,0,1024,1024,1024,1024,0,0,0,0,275.1,0,0,75,3.867,3.867,0,0,0,0,2.334,70.7,626.46745705483,3.608924,6,P-GPS,
437600,2024-02-04 17:20:23,40.4290049228852,-86.9293041366458,3.608924,,,626.46745705483,3.937008,0,8.2380908148,2.243766476,29,5,7.811,626.46745705483,3.608924,0.671082,8.431594758,0,0,0,278, 4.7, 0,0,0,1052,1024,1024,1024,4,0,0,0,275.1,0,0,75,3.867,3.867,0,0,0,0,2.334,70.7,626.46745705483,3.608924,6,P-GPS,
437700,2024-02-04 17:20:23,40.4290049644041,-86.9293041040552,3.608924,,,626.46745705483,3.937008,0,8.2286091872,2.26141083352,29,5,7.811,626.46745705483,3.608924,0.671082,8.431594758,0,0,0,278, 5.2, 0.5,0,0,1024,1024,1024,1024,0,0,0,0,275.1,0,0,75,3.867,3.867,0,0,0,0,2.334,70.7,626.46745705483,3.608924,6,P-GPS,
437800,2024-02-04 17:20:23,40.4290050038645,-86.9293040799614,3.608924,,,626.46745705483,3.937008,0,8.2215553812,2.27728681828,29,5,7.811,626.46745705483,3.608924,0.671082,8.431594758,0,0,0,278.1, 4.8, 0.4,0,0,1024,1024,1024,1024,0,0,0,0,275.1,0,0,75,3.867,3.867,0,0,0,0,2.334,70.7,626.46745705483,3.608924,6,P-GPS,
437900,2024-02-04 17:20:23,40.4290050345151,-86.9293040685089,3.608924,,,626.46745705483,3.937008,0,8.2180776908,2.28891411524,29,5,7.811,626.46745705483,3.608924,0.671082,8.431594758,0,0,0,278, 4, 0.4,0,0,1024,1024,1024,1024,0,0,0,0,275.1,0,0,75,3.867,3.867,0,0,0,0,2.334,70.7,626.46745705483,3.608924,6,P-GPS,
438000,2024-02-04 17:20:23,40.4290051002032,-86.9293040827665,3.608924,,,626.46745705483,3.937008,0,8.2214897644,2.3132054546,29,5,7.811,626.46745705483,3.608924,0.671082,8.431594758,0,0,0,278, 4.3, 0.1,0,0,1024,1024,1024,1024,0,0,0,0,275.1,0,0,75,3.867,3.867,0,0,0,0,2.334,70.7,626.46745705483,3.608924,6,P-GPS,
438100,2024-02-04 17:20:23,40.4290051252048,-86.9293041230803,3.608924,,,626.46745705483,3.937008,0,8.2324805784,2.32764771228,29,5,7.729,626.46745705483,3.608924,0.671082,8.431594758,0,0,0,278, 4.2, 0,0,0,1024,1024,1024,1024,0,0,0,0,275.1,0,0,75,3.862,3.864,0,0,0,0,4.209,70.88,626.46745705483,3.608924,6,P-GPS,
438200,2024-02-04 17:20:24,40.4290051578257,-86.9293041950196,3.608924,,,626.46745705483,3.937008,0,8.2522312352,2.3509023062,29,5,7.729,626.46745705483,3.608924,0.671082,8.431594758,0,0,0,278, 4, 0,0,0,1024,1024,1024,1024,0,0,0,0,275.1,0,0,75,3.862,3.864,0,0,0,0,4.209,70.88,626.46745705483,3.608924,6,P-GPS,
438300,2024-02-04 17:20:24,40.4290052277479,-86.9293043277426,3.608924,,,626.46745705483,3.937008,0,8.2886485592,2.39573170396,29,5,7.729,626.46745705483,3.608924,0.671082,8.431594758,0,0,0,278, 4.6, -0.3,0,0,1024,1024,1024,1024,0,0,0,0,275.1,0,0,75,3.862,3.864,0,0,0,0,4.209,70.88,626.46745705483,3.608924,6,P-GPS,
438400,2024-02-04 17:20:24,40.4290052890555,-86.9293044970867,3.608924,,,626.46745705483,3.937008,0,8.3353349124,2.44780847728,29,5,7.729,626.46745705483,3.608924,0.671082,8.431594758,0,0,0,278, 5.2, -0.8,0,0,1024,1024,1056,1024,0,0,5,0,275.1,0,0,75,3.862,3.864,0,0,0,0,4.209,70.88,626.46745705483,3.608924,6,P-GPS,
438500,2024-02-04 17:20:24,40.4290053353066,-86.9293045804166,3.608924,,,626.46745705483,3.937008,0,8.3583007924,2.47645021048,29,5,7.729,626.46745705483,3.608924,0.671082,8.431594758,0,0,0,278, 5.4, -0.6,0,0,1024,1024,1182,1024,0,0,24,0,275.1,0,0,75,3.862,3.864,0,0,0,0,4.209,70.88,626.46745705483,3.608924,6,P-GPS,
438600,2024-02-04 17:20:24,40.4290053494285,-86.9293046521252,3.608924,,,626.46745705483,3.937008,0,8.3781498744,2.49702435812,29,5,7.729,626.46745705483,3.608924,0.671082,8.431594758,0,0,0,278, 5.4, 0.7,0,0,1024,1024,1364,1024,0,0,52,0,275.1,0,0,75,3.862,3.864,0,0,0,0,4.209,70.88,626.46745705483,3.608924,6,P-GPS,
438700,2024-02-04 17:20:24,40.429005310095,-86.9293047296101,3.608924,,,626.46745705483,3.937008,0,8.3998362268,2.52288721984,29,5,7.729,626.46745705483,3.608924,0.671082,8.431594758,0,0,-0.223694,278, 4.1, 1.6,0,0,1024,1024,1454,1024,0,0,65,0,275.1,0,0,75,3.862,3.864,0,0,0,0,4.209,70.88,626.46745705483,3.608924,6,P-GPS,
438800,2024-02-04 17:20:24,40.4290052423029,-86.9293046372796,3.608924,,,626.46745705483,3.937008,0,8.374508142,2.55851714224,29,5,7.729,626.46745705483,3.608924,0.671082,8.431594758,0,0,-0.671082,278, 3.7, 1.4,0,0,1024,1024,1482,1024,0,0,69,0,275.1,0,0,75,3.862,3.864,0,0,0,0,4.209,70.88,626.46745705483,3.608924,6,P-GPS,
438900,2024-02-04 17:20:24,40.4290052754906,-86.9293046612341,3.937008,,,626.79554105483,4.265092,0,8.3810042052,2.57233275948,29,5,7.729,626.79554105483,3.937008,0.671082,8.431594758,0,0,-1.565858,278.1, 4.9, -0.1,0,0,1024,1024,1479,1024,0,0,69,0,275.1,0,0,75,3.862,3.864,0,0,0,0,4.209,70.88,626.79554105483,3.937008,6,P-GPS,
439000,2024-02-04 17:20:24,40.4290052945564,-86.9293046757294,4.265092,,,627.12362505483,4.593176,0,8.3849412132,2.58036753664,29,5,7.729,627.12362505483,4.265092,0.671082,8.431594758,0,0,-2.23694,278, 5.6, -0.7,0,0,1024,1024,1477,1024,0,0,69,0,275.1,0,0,75,3.862,3.864,0,0,0,0,4.209,70.88,627.12362505483,4.265092,6,P-GPS,
439100,2024-02-04 17:20:24,40.42900526657,-86.9293046671228,4.593176,,,627.45170905483,4.92126,0,8.3826774336,2.59085638212,29,5,7.729,627.45170905483,4.593176,0.671082,8.431594758,0,0,-2.684328,278, 5.5, 0.8,0,0,1024,1024,1477,1024,0,0,69,0,275.1,0,0,75,3.862,3.864,0,0,0,0,4.209,70.88,627.45170905483,4.593176,6,P-GPS,
439200,2024-02-04 17:20:25,40.4290052211201,-86.9293046204082,4.92126,,,627.77979305483,5.249344,0,8.3699477744,2.6119095324,29,5,7.729,627.77979305483,4.92126,0.671082,8.431594758,0,0,-2.684328,278.1, 5, 1.7,0,0,1024,1024,1489,1024,0,0,70,0,275.1,0,0,75,3.862,3.864,0,0,0,0,4.209,70.88,627.77979305483,4.92126,6,P-GPS,
439300,2024-02-04 17:20:25,40.4290051826107,-86.9293045250532,5.249344,,,628.10787705483,5.577428,0,8.3437010544,2.64188984832,29,5,7.729,628.10787705483,5.249344,0.671082,8.431594758,0,0,-2.908022,278.1, 3.4, 1.1,0,0,1024,1024,1573,1024,0,0,83,0,275.1,0,0,75,3.862,3.864,0,0,0,0,4.209,70.88,628.10787705483,5.249344,6,P-GPS,
439400,2024-02-04 17:20:25,40.4290051706058,-86.9293045064558,5.577428,,,628.43596105483,6.233596,0,8.3386157524,2.64866150208,29,5,7.729,628.43596105483,5.577428,0.671082,8.431594758,0,0,-3.35541,278.1, 1.8, 0,0,0,1024,1024,1624,1024,0,0,91,0,275.1,0,0,75,3.862,3.864,0,0,0,0,4.209,70.88,628.43596105483,5.577428,6,P-GPS,
439500,2024-02-04 17:20:25,40.4290052001946,-86.9293046539161,6.233596,,,629.09212905483,6.56168,0,8.3793965936,2.69101386564,29,5,7.729,629.09212905483,6.233596,0.671082,8.431594758,0,0,-4.026492,278.2, 2.2, 0.7,0,0,1024,1024,1624,1024,0,0,91,0,275.1,0,0,75,3.862,3.864,0,0,0,0,4.209,70.88,629.09212905483,6.233596,6,P-GPS,
439600,2024-02-04 17:20:25,40.4290052151535,-86.9293048367833,6.889764,,,629.74829705483,7.217848,0.223694,8.4300855716,2.7420932636,29,5,7.729,629.74829705483,6.889764,0.671082,8.431594758,0,-0.223694,-4.697574,278.2, 4.4, 1.8,0,0,1024,1024,1595,1024,0,0,87,0,275.1,0,0,75,3.82,3.814,0,0,0,0,4.209,70.88,629.74829705483,6.889764,6,P-GPS,
439700,2024-02-04 17:20:25,40.4290054338959,-86.9293050438471,7.874016,,,630.73254905483,8.2021,0,8.4866800616,2.84046268932,29,5,7.729,630.73254905483,7.874016,0.671082,8.4866800616,0,0,-5.144962,278.3, 8.1, 3.1,0,0,1024,1024,1595,1024,0,0,87,0,275.1,0,0,75,3.82,3.814,0,0,0,0,4.209,70.88,630.73254905483,7.874016,6,P-GPS,
439800,2024-02-04 17:20:25,40.4290054380354,-86.9293051161142,8.530184,,,631.38871705483,8.858268,0,8.506725994,2.86059064272,29,5,7.729,631.38871705483,8.530184,0.671082,8.506725994,0,0,-4.921268,278.2, 7.5, 3.1,0,0,1024,1024,1595,1024,0,0,87,0,275.1,0,0,75,3.82,3.814,0,0,0,0,4.209,70.88,631.38871705483,8.530184,6,P-GPS,
439900,2024-02-04 17:20:25,40.4290053493666,-86.9293051415078,9.186352,,,632.04488505483,9.514436,0,8.5140422672,2.89370088,29,5,7.729,632.04488505483,9.186352,0.671082,8.5140422672,0,0,-4.921268,278, 4.9, 2.9,0,0,1024,1024,1588,1024,0,0,85,0,275.1,0,0,75,3.82,3.814,0,0,0,0,4.209,70.88,632.04488505483,9.186352,6,P-GPS,
440000,2024-02-04 17:20:25,40.4290052974453,-86.9293051675006,10.170604,,,633.02913705483,10.498688,0,8.521489774,2.91397319036,29,5,7.729,633.02913705483,10.170604,0.671082,8.521489774,0,0,-5.144962,278, 4.9, 1.8,0,0,1024,1024,1588,1024,0,0,85,0,275.1,0,0,75,3.82,3.814,0,0,0,0,4.209,70.88,633.02913705483,10.170604,6,P-GPS,
440100,2024-02-04 17:20:25,40.4290051751752,-86.9293051725115,10.826772,,,633.68530505483,11.154856,0,8.5235567032,2.95860573772,29,5,7.729,633.68530505483,10.826772,0.671082,8.5235567032,0,0,-5.144962,278.1, 6.8, 1.4,0,0,1024,1024,1588,1024,0,0,85,0,275.1,0,0,75,3.82,3.814,0,0,0,0,4.209,70.88,633.68530505483,10.826772,6,P-GPS,
440200,2024-02-04 17:20:26,40.4290051575945,-86.9293052122499,11.48294,,,634.34147305483,11.811024,0,8.5347115592,2.97136820532,29,5,7.729,634.34147305483,11.48294,0.671082,8.5347115592,0,0,-4.921268,278.1, 6.3, 1.6,0,0,1024,1024,1589,1024,0,0,86,0,275.1,0,0,75,3.82,3.814,0,0,0,0,4.209,70.88,634.34147305483,11.48294,6,P-GPS,
440300,2024-02-04 17:20:26,40.4290050723373,-86.9293052175141,12.467192,,,635.32572505483,12.467192,0,8.5367784884,3.0025099386,29,5,7.729,635.32572505483,12.467192,0.671082,8.5367784884,0,0,-4.921268,278.1, 5.4, 2.4,0,0,1024,1024,1589,1024,0,0,86,0,275.1,0,0,75,3.82,3.814,0,0,0,0,4.209,70.88,635.32572505483,12.467192,6,P-GPS,
440400,2024-02-04 17:20:26,40.4290049739695,-86.9293052012378,13.12336,,,635.98189305483,13.12336,0,8.533136756,3.0386811996,29,5,7.729,635.98189305483,13.12336,0.671082,8.5367784884,0,0,-4.921268,278, 4.2, 3,0,0,1024,1024,1588,1024,0,0,85,0,275.1,0,0,75,3.82,3.814,0,0,0,0,4.209,70.88,635.98189305483,13.12336,6,P-GPS,
440500,2024-02-04 17:20:26,40.4290046572991,-86.9293049602653,14.107612,,,636.96614505483,14.107612,0,8.4700462028,3.17220482592,29,5,7.729,636.96614505483,14.107612,0.671082,8.5367784884,0,0,-4.921268,278.1, 5.4, 1.9,0,0,1024,1024,1572,1024,0,0,83,0,275.1,0,0,75,3.82,3.814,0,0,0,0,4.209,70.88,636.96614505483,14.107612,6,P-GPS,
440600,2024-02-04 17:20:26,40.4290045557151,-86.9293049549421,14.76378,,,637.62231305483,14.76378,0,8.470144628,3.20929472212,29,5,7.729,637.62231305483,14.76378,0.671082,8.5367784884,0,0,-4.921268,278.1, 6.9, 2.7,0,0,1024,1024,1571,1024,0,0,83,0,275.1,0,0,75,3.82,3.814,0,0,0,0,4.209,70.88,637.62231305483,14.76378,6,P-GPS,
440700,2024-02-04 17:20:26,40.4290045492371,-86.9293049917305,15.748032,,,638.60656505483,15.419948,0,8.4804464656,3.2197835676,29,5,7.729,638.60656505483,15.748032,0.671082,8.5367784884,0,0,-4.697574,278.1, 7.8, 3.2,0,0,1024,1024,1564,1024,0,0,82,0,275.1,0,0,75,3.82,3.814,0,0,0,0,4.209,70.88,638.60656505483,15.748032,6,P-GPS,
440800,2024-02-04 17:20:26,40.4290045404045,-86.9293050216693,16.4042,,,639.26273305483,16.076116,0,8.4889110328,3.22870089072,29,5,7.729,639.26273305483,16.4042,0.671082,8.5367784884,0,0,-4.697574,278.1, 7.1, 2.7,0,0,1024,1024,1557,1024,0,0,81,0,275.1,0,0,75,3.82,3.814,0,0,0,0,4.209,70.88,639.26273305483,16.4042,6,P-GPS,
440900,2024-02-04 17:20:26,40.429004485477,-86.9293050461753,17.060368,,,639.91890105483,16.732284,0,8.4966210068,3.24986558956,29,5,7.729,639.91890105483,17.060368,0.671082,8.5367784884,0,0,-4.697574,278.1, 7.8, 2,0,0,1024,1024,1557,1024,0,0,81,0,275.1,0,0,75,3.82,3.814,0,0,0,0,4.209,70.88,639.91890105483,17.060368,6,P-GPS,
441000,2024-02-04 17:20:26,40.4290044965081,-86.929304932808,18.04462,,,640.90315305483,17.388452,0,8.4649937092,3.2815945932,29,5,7.729,640.90315305483,18.04462,0.671082,8.5367784884,0,0,-4.697574,278.1, 7.9, 2.2,0,0,1024,1024,1332,1024,0,0,47,0,275.1,0,0,75,3.82,3.814,0,0,0,0,4.209,70.88,640.90315305483,18.04462,6,P-GPS,
441100,2024-02-04 17:20:26,40.4290044794225,-86.9293048995843,18.700788,,,641.55932105483,18.04462,0,8.4560698244,3.2927494492,29,5,7.715,641.55932105483,18.700788,0.671082,8.5367784884,0,0,-4.250186,278.3, 9.5, 2.8,0,0,1024,1024,1024,1024,0,0,0,0,275.1,0,0,75,3.839,3.841,0,0,0,0,4.489,70.88,641.55932105483,18.700788,6,P-GPS,
441200,2024-02-04 17:20:27,40.4290044742392,-86.9293048562151,19.356956,,,642.21548905483,18.700788,0,8.4441275668,3.3049213656,29,5,7.715,642.21548905483,19.356956,0.671082,8.5367784884,0,0,-3.579104,278.3, 9.7, 2.8,0,0,1024,1024,1024,1024,0,0,0,0,275.1,0,0,75,3.839,3.841,0,0,0,0,4.489,70.88,642.21548905483,19.356956,6,P-GPS,
441300,2024-02-04 17:20:27,40.4290044554958,-86.9293048296567,19.68504,,,642.54357305483,19.356956,0,8.4371065692,3.3149935444,29,5,7.715,642.54357305483,19.68504,0.671082,8.5367784884,0,0,-2.684328,278.2, 8.9, 2,0,0,1024,1024,1024,1024,0,0,0,0,275.1,0,0,75,3.839,3.841,0,0,0,0,4.489,70.88,642.54357305483,19.68504,6,P-GPS,
441400,2024-02-04 17:20:27,40.4290044613305,-86.9293048278827,20.341208,,,643.19974105483,19.68504,0,8.4364832096,3.3171917072,28,5,7.715,643.19974105483,20.341208,0.671082,8.5367784884,0,0,-2.013246,278.1, 8, 0.5,0,0,1024,1024,1024,1024,0,0,0,0,275.1,0,0,75,3.839,3.841,0,0,0,0,4.489,70.88,643.19974105483,20.341208,6,P-GPS,
441500,2024-02-04 17:20:27,40.429004542383,-86.929304900804,20.341208,,,643.19974105483,19.68504,0,8.4553480396,3.35301848,28,5,7.715,643.19974105483,20.341208,0.671082,8.5367784884,0,0,-1.11847,278, 8.6, 0.3,0,0,1024,1024,1024,1024,0,0,0,0,275.1,0,0,75,3.839,3.841,0,0,0,0,4.489,70.88,643.19974105483,20.341208,6,P-GPS,
441600,2024-02-04 17:20:27,40.42900461572,-86.9293049764333,20.669292,,,643.52782505483,20.013124,0,8.4751643132,3.3870407908,29,5,7.715,643.52782505483,20.669292,0.671082,8.5367784884,0,0,-0.671082,278, 7.7, 0.6,0,0,1024,1024,1024,1024,0,0,0,0,275.1,0,0,75,3.839,3.841,0,0,0,0,4.489,70.88,643.52782505483,20.669292,6,P-GPS,
441700,2024-02-04 17:20:27,40.4290046864238,-86.9293050476228,20.669292,,,643.52782505483,20.013124,0,8.4938979096,3.4195211068,29,5,7.715,643.52782505483,20.669292,0.671082,8.5367784884,0,0,-0.447388,278.1, 6.7, -0.4,0,0,1024,1024,1024,1024,0,0,0,0,275.1,0,0,75,3.839,3.841,0,0,0,0,4.489,70.88,643.52782505483,20.669292,6,P-GPS,
441800,2024-02-04 17:20:27,40.4290048264016,-86.9293052665878,20.669292,,,643.52782505483,20.013124,0,8.5528546044,3.4989502432,29,5,7.715,643.52782505483,20.669292,0.671082,8.5528546044,0,0,-0.447388,278.1, 8.7, 0.3,0,0,1024,1024,1024,1024,0,0,0,0,275.1,0,0,75,3.839,3.841,0,0,0,0,4.489,70.88,643.52782505483,20.669292,6,P-GPS,
441900,2024-02-04 17:20:27,40.429004861291,-86.9293053124569,20.997376,,,643.85590905483,20.013124,0,8.5651905628,3.5169620548,29,5,7.715,643.85590905483,20.997376,0.671082,8.5651905628,0,0,0,278.1, 9.9, 1.4,0,0,1024,1024,1024,1024,0,0,0,0,275.1,0,0,75,3.839,3.841,0,0,0,0,4.489,70.88,643.85590905483,20.997376,6,P-GPS,
442000,2024-02-04 17:20:27,40.4290048964377,-86.9293053041091,20.997376,,,643.85590905483,20.013124,0,8.5624674656,3.5299869896,29,5,7.715,643.85590905483,20.997376,0.671082,8.5651905628,0,0,0,278.1, 8.4, 1.1,0,0,1024,1024,1024,1024,0,0,0,0,275.1,0,0,75,3.839,3.841,0,0,0,0,4.489,70.88,643.85590905483,20.997376,6,P-GPS,
442100,2024-02-04 17:20:27,40.4290049556837,-86.9293052174606,20.997376,,,643.85590905483,20.013124,0,8.5377955488,3.562336072,29,5,7.715,643.85590905483,20.997376,0.671082,8.5651905628,0,0,0,278.1, 7.5, 0.2,0,0,1024,1024,1024,1024,0,0,0,0,275.1,0,0,75,3.839,3.841,0,0,0,0,4.489,70.88,643.85590905483,20.997376,6,P-GPS,
442200,2024-02-04 17:20:28,40.4290050706682,-86.929305024632,20.997376,,,643.85590905483,20.013124,0,8.4832351796,3.6303806936,29,5,7.715,643.85590905483,20.997376,0.671082,8.5651905628,0,0,0,278.1, 7.8, 0,0,0,1024,1024,1024,1024,0,0,0,0,275.1,0,0,75,3.839,3.841,0,0,0,0,4.489,70.88,643.85590905483,20.997376,6,P-GPS,
442300,2024-02-04 17:20:28,40.4290050824353,-86.9293049122846,20.997376,,,643.85590905483,20.013124,0,8.4519687744,3.6618767576,29,5,7.715,643.85590905483,20.997376,0.671082,8.5651905628,0,0,0,278.1, 8.1, 0.7,0,0,1024,1024,1024,1024,0,0,0,0,275.1,0,0,75,3.839,3.841,0,0,0,0,4.489,70.88,643.85590905483,20.997376,6,P-GPS,
442400,2024-02-04 17:20:28,40.4290050755584,-86.9293048094006,20.997376,,,643.85590905483,20.013124,0,8.4234582748,3.6905512992,29,5,7.715,643.85590905483,20.997376,0.671082,8.5651905628,0,0,0,278.1, 8, 1.4,0,0,1024,1024,1024,1024,0,0,0,0,275.1,0,0,75,3.839,3.841,0,0,0,0,4.489,70.88,643.85590905483,20.997376,6,P-GPS,
442500,2024-02-04 17:20:28,40.4290050430774,-86.9293047284298,20.669292,,,643.52782505483,20.013124,0,8.4012141796,3.7159778092,29,5,7.715,643.85590905483,20.997376,0.671082,8.5651905628,0,0,0,278.1, 7.4, 2,0,0,1024,1024,1024,1284,0,0,0,39,275.1,0,0,75,3.839,3.841,0,0,0,0,4.489,70.88,643.52782505483,20.669292,6,P-GPS,
442600,2024-02-04 17:20:28,40.4290050246614,-86.9293046488925,20.669292,,,643.52782505483,20.013124,0,8.3792981684,3.7390421144,29,5,7.715,643.85590905483,20.997376,0.671082,8.5651905628,0,0,0,278.1, 6.6, 1.7,0,0,1024,1024,1024,1368,0,0,0,52,275.2,0,0,75,3.839,3.841,0,0,0,0,4.489,70.88,643.52782505483,20.669292,6,P-GPS,
442700,2024-02-04 17:20:28,40.4290049182279,-86.9293045159233,20.669292,,,643.52782505483,20.013124,0,8.3434385872,3.79265104,29,5,7.715,643.85590905483,20.997376,0.671082,8.5651905628,0,0,0,278.2, 6.5, 1.4,0,0,1024,1024,1024,1367,0,0,0,52,275.6,0,0,75,3.839,3.841,0,0,0,0,4.489,70.88,643.52782505483,20.669292,6,P-GPS,
442800,2024-02-04 17:20:28,40.4290049305096,-86.9293044535823,20.669292,,,643.52782505483,20.013124,0,8.3259845184,3.810531618,29,5,7.715,643.85590905483,20.997376,0.671082,8.5651905628,0,0,0,278.6, 6.8, 0.8,0,0,1024,1024,1024,1366,0,0,0,52,276.6,0,0,75,3.839,3.841,0,0,0,0,4.489,70.88,643.52782505483,20.669292,6,P-GPS,
442900,2024-02-04 17:20:28,40.4290049620721,-86.9293044066469,20.669292,,,643.52782505483,20.013124,0,8.3126314996,3.82792007,29,5,7.715,643.85590905483,20.997376,0.671082,8.5651905628,0,0,0,279.6, 7.3, 1.2,0,0,1024,1024,1024,1366,0,0,0,52,277.8,0,0,75,3.839,3.841,0,0,0,0,4.489,70.88,643.52782505483,20.669292,6,P-GPS,
443000,2024-02-04 17:20:28,40.4290049963216,-86.9293043584848,20.669292,,,643.52782505483,20.013124,0,8.2989503968,3.8462271572,29,5,7.715,643.85590905483,20.997376,0.671082,8.5651905628,0,0,0,280.8, 7, 1.4,0,0,1024,1024,1024,1365,0,0,0,52,279,0,0,75,3.839,3.841,0,0,0,0,4.489,70.88,643.52782505483,20.669292,6,P-GPS,
443100,2024-02-04 17:20:28,40.4290050663512,-86.929304143643,20.669292,,,643.52782505483,20.013124,0,8.238681366,3.9111221724,29,5,7.675,643.85590905483,20.997376,0.671082,8.5651905628,0,0,0,282.1, 6.4, 1.4,0,0,1024,1024,1024,1407,0,0,0,58,280.3,0,0,75,3.851,3.852,0,0,0,0,5.591,70.88,643.52782505483,20.669292,6,P-GPS,
443200,2024-02-04 17:20:29,40.4290051175641,-86.9293040776628,20.669292,,,643.52782505483,20.013124,0,8.2199477696,3.9373032756,29,5,7.675,643.85590905483,20.997376,0.671082,8.5651905628,0,0,0,283.3, 6.1, 1.3,0,0,1024,1024,1024,1436,0,0,0,62,281.5,0,0,75,3.851,3.852,0,0,0,0,5.591,70.88,643.52782505483,20.669292,6,P-GPS,
443300,2024-02-04 17:20:29,40.4290051581645,-86.9293040416396,20.669292,,,643.52782505483,20.013124,0,8.209645932,3.9551838536,29,5,7.675,643.85590905483,20.997376,0.671082,8.5651905628,0,0,0,284.6, 6.3, 1.2,0,0,1024,1024,1024,1249,0,0,0,34,283.1,0,0,75,3.851,3.852,0,0,0,0,5.591,70.88,643.52782505483,20.669292,6,P-GPS,
443400,2024-02-04 17:20:29,40.4290052027741,-86.9293040301731,20.669292,,,643.52782505483,20.013124,0,8.2061682416,3.9717520956,29,5,7.675,643.85590905483,20.997376,0.671082,8.5651905628,0,0,0,286.1, 6.3, 1.1,0,0,1024,1024,1024,1024,0,0,0,0,284.8,0,0,75,3.851,3.852,0,0,0,0,5.591,70.88,643.52782505483,20.669292,6,P-GPS,
443500,2024-02-04 17:20:29,40.4290052520247,-86.9293040064634,20.669292,,,643.52782505483,20.013124,0,8.1992784776,3.9909122012,29,5,7.675,643.85590905483,20.997376,0.671082,8.5651905628,0,0,0,287.7, 6.6, 1.7,0,0,1024,1024,1024,1024,0,0,0,0,285.7,0,0,75,3.851,3.852,0,0,0,0,5.591,70.88,643.52782505483,20.669292,6,P-GPS,
443600,2024-02-04 17:20:29,40.4290053048189,-86.9293040268053,20.669292,,,643.52782505483,20.013124,0,8.2046918636,4.0109581336,29,5,7.675,643.85590905483,20.997376,0.671082,8.5651905628,0,0,0,288.6, 6.8, 1.9,0,0,1024,1024,1024,1024,0,0,0,0,285.8,0,0,75,3.851,3.852,0,0,0,0,5.591,70.88,643.52782505483,20.669292,6,P-GPS,
443700,2024-02-04 17:20:29,40.4290053316393,-86.9293040112253,20.669292,,,643.52782505483,20.013124,0,8.2002299212,4.0216864804,29,5,7.675,643.85590905483,20.997376,0.671082,8.5651905628,0,0,0,288.8, 6.9, 1.3,0,0,1024,1024,1024,1024,0,0,0,0,285.8,0,0,75,3.851,3.852,0,0,0,0,5.591,70.88,643.52782505483,20.669292,6,P-GPS,
443800,2024-02-04 17:20:29,40.4290053608862,-86.9293040077056,20.669292,,,643.52782505483,20.013124,0,8.199147244,4.0323820188,29,5,7.675,643.85590905483,20.997376,0.671082,8.5651905628,0,0,0,288.8, 6.9, 0.9,0,0,1024,1024,1024,1024,0,0,0,0,285.8,0,0,75,3.851,3.852,0,0,0,0,5.591,70.88,643.52782505483,20.669292,6,P-GPS,
443900,2024-02-04 17:20:29,40.4290053563787,-86.9293038873846,20.669292,,,643.52782505483,20.013124,0,8.1657482928,4.0658465868,29,5,7.675,643.85590905483,20.997376,0.671082,8.5651905628,0,0,0,288.8, 7, 1.2,0,0,1024,1024,1024,1024,0,0,0,0,285.8,0,0,75,3.851,3.852,0,0,0,0,5.591,70.88,643.52782505483,20.669292,6,P-GPS,
444000,2024-02-04 17:20:29,40.4290053722462,-86.9293039139655,20.997376,,,643.85590905483,20.013124,0,8.173064566,4.0752297892,29,5,7.675,643.85590905483,20.997376,0.671082,8.5651905628,0,0,0,288.8, 6.5, 2.1,0,0,1024,1024,1024,1024,0,0,0,0,285.8,0,0,75,3.851,3.852,0,0,0,0,5.591,70.88,643.85590905483,20.997376,6,P-GPS,
444100,2024-02-04 17:20:29,40.429005358792,-86.929303943585,20.997376,,,643.85590905483,20.013124,0,8.1813322828,4.084809842,29,5,7.675,643.85590905483,20.997376,0.671082,8.5651905628,0,0,0,288.9, 7.3, 2.4,0,0,1024,1024,1024,1024,0,0,0,0,285.8,0,0,75,3.851,3.852,0,0,0,0,5.591,70.88,643.85590905483,20.997376,6,P-GPS,
444200,2024-02-04 17:20:30,40.4290053577889,-86.9293039762516,20.997376,,,643.85590905483,20.013124,0,8.1904202096,4.0938977688,29,5,7.675,643.85590905483,20.997376,0.671082,8.5651905628,0,0,0,288.8, 7.5, 2.3,0,0,1024,1024,1050,1024,0,0,4,0,285.8,0,0,75,3.851,3.852,0,0,0,0,5.591,70.88,643.85590905483,20.997376,6,P-GPS,
444300,2024-02-04 17:20:30,40.429005385163,-86.9293039948829,20.997376,,,643.85590905483,20.013124,0,8.1955055116,4.1051182416,29,5,7.675,643.85590905483,20.997376,0.671082,8.5651905628,0,0,0,288.8, 7.3, 2.1,0,0,1024,1024,1338,1024,0,0,48,0,285.8,0,0,75,3.851,3.852,0,0,0,0,5.591,70.88,643.85590905483,20.997376,6,P-GPS,
444400,2024-02-04 17:20:30,40.4290053495197,-86.9293038535828,20.997376,,,643.85590905483,20.013124,0,8.1563978988,4.146489634,29,5,7.675,643.85590905483,20.997376,0.671082,8.5651905628,0,0,0,288.8, 6.8, 2.5,0,0,1024,1024,1463,1024,0,0,67,0,285.8,0,0,75,3.851,3.852,0,0,0,0,5.591,70.88,643.85590905483,20.997376,6,P-GPS,
444500,2024-02-04 17:20:30,40.4290053673348,-86.92930390225,21.32546,,,644.18399305483,20.013124,0,8.1698493428,4.1614830728,29,5,7.675,644.18399305483,21.32546,0.671082,8.5651905628,0,0,-0.447388,288.6, 5.4, 2.4,0,0,1024,1024,1527,1024,0,0,76,0,285.8,0,0,75,3.851,3.852,0,0,0,0,5.591,70.88,644.18399305483,21.32546,6,P-GPS,
444600,2024-02-04 17:20:30,40.4290054026493,-86.9293039676675,21.32546,,,644.18399305483,20.013124,0,8.1878939628,4.1837599764,29,5,7.675,644.18399305483,21.32546,0.671082,8.5651905628,0,0,-1.342164,288.7, 6.9, 1.8,0,0,1024,1024,1529,1024,0,0,77,0,285.8,0,0,75,3.851,3.852,0,0,0,0,5.591,70.88,644.18399305483,21.32546,6,P-GPS,
444700,2024-02-04 17:20:30,40.4290054492619,-86.9293040246191,21.653544,,,644.51207705483,20.341208,0,8.203576378,4.2069555152,29,5,7.675,644.51207705483,21.653544,0.671082,8.5651905628,0,0,-2.013246,288.8, 7.9, 1.9,0,0,1024,1024,1527,1024,0,0,76,0,285.8,0,0,75,3.851,3.852,0,0,0,0,5.591,70.88,644.51207705483,21.653544,6,P-GPS,
444800,2024-02-04 17:20:30,40.4290054411913,-86.9293039617056,21.981628,,,644.84016105483,20.669292,0,8.1861223092,4.2247048596,29,5,7.675,644.84016105483,21.981628,0.671082,8.5651905628,0,0,-2.684328,288.8, 8, 2.3,0,0,1024,1024,1527,1024,0,0,76,0,285.8,0,0,75,3.851,3.852,0,0,0,0,5.591,70.88,644.84016105483,21.981628,6,P-GPS,
444900,2024-02-04 17:20:30,40.4290055242973,-86.9293039765766,22.637796,,,645.49632905483,21.32546,0,8.190124934,4.2552822884,29,5,7.675,645.49632905483,22.637796,0.671082,8.5651905628,0,0,-3.131716,288.8, 8.2, 1.7,0,0,1024,1024,1519,1024,0,0,75,0,285.8,0,0,75,3.851,3.852,0,0,0,0,5.591,70.88,645.49632905483,22.637796,6,P-GPS,
445000,2024-02-04 17:20:30,40.4290055889367,-86.9293039638805,22.96588,,,645.82441305483,21.653544,0,8.1865488184,4.2791339952,29,5,7.694,645.82441305483,22.96588,0.671082,8.5651905628,0,0,-3.579104,288.8, 7.4, 1.6,0,0,1024,1024,1513,1024,0,0,74,0,285.8,0,0,75,3.814,3.81,0,0,0,0,4.023,71.06,645.82441305483,22.96588,6,P-GPS,
445100,2024-02-04 17:20:30,40.4290056088135,-86.9293039120157,23.622048,,,646.48058105483,22.309712,0,8.1721459308,4.295275728,29,5,7.694,646.48058105483,23.622048,0.671082,8.5651905628,0,0,-3.579104,288.8, 7.1, 1.1,0,0,1024,1024,1489,1024,0,0,70,0,285.8,0,0,75,3.814,3.81,0,0,0,0,4.023,71.06,646.48058105483,23.622048,6,P-GPS,
445200,2024-02-04 17:20:31,40.4290056314294,-86.9293038056612,23.950132,,,646.80866505483,22.637796,0,8.1426511792,4.3259187736,29,5,7.694,646.80866505483,23.950132,0.671082,8.5651905628,0,0,-3.579104,288.8, 7.9, 1.2,0,0,1024,1024,1479,1024,0,0,69,0,285.8,0,0,75,3.814,3.81,0,0,0,0,4.023,71.06,646.80866505483,23.950132,6,P-GPS,
445300,2024-02-04 17:20:31,40.4290056452679,-86.9293037514345,24.6063,,,647.46483305483,23.293964,0,8.1275921236,4.3418308476,29,5,7.694,647.46483305483,24.6063,0.671082,8.5651905628,0,0,-3.579104,288.8, 7.9, 1.7,0,0,1024,1024,1472,1024,0,0,68,0,285.8,0,0,75,3.814,3.81,0,0,0,0,4.023,71.06,647.46483305483,24.6063,6,P-GPS,
445400,2024-02-04 17:20:31,40.4290056588849,-86.9293037146742,24.934384,,,647.79291705483,23.622048,0,8.1173887112,4.353182554,29,5,7.694,647.79291705483,24.934384,0.671082,8.5651905628,0,0,-3.35541,288.8, 7, 1.7,0,0,1024,1024,1454,1024,0,0,65,0,285.8,0,0,75,3.814,3.81,0,0,0,0,4.023,71.06,647.79291705483,24.934384,6,P-GPS,
445500,2024-02-04 17:20:31,40.4290056867574,-86.9293037374118,25.590552,,,648.44908505483,24.278216,0,8.1237535408,4.36515762,29,5,7.694,648.44908505483,25.590552,0.671082,8.5651905628,0,0,-3.35541,288.8, 7, 1.4,0,0,1024,1024,1453,1024,0,0,65,0,285.8,0,0,75,3.814,3.81,0,0,0,0,4.023,71.06,648.44908505483,25.590552,6,P-GPS,
445600,2024-02-04 17:20:31,40.4290057317317,-86.9293037696986,25.918636,,,648.77716905483,24.6063,0,8.1328086592,4.3838255996,29,5,7.694,648.77716905483,25.918636,0.671082,8.5651905628,0,0,-3.131716,288.8, 7.9, 1.6,0,0,1024,1024,1453,1024,0,0,65,0,285.8,0,0,75,3.814,3.81,0,0,0,0,4.023,71.06,648.77716905483,25.918636,6,P-GPS,
445700,2024-02-04 17:20:31,40.4290057756053,-86.9293038653785,26.574804,,,649.43333705483,25.262468,0,8.1595146968,4.414862346,29,5,7.694,649.43333705483,26.574804,0.671082,8.5651905628,0,0,-3.131716,288.8, 7.8, 1.6,0,0,1024,1024,1437,1024,0,0,63,0,285.8,0,0,75,3.814,3.81,0,0,0,0,4.023,71.06,649.43333705483,26.574804,6,P-GPS,
445800,2024-02-04 17:20:31,40.4290058073599,-86.9293039503614,26.902888,,,649.76142105483,25.590552,0,8.1832023616,4.4411418744,29,5,7.694,649.76142105483,26.902888,0.671082,8.5651905628,0,0,-2.908022,288.8, 8.3, 1.9,0,0,1024,1024,1436,1024,0,0,62,0,285.8,0,0,75,3.814,3.81,0,0,0,0,4.023,71.06,649.76142105483,26.902888,6,P-GPS,
445900,2024-02-04 17:20:31,40.4290058071808,-86.9293039769719,27.230972,,,650.08950505483,25.918636,0,8.1905842516,4.4485565728,29,5,7.694,650.08950505483,27.230972,0.671082,8.5651905628,0,0,-2.684328,288.9, 8.4, 2.2,0,0,1024,1024,1156,1024,0,0,20,0,285.8,0,0,75,3.814,3.81,0,0,0,0,4.023,71.06,650.08950505483,27.230972,6,P-GPS,
446000,2024-02-04 17:20:31,40.4290058136197,-86.9293039853914,27.88714,,,650.74567305483,26.574804,0,8.1929464564,4.4518702212,29,5,7.694,650.74567305483,27.88714,0.671082,8.5651905628,0,0,-2.684328,288.9, 8.8, 2,0,0,1024,1024,1024,1024,0,0,0,0,285.8,0,0,75,3.814,3.81,0,0,0,0,4.023,71.06,650.74567305483,27.88714,6,P-GPS,
446100,2024-02-04 17:20:31,40.4290058535328,-86.9293038713686,28.215224,,,651.07375705483,26.574804,0,8.1614503924,4.486712742,29,5,7.694,651.07375705483,28.215224,0.671082,8.5651905628,0,0,-2.013246,288.9, 10, 1.9,0,0,1024,1024,1024,1024,0,0,0,0,285.8,0,0,75,3.814,3.81,0,0,0,0,4.023,71.06,651.07375705483,28.215224,6,P-GPS,
446200,2024-02-04 17:20:31,40.4290058829393,-86.9293038836173,28.215224,,,651.07375705483,26.902888,0,8.1649936996,4.4979660232,29,5,7.694,651.07375705483,28.215224,0.671082,8.5651905628,0,0,-1.342164,288.9, 9.3, 1.3,0,0,1024,1024,1024,1024,0,0,0,0,285.8,0,0,75,3.814,3.81,0,0,0,0,4.023,71.06,651.07375705483,28.215224,6,P-GPS,
446300,2024-02-04 17:20:32,40.4290058765883,-86.9293039904755,28.543308,,,651.40184105483,27.230972,0,8.1946196848,4.527723242,29,5,7.694,651.40184105483,28.543308,0.671082,8.5651905628,0,0,-0.894776,288.8, 7.3, 1,0,0,1024,1024,1024,1024,0,0,0,0,285.8,0,0,75,3.814,3.81,0,0,0,0,4.023,71.06,651.40184105483,28.543308,6,P-GPS,
446400,2024-02-04 17:20:32,40.4290058721948,-86.9293040923888,28.543308,,,651.40184105483,27.230972,0,8.2229005256,4.556102508,29,5,7.694,651.40184105483,28.543308,0.671082,8.5651905628,0,0,-0.671082,288.7, 7.2, 0.9,0,0,1024,1024,1024,1024,0,0,0,0,285.8,0,0,75,3.814,3.81,0,0,0,0,4.023,71.06,651.40184105483,28.543308,6,P-GPS,
446500,2024-02-04 17:20:32,40.4290058994973,-86.9293043064315,28.543308,,,651.40184105483,27.230972,0,8.28248058,4.6163715388,29,5,7.694,651.40184105483,28.543308,0.671082,8.5651905628,0,0,-0.223694,288.8, 8.3, 1.1,0,0,1024,1024,1024,1024,0,0,0,0,285.8,0,0,75,3.814,3.81,0,0,0,0,4.023,71.06,651.40184105483,28.543308,6,P-GPS,
446600,2024-02-04 17:20:32,40.4290059158892,-86.9293043434028,28.543308,,,651.40184105483,27.559056,0,8.2928480344,4.6282481796,29,5,7.658,651.40184105483,28.543308,0.671082,8.5651905628,0,0,0,288.8, 8.3, 1.4,0,0,1024,1024,1024,1024,0,0,0,0,285.8,0,0,75,3.857,3.855,0,0,0,0,5.212,71.06,651.40184105483,28.543308,6,P-GPS,
446700,2024-02-04 17:20:32,40.4290059370362,-86.929304246468,28.543308,,,651.40184105483,27.559056,0,8.2660435716,4.6562337448,29,5,7.658,651.40184105483,28.543308,0.671082,8.5651905628,0,0,0,288.8, 8.2, 1.7,0,0,1024,1024,1024,1024,0,0,0,0,285.8,0,0,75,3.857,3.855,0,0,0,0,5.212,71.06,651.40184105483,28.543308,6,P-GPS,
446800,2024-02-04 17:20:32,40.4290059460089,-86.9293041580258,28.543308,,,651.40184105483,27.559056,0,8.2415356968,4.6810368952,29,5,7.658,651.40184105483,28.543308,0.671082,8.5651905628,0,0,0,288.8, 8.4, 1.9,0,0,1024,1024,1024,1024,0,0,0,0,285.8,0,0,75,3.857,3.855,0,0,0,0,5.212,71.06,651.40184105483,28.543308,6,P-GPS,
446900,2024-02-04 17:20:32,40.4290059405406,-86.9293039347294,28.543308,,,651.40184105483,27.230972,0,8.1794950124,4.7430775796,29,5,7.658,651.40184105483,28.543308,0.671082,8.5651905628,0,0,0,288.8, 8.2, 1,0,0,1024,1024,1024,1024,0,0,0,0,285.8,0,0,75,3.857,3.855,0,0,0,0,5.212,71.06,651.40184105483,28.543308,6,P-GPS,
447000,2024-02-04 17:20:32,40.4290059295453,-86.929303912397,28.543308,,,651.40184105483,27.230972,0,8.173228608,4.7504594696,29,5,7.658,651.40184105483,28.543308,0.671082,8.5651905628,0,0,0,288.8, 7.9, 1.2,0,0,1024,1024,1176,1024,0,0,23,0,285.8,0,0,75,3.857,3.855,0,0,0,0,5.212,71.06,651.40184105483,28.543308,6,P-GPS,
447100,2024-02-04 17:20:32,40.4290059931849,-86.9293039022246,28.543308,,,651.40184105483,27.230972,0,8.1708007864,4.7738518588,29,5,7.658,651.40184105483,28.543308,0.671082,8.5651905628,0,0,0,288.8, 7.3, 1.3,0,0,1024,1024,1204,1024,0,0,27,0,285.8,0,0,75,3.857,3.855,0,0,0,0,5.212,71.06,651.40184105483,28.543308,6,P-GPS,
447200,2024-02-04 17:20:33,40.4290060420611,-86.9293038834457,28.543308,,,651.40184105483,27.230972,0,8.1659123348,4.7924214132,29,5,7.658,651.40184105483,28.543308,0.671082,8.5651905628,0,0,0,288.7, 6.4, 1.7,0,0,1024,1024,1237,1024,0,0,32,0,285.8,0,0,75,3.857,3.855,0,0,0,0,5.212,71.06,651.40184105483,28.543308,6,P-GPS,
447300,2024-02-04 17:20:33,40.4290061898782,-86.9293038919496,28.543308,,,651.40184105483,27.230972,0,8.1695540672,4.8464240396,29,5,7.658,651.40184105483,28.543308,0.671082,8.5651905628,0,0,-0.223694,288.8, 6.7, 1.9,0,0,1024,1024,1323,1024,0,0,45,0,285.8,0,0,75,3.857,3.855,0,0,0,0,5.212,71.06,651.40184105483,28.543308,6,P-GPS,
447400,2024-02-04 17:20:33,40.4290062031695,-86.9293038504527,28.543308,,,651.40184105483,27.230972,0,8.1581695524,4.85892404,29,5,7.658,651.40184105483,28.543308,0.671082,8.5651905628,0,0,-0.223694,288.8, 7.7, 1.5,0,0,1024,1024,1324,1024,0,0,45,0,285.8,0,0,75,3.857,3.855,0,0,0,0,5.212,71.06,651.40184105483,28.543308,6,P-GPS,
447500,2024-02-04 17:20:33,40.4290061854586,-86.9293037657456,28.543308,,,651.40184105483,27.230972,0,8.1344818876,4.8833006812,29,5,7.658,651.40184105483,28.543308,0.671082,8.5651905628,0,0,-0.671082,288.8, 6.1, 1.8,0,0,1024,1024,1324,1024,0,0,45,0,285.8,0,0,75,3.857,3.855,0,0,0,0,5.212,71.06,651.40184105483,28.543308,6,P-GPS,
447600,2024-02-04 17:20:33,40.4290061495253,-86.9293036832006,28.871392,,,651.72992505483,27.559056,0,8.111220732,4.9097114432,29,5,7.658,651.72992505483,28.871392,0.671082,8.5651905628,0,0,-0.894776,288.8, 5.6, 1.8,0,0,1024,1024,1324,1024,0,0,45,0,285.8,0,0,75,3.857,3.855,0,0,0,0,5.212,71.06,651.72992505483,28.871392,6,P-GPS,
447700,2024-02-04 17:20:33,40.4290060682497,-86.9293036354394,28.871392,,,651.72992505483,27.559056,0,8.0972443536,4.9422245676,29,5,7.658,651.72992505483,28.871392,0.671082,8.5651905628,0,0,-1.11847,288.8, 6.2, 2.2,0,0,1024,1024,1287,1024,0,0,40,0,285.8,0,0,75,3.857,3.855,0,0,0,0,5.212,71.06,651.72992505483,28.871392,6,P-GPS,
447800,2024-02-04 17:20:33,40.4290058833855,-86.9293035372835,29.199476,,,652.05800905483,27.88714,0,8.0687994708,5.0149607904,29,5,7.658,652.05800905483,29.199476,0.671082,8.5651905628,0,0,-1.11847,288.8, 7, 2.6,0,0,1024,1024,1285,1024,0,0,40,0,285.8,0,0,75,3.857,3.855,0,0,0,0,5.212,71.06,652.05800905483,29.199476,6,P-GPS,
447900,2024-02-04 17:20:33,40.4290058392058,-86.9293035285404,29.199476,,,652.05800905483,27.88714,0,8.0661747988,5.0312665652,29,5,7.658,652.05800905483,29.199476,0.671082,8.5651905628,0,0,-1.11847,288.9, 6.9, 2.6,0,0,1024,1024,1266,1024,0,0,37,0,285.8,0,0,75,3.857,3.855,0,0,0,0,5.212,71.06,652.05800905483,29.199476,6,P-GPS,
448000,2024-02-04 17:20:33,40.4290058059595,-86.9293035090215,29.52756,,,652.38609305483,28.215224,0,8.0606301792,5.0445539672,29,5,7.658,652.38609305483,29.52756,0.671082,8.5651905628,0,0,-1.11847,288.8, 5.9, 2.6,0,0,1024,1024,1196,1024,0,0,26,0,285.8,0,0,75,3.857,3.855,0,0,0,0,5.212,71.06,652.38609305483,29.52756,6,P-GPS,
448100,2024-02-04 17:20:33,40.4290057996411,-86.9293034600336,29.52756,,,652.38609305483,28.215224,0,8.0470146932,5.0583334952,29,5,7.658,652.38609305483,29.52756,0.671082,8.5651905628,0,0,-0.894776,288.8, 5.6, 2.1,0,0,1024,1024,1024,1024,0,0,0,0,285.8,0,0,75,3.857,3.855,0,0,0,0,5.212,71.06,652.38609305483,29.52756,6,P-GPS,
448200,2024-02-04 17:20:34,40.429005833402,-86.9293033348044,29.52756,,,652.38609305483,28.215224,0,8.0123690228,5.0952429452,29,5,7.658,652.38609305483,29.52756,0.671082,8.5651905628,0,0,-0.671082,288.8, 6, 2.5,0,0,1024,1024,1024,1024,0,0,0,0,285.8,0,0,75,3.83,3.829,0,0,0,0,5.212,71.06,652.38609305483,29.52756,6,P-GPS,
448300,2024-02-04 17:20:34,40.4290058135676,-86.9293032285132,29.52756,,,652.38609305483,28.543308,0,7.982775846,5.1256235236,29,5,7.658,652.38609305483,29.52756,0.671082,8.5651905628,0,0,-0.447388,288.8, 6.1, 2.5,0,0,1024,1024,1024,1024,0,0,0,0,285.8,0,0,75,3.83,3.829,0,0,0,0,5.212,71.06,652.38609305483,29.52756,6,P-GPS,
448400,2024-02-04 17:20:34,40.4290057942542,-86.9293031535282,29.52756,,,652.38609305483,28.543308,0,7.9618768952,5.1476051516,29,5,7.658,652.38609305483,29.52756,0.671082,8.5651905628,0,0,-0.223694,288.8, 5.1, 2.2,0,0,1024,1024,1024,1024,0,0,0,0,285.8,0,0,75,3.83,3.829,0,0,0,0,5.212,71.06,652.38609305483,29.52756,6,P-GPS,
448500,2024-02-04 17:20:34,40.4290057357442,-86.9293031746607,29.52756,,,652.38609305483,28.543308,0,7.9675527484,5.1697508216,29,5,7.658,652.38609305483,29.52756,0.671082,8.5651905628,0,0,0,288.7, 5.6, 1.6,0,0,1024,1024,1024,1024,0,0,0,0,285.8,0,0,75,3.83,3.829,0,0,0,0,5.212,71.06,652.38609305483,29.52756,6,P-GPS,
448600,2024-02-04 17:20:34,40.4290055764694,-86.9293030876971,29.52756,,,652.38609305483,28.543308,0,7.9432089156,5.2326773328,29,5,7.658,652.38609305483,29.52756,0.671082,8.5651905628,0,0,0,288.8, 6.2, 1.5,0,0,1024,1024,1024,1024,0,0,0,0,285.8,0,0,75,3.83,3.829,0,0,0,0,5.212,71.06,652.38609305483,29.52756,6,P-GPS,
448700,2024-02-04 17:20:34,40.4290056009058,-86.9293030796644,29.52756,,,652.38609305483,28.543308,0,7.9409779444,5.2418964932,29,5,7.658,652.38609305483,29.52756,0.671082,8.5651905628,0,0,0,288.7, 6.5, 0.8,0,0,1024,1024,1024,1024,0,0,0,0,285.8,0,0,75,3.83,3.829,0,0,0,0,5.212,71.06,652.38609305483,29.52756,6,P-GPS,
448800,2024-02-04 17:20:34,40.4290056218932,-86.9293030882556,29.52756,,,652.38609305483,28.871392,0,7.9433729576,5.2499017428,29,5,7.658,652.38609305483,29.52756,0.671082,8.5651905628,0,0,0,288.8, 6.7, 0.6,0,0,1024,1024,1024,1024,0,0,0,0,285.8,0,0,75,3.83,3.829,0,0,0,0,5.212,71.06,652.38609305483,29.52756,6,P-GPS,
448900,2024-02-04 17:20:34,40.4290056380408,-86.9293031433179,29.52756,,,652.38609305483,28.543308,0,7.9586944804,5.2662731344,29,5,7.658,652.38609305483,29.52756,0.671082,8.5651905628,0,0,0,288.8, 7.1, 1.2,0,0,1024,1024,1024,1024,0,0,0,0,285.8,0,0,75,3.83,3.829,0,0,0,0,5.212,71.06,652.38609305483,29.52756,6,P-GPS,
449000,2024-02-04 17:20:34,40.4290056436785,-86.9293030934395,29.52756,,,652.38609305483,28.543308,0,7.9448493356,5.2802823212,29,5,7.658,652.38609305483,29.52756,0.671082,8.5651905628,0,0,0,288.8, 6.7, 1.9,0,0,1024,1024,1024,1024,0,0,0,0,285.8,0,0,75,3.83,3.829,0,0,0,0,5.212,71.06,652.38609305483,29.52756,6,P-GPS,
449100,2024-02-04 17:20:34,40.4290055512578,-86.9293030800893,29.52756,,,652.38609305483,28.543308,0,7.941109178,5.3142062068,29,5,7.658,652.38609305483,29.52756,0.671082,8.5651905628,0,0,0,288.8, 6.2, 2.3,0,0,1024,1024,1024,1024,0,0,0,0,285.8,0,0,75,3.83,3.829,0,0,0,0,5.212,71.06,652.38609305483,29.52756,6,P-GPS,
449200,2024-02-04 17:20:35,40.4290054702004,-86.9293030744622,29.52756,,,652.38609305483,28.543308,0,7.9396656084,5.343832192,29,5,7.658,652.38609305483,29.52756,0.671082,8.5651905628,0,0,0,288.9, 6.2, 2.8,0,0,1024,1024,1024,1024,0,0,0,0,285.8,0,0,75,3.83,3.829,0,0,0,0,5.212,71.06,652.38609305483,29.52756,6,P-GPS,
449300,2024-02-04 17:20:35,40.4290054392958,-86.9293031094752,29.855644,,,652.71417705483,28.543308,0,7.9494425116,5.3587272056,29,5,7.658,652.71417705483,29.855644,0.671082,8.5651905628,0,0,0,288.9, 6.4, 3.2,0,0,1024,1024,1024,1024,0,0,0,0,285.8,0,0,75,3.83,3.829,0,0,0,0,5.212,71.06,652.71417705483,29.855644,6,P-GPS,
449400,2024-02-04 17:20:35,40.429005403483,-86.9293031320089,29.52756,,,652.38609305483,28.543308,0,7.9558073412,5.37319571,29,5,7.658,652.71417705483,29.855644,0.671082,8.5651905628,0,0,0,288.9, 6.3, 3.7,0,0,1024,1024,1024,1024,0,0,0,0,285.8,0,0,75,3.83,3.829,0,0,0,0,5.212,71.06,652.38609305483,29.52756,6,P-GPS,
449500,2024-02-04 17:20:35,40.4290053650485,-86.9293031042491,29.52756,,,652.38609305483,28.543308,0,7.9482286008,5.3892062092,29,5,7.658,652.71417705483,29.855644,0.671082,8.5651905628,0,0,0,288.9, 5.7, 3.7,0,0,1024,1024,1024,1024,0,0,0,0,285.8,0,0,75,3.83,3.829,0,0,0,0,5.212,71.06,652.38609305483,29.52756,6,P-GPS,
449600,2024-02-04 17:20:35,40.4290053230802,-86.9293030815129,29.52756,,,652.38609305483,28.543308,0,7.94209343,5.4057744512,29,5,7.658,652.71417705483,29.855644,0.671082,8.5651905628,0,0,0,288.8, 5.4, 3.3,0,0,1024,1024,1024,1024,0,0,0,0,285.8,0,0,75,3.83,3.829,0,0,0,0,5.212,71.06,652.38609305483,29.52756,6,P-GPS,
449700,2024-02-04 17:20:35,40.4290053052781,-86.9293030621938,29.52756,,,652.38609305483,28.543308,0,7.9368112776,5.41420621,29,5,7.658,652.71417705483,29.855644,0.671082,8.5651905628,0,0,0,288.9, 5.5, 2.7,0,0,1024,1024,1024,1024,0,0,0,0,285.8,0,0,75,3.83,3.829,0,0,0,0,5.212,71.06,652.38609305483,29.52756,6,P-GPS,
449800,2024-02-04 17:20:35,40.429005298595,-86.9293030557733,29.52756,,,652.38609305483,28.543308,0,7.935039624,5.4172245828,29,5,7.658,652.71417705483,29.855644,0.671082,8.5651905628,0,0,0,288.8, 5.5, 2.5,0,0,1024,1024,1024,1024,0,0,0,0,285.8,0,0,75,3.83,3.829,0,0,0,0,5.212,71.06,652.38609305483,29.52756,6,P-GPS,
449900,2024-02-04 17:20:35,40.4290053065222,-86.9293030247034,29.52756,,,652.38609305483,28.543308,0,7.9263782064,5.4263125096,29,5,7.658,652.71417705483,29.855644,0.671082,8.5651905628,0,0,0,288.8, 5.5, 2.4,0,0,1024,1024,1024,1024,0,0,0,0,285.8,0,0,75,3.83,3.829,0,0,0,0,5.212,71.06,652.38609305483,29.52756,6,P-GPS,
450000,2024-02-04 17:20:35,40.429005315306,-86.9293030489364,29.52756,,,652.38609305483,28.543308,0,7.93307112,5.4337600164,29,5,7.658,652.71417705483,29.855644,0.671082,8.5651905628,0,0,0,288.9, 5.9, 3.1,0,0,1024,1024,1024,1024,0,0,0,0,285.8,0,0,75,3.83,3.829,0,0,0,0,5.212,71.06,652.38609305483,29.52756,6,P-GPS,
450100,2024-02-04 17:20:35,40.4290053590167,-86.9293030887113,29.52756,,,652.38609305483,28.543308,0,7.9439307004,5.4531825892,29,5,7.661,652.71417705483,29.855644,0.671082,8.5651905628,0,0,0,288.9, 5.4, 2.5,0,0,1024,1024,1024,1024,0,0,0,0,285.8,0,0,75,3.833,3.831,0,0,0,0,4.087,71.06,652.38609305483,29.52756,6,P-GPS,
450200,2024-02-04 17:20:36,40.4290053993728,-86.9293031226778,29.52756,,,652.38609305483,28.543308,0,7.9532154776,5.4706694664,29,5,7.661,652.71417705483,29.855644,0.671082,8.5651905628,0,0,0,288.8, 5.6, 2.7,0,0,1024,1024,1024,1024,0,0,0,0,285.8,0,0,75,3.833,3.831,0,0,0,0,4.087,71.06,652.38609305483,29.52756,6,P-GPS,
450300,2024-02-04 17:20:36,40.4290055127907,-86.9293030675184,29.52756,,,652.38609305483,28.543308,0,7.937664296,5.5147967644,29,5,7.661,652.71417705483,29.855644,0.671082,8.5651905628,0,0,0,288.8, 6, 2.7,0,0,1024,1024,1024,1024,0,0,0,0,285.8,0,0,75,3.833,3.831,0,0,0,0,4.087,71.06,652.38609305483,29.52756,6,P-GPS,
450400,2024-02-04 17:20:36,40.4290055416858,-86.9293030816297,29.52756,,,652.38609305483,28.215224,0,7.9415684956,5.5260172372,29,5,7.661,652.71417705483,29.855644,0.671082,8.5651905628,0,0,0,288.8, 6, 2.5,0,0,1024,1024,1059,1024,0,0,5,0,285.8,0,0,75,3.833,3.831,0,0,0,0,4.087,71.06,652.38609305483,29.52756,6,P-GPS,
450500,2024-02-04 17:20:36,40.4290055611229,-86.9293031159759,29.52756,,,652.38609305483,28.215224,0,7.9510829316,5.5379266864,29,5,7.661,652.71417705483,29.855644,0.671082,8.5651905628,0,0,0,288.8, 6.3, 2.3,0,0,1024,1024,1057,1024,0,0,5,0,285.8,0,0,75,3.833,3.831,0,0,0,0,4.087,71.06,652.38609305483,29.52756,6,P-GPS,
