time(millisecond),datetime(utc),latitude,longitude,height_above_takeoff(feet),height_above_ground_at_drone_location(feet),ground_elevation_at_drone_location(feet),altitude_above_seaLevel(feet),height_sonar(feet),speed(mph),distance(feet),mileage(feet),satellites,gpslevel,voltage(v),max_altitude(feet),max_ascent(feet),max_speed(mph),max_distance(feet), xSpeed(mph), ySpeed(mph), zSpeed(mph), compass_heading(degrees), pitch(degrees), roll(degrees),isPhoto,isVideo,rc_elevator,rc_aileron,rc_throttle,rc_rudder,rc_elevator(percent),rc_aileron(percent),rc_throttle(percent),rc_rudder(percent),gimbal_heading(degrees),gimbal_pitch(degrees),gimbal_roll(degrees),battery_percent,voltageCell1,voltageCell2,voltageCell3,voltageCell4,voltageCell5,voltageCell6,current(A),battery_temperature(f),altitude(feet),ascent(feet),flycStateRaw,flycState,message
171900,2024-02-01 19:25:11,40.429011174449,-86.9292831495268,0,Available with any HD 360 subscription,Available with any HD 360 subscription,622.8585829236,0,0,0,0,29,5,0,622.8585829236,0,0,0,0,0,0,293.9, -8.5, 2.7,0,0,1024,1024,1024,1024,0,0,0,0,300.6,0,0,88,4.031,4.023,0,0,0,0,0,81.68,622.8585829236,0,41,Motors_Started,"Gimbal stuck Gimbal stuck. Check whether gimbal cover is removed and make sure gimbal can rotate freely on all three axes (Code: 40028). Remote ID functionality normal (Code: 30331)"
172000,2024-02-01 19:25:11,40.4290111715027,-86.9292831491667,0,,,622.8585829236,0,0,0.00107958336788,0.00107958336788,29,5,0,622.8585829236,0,0,0.00107958336788,0,0,0,293.9, -8.5, 2.6,0,0,1024,1024,1024,1024,0,0,0,0,300.6,0,0,88,4.031,4.023,0,0,0,0,0,81.68,622.8585829236,0,41,Motors_Started,
172100,2024-02-01 19:25:11,40.4290111035331,-86.929283041501,0,,,622.8585829236,0,0,0.039617455336,0.039926510464,29,5,0,622.8585829236,0,0,0.039617455336,0,0,0,294, -8.5, 2.6,0,0,1024,1024,1024,1024,0,0,0,0,300.6,0,0,88,4.031,4.023,0,0,0,0,0,81.68,622.8585829236,0,41,Motors_Started,"Aircraft in Warning Zone (Class D Airspace). Fly with caution"
172200,2024-02-01 19:25:11,40.4290111003707,-86.9292830796329,0,,,622.8585829236,0,0,0.0332759197,0.050579397944,29,5,0,622.8585829236,0,0,0.039617455336,0,0,0,293.9, -8.5, 2.6,0,0,1024,1024,1024,1024,0,0,0,0,300.6,0,0,88,4.031,4.023,0,0,0,0,0,81.68,622.8585829236,0,41,Motors_Started,"Setting new Return-To-Home altitude to 100m (328 ft). Data Recorder File Index is 2. Setting new Maximum Flight Altitude to 120m (394 ft)"
172300,2024-02-01 19:25:11,40.4290110984306,-86.9292831262476,0,,,622.8585829236,0,0,6.6595474572,0.06354494954,29,5,0,622.8585829236,0,0,6.6595474572,0,0,0,293.9, -8.6, 2.6,0,0,1024,1024,1024,1024,0,0,0,0,300.6,0,0,88,4.031,4.023,0,0,0,0,0,81.68,622.8585829236,0,41,Motors_Started,
172400,2024-02-01 19:25:11,40.4290110967368,-86.9292831475067,0,,,622.8585829236,0,0,6.6629595308,0.069481301436,29,5,0,622.8585829236,0,0,6.6629595308,0,0,0,293.9, -8.6, 2.7,0,0,1024,1024,1024,1024,0,0,0,0,300.6,0,0,88,4.031,4.023,0,0,0,0,0,81.68,622.8585829236,0,41,Motors_Started,
172500,2024-02-01 19:25:11,40.4290110610997,-86.9292831731606,0,,,622.8585829236,0,0,6.6578414204,0.08430774548,29,5,0,622.8585829236,0,0,6.6629595308,0,0,0,293.9, -8.6, 2.6,0,0,1024,1024,1024,1024,0,0,0,0,300.6,0,0,88,4.031,4.023,0,0,0,0,0,81.68,622.8585829236,0,41,Motors_Started,
172600,2024-02-01 19:25:11,40.4290110608872,-86.9292832192238,0,,,622.8585829236,0,0,6.6662075624,0.097101052976,29,5,0,622.8585829236,0,0,6.6662075624,0,0,0,293.9, -8.6, 2.7,0,0,1024,1024,1024,1024,0,0,0,0,300.6,0,0,88,4.031,4.023,0,0,0,0,0,81.68,622.8585829236,0,41,Motors_Started,
172700,2024-02-01 19:25:12,40.4290110613434,-86.9292832762683,0,,,622.8585829236,0,0,6.6767718672,0.11294455742,29,5,0,622.8585829236,0,0,6.6767718672,0,0,0,293.9, -8.6, 2.7,0,0,1024,1024,1024,1024,0,0,0,0,300.6,0,0,88,4.031,4.023,0,0,0,0,0,81.68,622.8585829236,0,41,Motors_Started,
172800,2024-02-01 19:25:12,40.4290110630993,-86.929283297896,0,,,622.8585829236,0,0,6.6812338096,0.118985240028,29,5,0,622.8585829236,0,0,6.6812338096,0,0,0,293.9, -8.6, 2.7,0,0,1024,1024,1024,1024,0,0,0,0,300.6,0,0,88,4.031,4.023,0,0,0,0,0,81.68,622.8585829236,0,41,Motors_Started,
172900,2024-02-01 19:25:12,40.4290110655124,-86.929283315973,0,,,622.8585829236,0,0,6.685203626,0.124082353052,29,5,0,622.8585829236,0,0,6.685203626,0,0,0,293.9, -8.6, 2.7,0,0,1024,1024,1024,1024,0,0,0,0,300.5,0,0,88,4.031,4.023,0,0,0,0,0,81.68,622.8585829236,0,41,Motors_Started,
173000,2024-02-01 19:25:12,40.4290111338285,-86.9292832925756,0,,,622.8585829236,0,0,6.699639322,0.149840555976,29,5,0,622.8585829236,0,0,6.699639322,0,0,0,293.9, -8.7, 2.8,0,0,1024,1024,1024,1024,0,0,0,0,300.6,0,0,88,4.031,4.023,0,0,0,0,0,81.68,622.8585829236,0,11,AutoTakeoff,
173100,2024-02-01 19:25:12,40.4290112206231,-86.9292832640998,0,,,622.8585829236,0,0,6.7183073016,0.182479992716,29,5,0,622.8585829236,0,0,6.7183073016,0,0,0,293.9, -8.7, 2.7,0,0,1024,1024,1024,1024,0,0,0,0,300.5,0,0,88,4.031,4.023,0,0,0,0,0,81.68,622.8585829236,0,11,AutoTakeoff,
173200,2024-02-01 19:25:12,40.42901125335,-86.9292832946464,0,,,622.8585829236,0,0,6.7329070396,0.197127302896,29,5,0,622.8585829236,0,0,6.7329070396,0,0,0,294, -8.5, 2.7,0,0,1024,1024,1024,1024,0,0,0,0,300.5,0,0,88,4.031,4.023,0,0,0,0,0,81.68,622.8585829236,0,11,AutoTakeoff,
173300,2024-02-01 19:25:12,40.4290112799553,-86.9292833430843,0,,,622.8585829236,0,0,6.7490487724,0.213716542272,29,5,0,622.8585829236,0,0,6.7490487724,0,0,0,294.9, -8.4, 2.7,0,0,1024,1024,1024,1024,0,0,0,0,300.5,0,0,88,4.031,4.023,0,0,0,0,0,81.68,622.8585829236,0,11,AutoTakeoff,
173400,2024-02-01 19:25:12,40.4290112857949,-86.9292833728599,0,,,622.8585829236,0,0.223694,6.75606977,0.222255912624,29,5,0,622.8585829236,0,0.223694,6.75606977,0.223694,0,0,296.2, -6.8, 3.5,0,0,1024,1024,1024,1024,0,0,0,0,300.6,0,0,88,4.031,4.023,0,0,0,0,0,81.68,622.8585829236,0,11,AutoTakeoff,
173500,2024-02-01 19:25:12,40.4290114181379,-86.9292833976191,0,,,622.8585829236,0,0.447388,6.7970474616,0.27102855198,29,5,0,622.8585829236,0,0.447388,6.7970474616,0.447388,0,0,297.2, -0.5, 3.4,0,0,1024,1024,1024,1024,0,0,0,0,300.7,0,0,88,4.031,4.023,0,0,0,0,0,81.68,622.8585829236,0,11,AutoTakeoff,
173600,2024-02-01 19:25:12,40.4290116398734,-86.929283382758,0,,,622.8585829236,0,0.671082,6.855807306,0.352034132,29,5,8.037,622.8585829236,0,0.671082,6.855807306,0.671082,0,0,297.5, 2.8, 2,0,0,1024,1024,1024,1024,0,0,0,0,300.8,0,0,88,4.017,4.004,0,0,0,0,2.013,81.68,622.8585829236,0,11,AutoTakeoff,
173700,2024-02-01 19:25:12,40.429011957389,-86.9292832572404,0,,,622.8585829236,0,0.7158208,6.922244316,0.47301182616,29,5,8.037,622.8585829236,0,0.7158208,6.922244316,0.671082,0.223694,-0.223694,297.4, 0.7, 1.3,0,0,1024,1024,1024,1024,0,0,0,0,300.9,0,0,88,4.017,4.004,0,0,0,0,2.013,81.68,622.8585829236,0,11,AutoTakeoff,
173800,2024-02-01 19:25:13,40.4290122740123,-86.9292830004993,0,,,622.8585829236,0,1.006623,6.967191824,0.60876314284,29,5,8.037,622.8585829236,0,1.006623,6.967191824,0.894776,0.447388,-0.671082,297.5, -0.6, -0.2,0,0,1024,1024,1024,1024,0,0,0,0,301.1,0,0,88,4.017,4.004,0,0,0,0,2.013,81.68,622.8585829236,0,11,AutoTakeoff,
173900,2024-02-01 19:25:13,40.4290127142751,-86.9292827015496,0,,,622.8585829236,0,1.2079476,7.0432416952,0.7895833586,29,5,8.037,622.8585829236,0,1.2079476,7.0432416952,1.11847,0.447388,-1.342164,297.6, -1.7, -5.1,0,0,1024,1024,1024,1024,0,0,0,0,301.2,0,0,88,4.017,4.004,0,0,0,0,2.013,81.68,622.8585829236,0,11,AutoTakeoff,
174000,2024-02-01 19:25:13,40.4290131479892,-86.9292824754845,0.328084,,,623.1866669236,0.984252,0.9171454,7.133038286,0.95982286536,29,5,8.037,623.1866669236,0.328084,1.2079476,7.133038286,0.894776,0.223694,-1.789552,297.7, -0.7, -7.6,0,0,1024,1024,1024,1024,0,0,0,0,301.3,0,0,88,4.017,4.004,0,0,0,0,2.013,81.68,623.1866669236,0.328084,11,AutoTakeoff,
174100,2024-02-01 19:25:13,40.4290135549365,-86.9292823108953,0.656168,,,623.5147509236,1.312336,0.9171454,7.2274608612,1.1151739202,29,5,8.037,623.5147509236,0.656168,1.2079476,7.2274608612,0.894776,0.223694,-2.23694,297.6, 0, -7.7,0,0,1024,1024,1024,1024,0,0,0,0,301.5,0,0,88,4.017,4.004,0,0,0,0,2.013,81.68,623.5147509236,0.656168,11,AutoTakeoff,
174200,2024-02-01 19:25:13,40.4290139678387,-86.9292820666773,0.984252,,,623.8428349236,1.64042,0.671082,7.3134188692,1.28038718008,29,5,8.037,623.8428349236,0.984252,1.2079476,7.3134188692,0.671082,0,-2.460634,297.4, 1.1, -7.3,0,0,1024,1024,1024,1024,0,0,0,0,301.6,0,0,88,4.017,4.004,0,0,0,0,2.013,81.68,623.8428349236,0.984252,11,AutoTakeoff,
174300,2024-02-01 19:25:13,40.4290142735188,-86.9292819233528,1.312336,,,624.1709189236,1.968504,0.447388,7.3844818636,1.39880581904,29,5,8.037,624.1709189236,1.312336,1.2079476,7.3844818636,0.447388,0,-2.460634,297.4, 1.7, -6.2,0,0,1024,1024,1093,1024,0,0,10,0,301.7,0,0,88,4.017,4.004,0,0,0,0,2.013,81.68,624.1709189236,1.312336,11,AutoTakeoff,
174400,2024-02-01 19:25:13,40.4290145373597,-86.9292818229405,1.312336,,,624.1709189236,2.296588,0.447388,7.4502627056,1.49902563852,29,5,8.037,624.1709189236,1.312336,1.2079476,7.4502627056,0.447388,0,-2.460634,297.4, 1.5, -5.7,0,0,1024,1024,1324,1024,0,0,45,0,301.7,0,0,88,4.017,4.004,0,0,0,0,2.013,81.68,624.1709189236,1.312336,11,AutoTakeoff,
174500,2024-02-01 19:25:13,40.4290147910823,-86.9292817234791,1.64042,,,624.4990029236,2.624672,0.447388,7.5138125764,1.59562997232,29,5,8.037,624.4990029236,1.64042,1.2079476,7.5138125764,0.447388,0,-2.460634,297.4, 1, -5.2,0,0,1024,1024,1324,1024,0,0,45,0,301.8,0,0,88,4.017,4.004,0,0,0,0,2.013,81.68,624.4990029236,1.64042,11,AutoTakeoff,
174600,2024-02-01 19:25:13,40.4290149785268,-86.9292817318859,1.968504,,,624.8270869236,2.952756,0.447388,7.5731301636,1.6640584522,28,5,8.037,624.8270869236,1.968504,1.2079476,7.5731301636,0.447388,0,-2.23694,297.5, 0.9, -5,0,0,1024,1024,1378,1024,0,0,54,0,301.8,0,0,88,4.017,4.004,0,0,0,0,2.013,81.68,624.8270869236,1.968504,6,P-GPS,
174700,2024-02-01 19:25:14,40.42901516297,-86.9292819484778,2.296588,,,625.1551709236,3.28084,0.4921268,7.6620409276,1.75431764144,28,5,8.037,625.1551709236,2.296588,1.2079476,7.6620409276,0.447388,0.223694,-2.23694,297.3, 0.8, -4.9,0,0,1024,1024,1471,1024,0,0,68,0,301.8,0,0,88,4.017,4.004,0,0,0,0,2.013,81.68,625.1551709236,2.296588,6,P-GPS,
174800,2024-02-01 19:25:14,40.4290154051555,-86.9292816851052,2.624672,,,625.4832549236,3.937008,0.4921268,7.6992784616,1.86902565036,28,5,8.037,625.4832549236,2.624672,1.2079476,7.6992784616,0.447388,0.223694,-2.23694,297, 0.1, -5.1,0,0,1024,1024,1456,1024,0,0,65,0,301.8,0,0,88,4.017,4.004,0,0,0,0,2.013,81.68,625.4832549236,2.624672,6,P-GPS,"Gimbal stuck. Check whether gimbal cover is removed and make sure gimbal can rotate freely on all three axes (Code: 40028)"
174900,2024-02-01 19:25:14,40.429015669491,-86.9292813360041,2.952756,,,625.8113389236,4.265092,0.4921268,7.733103922,2.00577762324,28,5,7.935,625.8113389236,2.952756,1.2079476,7.733103922,0.447388,0.223694,-2.460634,296.8, -0.9, -5.4,0,0,1024,1024,1414,1024,0,0,59,0,301.8,0,0,88,3.988,3.978,0,0,0,0,4.129,81.68,625.8113389236,2.952756,6,P-GPS,
175000,2024-02-01 19:25:14,40.4290158495717,-86.9292811308324,3.28084,,,626.1394229236,4.593176,0.4921268,7.7619096972,2.0927494108,29,5,7.935,626.1394229236,3.28084,1.2079476,7.7619096972,0.447388,0.223694,-2.684328,296.5, -0.7, -6.3,0,0,1024,1024,1062,1024,0,0,6,0,301.8,0,0,88,3.988,3.978,0,0,0,0,4.129,81.68,626.1394229236,3.28084,6,P-GPS,
175100,2024-02-01 19:25:14,40.4290160772509,-86.9292806249173,3.608924,,,626.4675069236,4.92126,0.3131716,7.7669293824,2.25597448164,29,5,7.935,626.4675069236,3.608924,1.2079476,7.7669293824,0.223694,0.223694,-2.684328,296, 0, -8.2,0,0,1024,1024,1024,1024,0,0,0,0,301.8,0,0,88,3.988,3.978,0,0,0,0,4.129,81.68,626.4675069236,3.608924,6,P-GPS,
175200,2024-02-01 19:25:14,40.4290162839339,-86.9292804609837,3.937008,,,626.7955909236,5.249344,0.3131716,7.812172166,2.3440617548,28,5,7.935,626.7955909236,3.937008,1.2079476,7.812172166,0.223694,0.223694,-2.460634,295.9, 0.4, -8,0,0,1029,1024,1024,1024,1,0,0,0,301.8,0,0,88,3.988,3.978,0,0,0,0,4.129,81.68,626.7955909236,3.937008,6,P-GPS,
175300,2024-02-01 19:25:14,40.4290164957448,-86.9292802825125,4.265092,,,627.1236749236,5.577428,0.223694,7.8580055008,2.43586950052,28,5,7.935,627.1236749236,4.265092,1.2079476,7.8580055008,0,0.223694,-1.789552,295.9, -0.2, -7.1,0,0,1550,1024,1024,1024,80,0,0,0,301.8,0,0,88,3.988,3.978,0,0,0,0,4.129,81.68,627.1236749236,4.265092,6,P-GPS,
175400,2024-02-01 19:25:14,40.4290165702111,-86.9292801763436,4.265092,,,627.1236749236,5.905512,0,7.8688650812,2.47596464616,29,5,7.935,627.1236749236,4.265092,1.2079476,7.8688650812,0,0,-1.11847,296.1, -1, -6.9,0,0,1550,1024,1024,1024,80,0,0,0,301.8,0,0,88,3.988,3.978,0,0,0,0,4.129,81.68,627.1236749236,4.265092,6,P-GPS,
175500,2024-02-01 19:25:14,40.4290165824561,-86.9292801964055,4.593176,,,627.4517589236,5.905512,0.223694,7.8753611444,2.48310703484,29,5,7.935,627.4517589236,4.593176,1.2079476,7.8753611444,0.223694,0,-0.671082,296.3, -5.6, -5.8,0,0,1610,1024,1024,1024,89,0,0,0,301.8,0,0,88,3.988,3.978,0,0,0,0,4.129,81.68,627.4517589236,4.593176,6,P-GPS,
175600,2024-02-01 19:25:14,40.4290166787811,-86.9292801668183,4.593176,,,627.4517589236,5.905512,0.447388,7.903051434,2.51919627484,29,5,7.935,627.4517589236,4.593176,1.2079476,7.903051434,0.447388,0,-0.223694,296.9, -15.5, -5.7,0,0,1649,1024,1024,1024,95,0,0,0,301.8,0,0,88,3.988,3.978,0,0,0,0,4.129,81.68,627.4517589236,4.593176,6,P-GPS,
175700,2024-02-01 19:25:15,40.4290168758146,-86.9292803341564,4.593176,,,627.4517589236,5.905512,0.8052984,7.9881564236,2.60479995212,29,5,7.935,627.4517589236,4.593176,1.2079476,7.9881564236,0.671082,-0.447388,0,297.3, -21.1, -6,0,0,1339,1024,1024,1024,48,0,0,0,301.8,0,0,88,3.988,3.978,0,0,0,0,4.129,81.68,627.4517589236,4.593176,6,P-GPS,
175800,2024-02-01 19:25:15,40.4290172347432,-86.9292808522583,4.593176,,,627.4517589236,5.905512,1.6105968,8.1701446184,2.7993603258,29,5,7.935,627.4517589236,4.593176,1.6105968,8.1701446184,0.894776,-1.342164,0,297.3, -21.9, -5.8,0,0,1024,1024,1024,1024,0,0,0,0,301.8,0,0,88,3.988,3.978,0,0,0,0,4.129,81.68,627.4517589236,4.593176,6,P-GPS,
175900,2024-02-01 19:25:15,40.4290176961661,-86.9292818676251,4.593176,,,627.4517589236,5.905512,2.23694,8.4505908216,3.12778553316,29,5,7.935,627.4517589236,4.593176,2.23694,8.4505908216,1.342164,-1.789552,0,296.7, -9.9, -6.6,0,0,1024,1024,1024,1024,0,0,0,0,301.8,0,0,88,3.988,3.978,0,0,0,0,4.129,81.68,627.4517589236,4.593176,6,P-GPS,
176000,2024-02-01 19:25:15,40.4290181920721,-86.9292829552182,4.265092,,,627.1236749236,5.905512,2.4158952,8.755249624,3.4798885628,29,5,7.935,627.4517589236,4.593176,2.4158952,8.755249624,1.342164,-2.013246,0,295.6, 7.6, -6.3,0,0,1338,1024,1024,1024,48,0,0,0,301.8,0,0,88,3.988,3.978,0,0,0,0,4.129,81.68,627.1236749236,4.265092,6,P-GPS,
176100,2024-02-01 19:25:15,40.4290186381794,-86.9292840130019,4.265092,,,627.1236749236,5.905512,1.8119214,9.0435042264,3.8157481536,29,5,8.001,627.4517589236,4.593176,2.4158952,9.0435042264,0.894776,-1.565858,0,295.4, 13.1, -4.8,0,0,1517,1024,1024,1024,75,0,0,0,301.8,0,0,88,3.982,3.967,0,0,0,0,3.786,81.68,627.1236749236,4.265092,6,P-GPS,
176200,2024-02-01 19:25:15,40.4290189880115,-86.9292847860695,4.265092,,,627.1236749236,5.905512,1.2974252,9.2635829736,4.0655185028,29,5,8.001,627.4517589236,4.593176,2.4158952,9.2635829736,0.671082,-1.11847,0,295.8, 6.7, -3.7,0,0,1517,1024,1024,1024,75,0,0,0,301.8,0,0,88,3.982,3.967,0,0,0,0,3.786,81.68,627.1236749236,4.265092,6,P-GPS,
176300,2024-02-01 19:25:15,40.4290193074577,-86.9292854150305,4.265092,,,627.1236749236,5.905512,1.2974252,9.4545278616,4.2754922628,29,5,8.001,627.4517589236,4.593176,2.4158952,9.4545278616,0.671082,-0.894776,0,296.2, -5, -3.9,0,0,1592,1024,1024,1024,86,0,0,0,301.8,0,0,88,3.982,3.967,0,0,0,0,3.786,81.68,627.1236749236,4.265092,6,P-GPS,
176400,2024-02-01 19:25:15,40.429019750449,-86.9292860776921,4.265092,,,627.1236749236,5.905512,1.4316416,9.689304772,4.5204397772,29,5,8.001,627.4517589236,4.593176,2.4158952,9.689304772,0.894776,-1.11847,0,296.7, -14.4, -4.4,0,0,1581,1024,1024,1024,84,0,0,0,301.8,0,0,88,3.982,3.967,0,0,0,0,3.786,81.68,627.1236749236,4.265092,6,P-GPS,
176500,2024-02-01 19:25:15,40.4290203259566,-86.9292869737929,4.265092,,,627.1236749236,5.905512,1.9237684,10.0003940208,4.8460631472,29,5,8.001,627.4517589236,4.593176,2.4158952,10.0003940208,1.11847,-1.565858,0,296.9, -17.8, -5.1,0,0,1587,1024,1024,1024,85,0,0,0,301.8,0,0,88,3.982,3.967,0,0,0,0,3.786,81.68,627.1236749236,4.265092,6,P-GPS,
176600,2024-02-01 19:25:15,40.4290209701975,-86.929287994739,4.265092,,,627.1236749236,5.905512,2.4158952,10.3523953444,5.2143374372,29,5,8.001,627.4517589236,4.593176,2.4158952,10.3523953444,1.342164,-2.013246,0,296.9, -17.2, -5.7,0,0,1581,1024,1024,1024,84,0,0,0,301.8,0,0,88,3.982,3.967,0,0,0,0,3.786,81.68,627.1236749236,4.265092,6,P-GPS,
176700,2024-02-01 19:25:15,40.4290217313453,-86.9292893258805,3.937008,,,626.7955909236,5.905512,2.908022,10.7892391904,5.6767390268,29,5,8.001,627.4517589236,4.593176,2.908022,10.7892391904,1.565858,-2.460634,0,296.7, -16.3, -5.8,0,0,1562,1024,1024,1024,82,0,0,0,301.8,0,0,88,3.982,3.967,0,0,0,0,3.786,81.68,626.7955909236,3.937008,6,P-GPS,
176800,2024-02-01 19:25:16,40.42902252415,-86.9292905795596,3.937008,,,626.7955909236,5.905512,3.4225182,11.225230018,6.1293965216,29,5,8.001,627.4517589236,4.593176,3.4225182,11.225230018,1.789552,-2.908022,0,296.7, -16.1, -5.2,0,0,1570,1024,1024,1024,83,0,0,0,301.8,0,0,88,3.982,3.967,0,0,0,0,3.786,81.68,626.7955909236,3.937008,6,P-GPS,
176900,2024-02-01 19:25:16,40.4290233343693,-86.9292923902688,3.937008,,,626.7955909236,5.905512,3.802798,11.7583337096,6.7127298736,29,5,8.001,627.4517589236,4.593176,3.802798,11.7583337096,1.789552,-3.35541,0,296.6, -15.9, -4.9,0,0,1562,1024,1024,1116,82,0,0,14,301.8,0,0,88,3.982,3.967,0,0,0,0,3.786,81.68,626.7955909236,3.937008,6,P-GPS,"Home Point updated. RTH altitude adjusted to 100 m (Code: 120852)"
177000,2024-02-01 19:25:16,40.429024126192,-86.9292943663662,3.937008,,,626.7955909236,5.905512,4.2949248,12.3185043312,7.3329398672,29,5,8.001,627.4517589236,4.593176,4.2949248,12.3185043312,2.013246,-3.802798,0,296.5, -15.4, -4.6,0,0,1562,1024,1024,1116,82,0,0,14,301.8,0,0,88,3.982,3.967,0,0,0,0,3.786,81.68,626.7955909236,3.937008,6,P-GPS,
177100,2024-02-01 19:25:16,40.4290250199228,-86.9292966768556,3.937008,,,626.7955909236,5.905512,5.0107456,12.9712602576,8.0527233548,29,5,8.001,627.4517589236,4.593176,5.0107456,12.9712602576,2.23694,-4.47388,0,296.5, -15.8, -4.6,0,0,1547,1024,1024,1268,79,0,0,37,301.8,0,0,88,3.982,3.967,0,0,0,0,3.786,81.68,626.7955909236,3.937008,6,P-GPS,
177200,2024-02-01 19:25:16,40.42902589016,-86.9292993574182,3.937008,,,626.7955909236,5.905512,5.3015478,13.6906500444,8.862040966,29,5,8.001,627.4517589236,4.593176,5.3015478,13.6906500444,2.460634,-4.697574,0,296.7, -16.2, -4.1,0,0,1548,1024,1024,1283,79,0,0,39,302,0,0,88,3.982,3.967,0,0,0,0,3.786,81.68,626.7955909236,3.937008,6,P-GPS,
177300,2024-02-01 19:25:16,40.4290269930563,-86.9293022396411,3.937008,,,626.7955909236,5.905512,5.7936746,14.52017763,9.7579727532,29,5,8.001,627.4517589236,4.593176,5.7936746,14.52017763,2.684328,-5.144962,0,296.8, -15, -3.9,0,0,1548,1024,1024,1244,79,0,0,33,302.5,0,0,88,3.982,3.967,0,0,0,0,3.786,81.68,626.7955909236,3.937008,6,P-GPS,
177400,2024-02-01 19:25:16,40.4290282000166,-86.9293051133559,3.937008,,,626.7955909236,5.905512,6.3081708,15.3833338256,10.6695213388,29,5,7.964,627.4517589236,4.593176,6.3081708,15.3833338256,2.908022,-5.59235,0,297.3, -14.5, -3.8,0,0,1542,1024,1024,1258,78,0,0,35,303.1,0,0,88,3.984,3.971,0,0,0,0,4.267,81.68,626.7955909236,3.937008,6,P-GPS,
177500,2024-02-01 19:25:16,40.4290295549114,-86.9293083095586,3.937008,,,626.7955909236,5.905512,6.8002976,16.3527892372,11.68553187,29,5,7.964,627.4517589236,4.593176,6.8002976,16.3527892372,3.131716,-6.039738,0,297.7, -13.9, -4,0,0,1542,1024,1024,1254,78,0,0,35,303.6,0,0,88,3.984,3.971,0,0,0,0,4.267,81.68,626.7955909236,3.937008,6,P-GPS,
177600,2024-02-01 19:25:16,40.4290309750692,-86.9293114355859,3.937008,,,626.7955909236,5.905512,7.0016222,17.3306764076,12.6965883328,29,5,7.964,627.4517589236,4.593176,7.0016222,17.3306764076,3.131716,-6.263432,0,298.2, -13.4, -4.2,0,0,1544,1024,1024,1250,79,0,0,34,304,0,0,88,3.984,3.971,0,0,0,0,4.267,81.68,626.7955909236,3.937008,6,P-GPS,
177700,2024-02-01 19:25:17,40.4290323685125,-86.9293149608544,3.937008,,,626.7955909236,5.905512,7.2924244,18.3848759164,13.7997707828,29,5,7.964,627.4517589236,4.593176,7.2924244,18.3848759164,3.35541,-6.487126,0,298.7, -13.2, -3.5,0,0,1550,1024,1024,1368,80,0,0,52,304.5,0,0,88,3.984,3.971,0,0,0,0,4.267,81.68,626.7955909236,3.937008,6,P-GPS,
177800,2024-02-01 19:25:17,40.4290337821452,-86.9293185117712,3.937008,,,626.7955909236,5.905512,7.8069206,19.454725032,14.9126973276,29,5,7.964,627.4517589236,4.593176,7.8069206,19.454725032,3.579104,-6.934514,0,299.1, -12.8, -3.7,0,0,1550,1024,1024,1368,80,0,0,52,304.9,0,0,88,3.984,3.971,0,0,0,0,4.267,81.68,626.7955909236,3.937008,6,P-GPS,
177900,2024-02-01 19:25:17,40.4290353349235,-86.929322390679,3.937008,,,626.7955909236,6.233596,8.0082452,20.6307093216,16.1298561592,29,5,7.964,627.4517589236,4.593176,8.0082452,20.6307093216,3.579104,-7.158208,0,299.5, -12.8, -4,0,0,1559,1024,1024,1395,81,0,0,56,305.6,0,0,88,3.984,3.971,0,0,0,0,4.267,81.68,626.7955909236,3.937008,6,P-GPS,
178000,2024-02-01 19:25:17,40.4290368436704,-86.9293261701845,3.937008,,,626.7955909236,6.233596,8.2990474,21.7798891484,17.3150924176,29,5,7.964,627.4517589236,4.593176,8.2990474,21.7798891484,3.802798,-7.381902,0,300.4, -13.5, -4.4,0,0,1560,1024,1024,1395,81,0,0,56,306.9,0,0,88,3.984,3.971,0,0,0,0,4.267,81.68,626.7955909236,3.937008,6,P-GPS,
178100,2024-02-01 19:25:17,40.4290385154831,-86.9293302710018,3.937008,,,626.7955909236,6.233596,8.612219,23.0391739656,18.6070544012,29,5,7.964,627.4517589236,4.593176,8.612219,23.0391739656,4.026492,-7.605596,0,301.7, -13.9, -4,0,0,1559,1024,1024,1479,81,0,0,69,308.4,0,0,88,3.984,3.971,0,0,0,0,4.267,81.68,626.7955909236,3.937008,6,P-GPS,
178200,2024-02-01 19:25:17,40.4290401646995,-86.9293342883076,3.937008,,,626.7955909236,6.233596,8.612219,24.2788393596,19.8747053604,29,5,7.964,627.4517589236,4.593176,8.612219,24.2788393596,4.250186,-7.82929,0,303.2, -13.6, -4,0,0,1559,1024,1024,1483,81,0,0,70,310.1,0,0,88,3.984,3.971,0,0,0,0,4.267,81.68,626.7955909236,3.937008,6,P-GPS,
178300,2024-02-01 19:25:17,40.4290419806751,-86.929338654149,3.937008,,,626.7955909236,6.233596,9.2161928,25.634679298,21.2564311264,29,5,7.964,627.4517589236,4.593176,9.2161928,25.634679298,4.47388,-8.052984,0,305, -13.1, -4.1,0,0,1558,1024,1024,1483,81,0,0,70,312.3,0,0,88,3.984,3.971,0,0,0,0,4.267,81.68,626.7955909236,3.937008,6,P-GPS,
178400,2024-02-01 19:25:17,40.4290438105837,-86.9293429243357,3.937008,,,626.7955909236,6.233596,9.4175174,26.9756242228,22.6173891752,29,5,7.964,627.4517589236,4.593176,9.4175174,26.9756242228,4.47388,-8.276678,0,307.2, -12.6, -4.1,0,0,1558,1024,1024,1480,81,0,0,69,314.7,0,0,88,3.984,3.971,0,0,0,0,4.267,81.68,626.7955909236,3.937008,6,P-GPS,
178500,2024-02-01 19:25:17,40.4290458764994,-86.9293474401387,3.937008,,,626.7955909236,6.233596,9.7083196,28.4254930356,24.0806110068,29,5,7.964,627.4517589236,4.593176,9.7083196,28.4254930356,4.697574,-8.500372,0,309.7, -12.3, -3.7,0,0,1557,1024,1024,1472,81,0,0,68,317.3,0,0,88,3.984,3.971,0,0,0,0,4.267,81.68,626.7955909236,3.937008,6,P-GPS,
178600,2024-02-01 19:25:17,40.4290478425915,-86.9293519449126,3.937008,,,626.7955909236,6.233596,10.0214912,29.8517726088,25.5227698456,29,5,7.959,627.4517589236,4.593176,10.0214912,29.8517726088,4.921268,-8.724066,0,312.1, -11.6, -4.2,0,0,1557,1024,1024,1472,81,0,0,68,319.8,0,0,87,3.988,3.974,0,0,0,0,4.021,81.86,626.7955909236,3.937008,6,P-GPS,
178700,2024-02-01 19:25:17,40.4290499934208,-86.9293567685561,3.937008,,,626.7955909236,6.233596,10.4241404,31.3907818444,27.0753289504,29,5,7.959,627.4517589236,4.593176,10.4241404,31.3907818444,5.368656,-8.94776,0,314.6, -10.8, -4.8,0,0,1557,1024,1024,1186,81,0,0,25,322.2,0,0,87,3.988,3.974,0,0,0,0,4.021,81.86,626.7955909236,3.937008,6,P-GPS,
178800,2024-02-01 19:25:18,40.4290521496597,-86.9293614170963,3.937008,,,626.7955909236,6.233596,10.4241404,32.89370184,28.5871728308,29,5,7.959,627.4517589236,4.593176,10.4241404,32.89370184,5.368656,-8.94776,0,316.9, -10.8, -3.9,0,0,1554,1024,1024,1024,80,0,0,0,324.1,0,0,87,3.988,3.974,0,0,0,0,4.021,81.86,626.7955909236,3.937008,6,P-GPS,
178900,2024-02-01 19:25:18,40.4290545111283,-86.9293663938639,3.937008,,,626.7955909236,6.233596,10.849159,34.515092968,30.215880232,29,5,7.959,627.4517589236,4.593176,10.849159,34.515092968,5.816044,-9.171454,0,318.6, -10.7, -3.4,0,0,1555,1024,1024,1024,80,0,0,0,324.7,0,0,87,3.988,3.974,0,0,0,0,4.021,81.86,626.7955909236,3.937008,6,P-GPS,
179000,2024-02-01 19:25:18,40.4290568368557,-86.9293711639039,3.937008,,,626.7955909236,6.233596,10.9833754,36.083662572,31.7891086288,29,5,7.959,627.4517589236,4.593176,10.9833754,36.083662572,6.039738,-9.171454,0,319.2, -10, -3.7,0,0,1586,1024,1024,1024,85,0,0,0,324.7,0,0,87,3.988,3.974,0,0,0,0,4.021,81.86,626.7955909236,3.937008,6,P-GPS,
179100,2024-02-01 19:25:18,40.4290593786907,-86.9293762022767,3.937008,,,626.7955909236,6.233596,11.0952224,37.759515644,33.46784884,29,5,7.959,627.4517589236,4.593176,11.0952224,37.759515644,6.263432,-9.171454,0,319.3, -10.5, -3.9,0,0,1639,1024,1024,1024,93,0,0,0,324.7,0,0,87,3.988,3.974,0,0,0,0,4.021,81.86,626.7955909236,3.937008,6,P-GPS,
179200,2024-02-01 19:25:18,40.4290619289968,-86.9293809938459,3.937008,,,626.7955909236,5.905512,11.2294388,39.382547192,35.091536556,29,5,7.959,627.4517589236,4.593176,11.2294388,39.382547192,6.487126,-9.171454,0,319.4, -11.6, -3.1,0,0,1619,1024,1024,1024,90,0,0,0,324.7,0,0,87,3.988,3.974,0,0,0,0,4.021,81.86,626.7955909236,3.937008,6,P-GPS,
179300,2024-02-01 19:25:18,40.4290647636944,-86.9293860645069,3.937008,,,626.7955909236,5.905512,11.6768268,41.129594492,36.83891194,29,5,7.959,627.4517589236,4.593176,11.6768268,41.129594492,6.934514,-9.395148,0,319.5, -13.9, -3.5,0,0,1615,1024,1024,1024,90,0,0,0,324.7,0,0,87,3.988,3.974,0,0,0,0,4.021,81.86,626.7955909236,3.937008,6,P-GPS,
179400,2024-02-01 19:25:18,40.4290676091593,-86.9293909949974,4.265092,,,627.1236749236,5.905512,11.8110432,42.8477704,38.557087848,29,5,7.959,627.4517589236,4.593176,11.8110432,42.8477704,7.158208,-9.395148,0,319.5, -14.4, -4.5,0,0,1615,1024,1024,1024,90,0,0,0,324.7,0,0,87,3.988,3.974,0,0,0,0,4.021,81.86,627.1236749236,4.265092,6,P-GPS,
179500,2024-02-01 19:25:18,40.4290707414192,-86.9293962946917,4.265092,,,627.1236749236,5.905512,12.2584312,44.710959436,40.420604968,29,5,7.959,627.4517589236,4.593176,12.2584312,44.710959436,7.605596,-9.618842,0,319.3, -12.9, -4.6,0,0,1596,1024,1024,1024,87,0,0,0,324.7,0,0,87,3.988,3.974,0,0,0,0,4.021,81.86,627.1236749236,4.265092,6,P-GPS,
179600,2024-02-01 19:25:18,40.4290737981193,-86.9294014037293,4.265092,,,627.1236749236,5.905512,12.5716028,46.515421436,42.225395052,29,5,7.959,627.4517589236,4.593176,12.5716028,46.515421436,7.82929,-9.842536,0,319.2, -11, -4.5,0,0,1544,1024,1024,1024,79,0,0,0,324.7,0,0,87,3.988,3.974,0,0,0,0,4.021,81.86,627.1236749236,4.265092,6,P-GPS,
179700,2024-02-01 19:25:19,40.4290770828472,-86.9294068616571,4.265092,,,627.1236749236,5.905512,12.750558,48.446851944,44.157809812,29,5,7.959,627.4517589236,4.593176,12.750558,48.446851944,7.82929,-10.06623,0,319, -10, -3.6,0,0,1024,1024,1024,1024,0,0,0,0,324.7,0,0,87,3.982,3.97,0,0,0,0,4.021,81.86,627.1236749236,4.265092,6,P-GPS,
179800,2024-02-01 19:25:19,40.4290802420611,-86.9294121369186,4.593176,,,627.4517589236,5.905512,13.0637296,50.310697148,46.0219831,29,5,7.959,627.4517589236,4.593176,13.0637296,50.310697148,8.052984,-10.289924,0,318.9, -6, -1.9,0,0,1024,1024,1024,1024,0,0,0,0,324.7,0,0,87,3.982,3.97,0,0,0,0,4.021,81.86,627.4517589236,4.593176,6,P-GPS,
179900,2024-02-01 19:25:19,40.4290835841493,-86.9294176726576,4.593176,,,627.4517589236,5.905512,12.8847744,52.272311384,47.984253504,29,5,7.959,627.4517589236,4.593176,13.0637296,52.272311384,8.052984,-10.06623,0,318.9, 8.3, -0.4,0,0,1024,1024,1024,1024,0,0,0,0,324.7,0,0,87,3.982,3.97,0,0,0,0,4.021,81.86,627.4517589236,4.593176,6,P-GPS,
180000,2024-02-01 19:25:19,40.4290866988676,-86.9294227129999,4.92126,,,627.7798429236,5.905512,12.8847744,54.074148712,49.787075084,29,5,7.959,627.7798429236,4.92126,13.0637296,54.074148712,7.605596,-9.395148,0,319.5, 22.7, 2.9,0,0,1024,1024,1024,1024,0,0,0,0,324.7,0,0,87,3.982,3.97,0,0,0,0,4.021,81.86,627.7798429236,4.92126,6,P-GPS,
180100,2024-02-01 19:25:19,40.4290897701,-86.9294275900894,4.92126,,,627.7798429236,6.233596,10.961006,55.830710448,51.54527724,29,5,7.959,627.7798429236,4.92126,13.0637296,55.830710448,6.934514,-8.500372,-0.223694,319.5, 24.1, 3.5,0,0,1024,1024,1024,1024,0,0,0,0,324.7,0,0,87,3.982,3.97,0,0,0,0,4.021,81.86,627.7798429236,4.92126,6,P-GPS,
180200,2024-02-01 19:25:19,40.4290924222295,-86.9294317608569,4.92126,,,627.7798429236,6.233596,9.842536,57.338256428,53.05446364,29,5,7.959,627.7798429236,4.92126,13.0637296,57.338256428,6.263432,-7.605596,0,319.5, 24.3, 4,0,0,1024,1024,1024,1024,0,0,0,0,324.7,0,0,87,3.982,3.97,0,0,0,0,4.021,81.86,627.7798429236,4.92126,6,P-GPS,
180300,2024-02-01 19:25:19,40.4290949649601,-86.9294356774493,5.249344,,,628.1079269236,6.233596,8.5674802,58.765749912,54.483925628,29,5,7.959,628.1079269236,5.249344,13.0637296,58.765749912,5.59235,-6.487126,0,319.5, 23, 3.6,0,0,1024,1024,1024,1024,0,0,0,0,324.7,0,0,87,3.982,3.97,0,0,0,0,4.021,81.86,628.1079269236,5.249344,6,P-GPS,
180400,2024-02-01 19:25:19,40.4290971928278,-86.9294389474679,5.249344,,,628.1079269236,6.233596,7.7621818,59.980644964,55.702757688,29,5,7.959,628.1079269236,5.249344,13.0637296,59.980644964,5.144962,-5.816044,0,319.4, 23.7, 3.1,0,0,1024,1024,1024,1024,0,0,0,0,324.7,0,0,87,3.982,3.97,0,0,0,0,4.021,81.86,628.1079269236,5.249344,6,P-GPS,
180500,2024-02-01 19:25:19,40.4290993220835,-86.9294419489512,5.249344,,,628.1079269236,6.233596,6.6437118,61.114831352,56.84219342,29,5,7.959,628.1079269236,5.249344,13.0637296,61.114831352,4.697574,-4.697574,0,319.3, 23.6, 2.9,0,0,1024,1024,1024,1024,0,0,0,0,324.7,0,0,87,3.982,3.97,0,0,0,0,4.021,81.86,628.1079269236,5.249344,6,P-GPS,
180600,2024-02-01 19:25:19,40.4291011131113,-86.9294440625153,5.249344,,,628.1079269236,6.233596,5.704197,61.978676524,57.720802372,29,5,7.959,628.1079269236,5.249344,13.0637296,61.978676524,4.026492,-4.026492,0,319.3, 23.5, 2.7,0,0,1205,1024,1024,1024,27,0,0,0,324.7,0,0,87,3.982,3.97,0,0,0,0,4.021,81.86,628.1079269236,5.249344,6,P-GPS,
180700,2024-02-01 19:25:19,40.4291027564784,-86.929446026703,5.577428,,,628.4360109236,6.233596,4.585727,62.776904896,58.531169852,29,5,7.959,628.4360109236,5.577428,13.0637296,62.776904896,3.35541,-3.131716,0,319.1, 24.2, 2.2,0,0,1292,1024,1024,1024,41,0,0,0,324.7,0,0,87,3.982,3.97,0,0,0,0,4.021,81.86,628.4360109236,5.577428,6,P-GPS,
180800,2024-02-01 19:25:20,40.4291039857777,-86.9294474882802,5.577428,,,628.4360109236,6.233596,3.802798,63.37270544,59.136156748,29,5,7.959,628.4360109236,5.577428,13.0637296,63.37270544,2.908022,-2.460634,0.223694,318.9, 24.5, 0.7,0,0,1383,1024,1024,1024,54,0,0,0,324.7,0,0,87,3.982,3.97,0,0,0,0,4.021,81.86,628.4360109236,5.577428,6,P-GPS,
180900,2024-02-01 19:25:20,40.4291050093134,-86.9294485889816,5.577428,,,628.4360109236,6.233596,2.7290668,63.84350598,59.618768312,29,5,7.959,628.4360109236,5.577428,13.0637296,63.84350598,2.23694,-1.565858,0.223694,318.5, 21.8, -0.7,0,0,1560,1024,1024,1024,81,0,0,0,324.7,0,0,87,3.982,3.97,0,0,0,0,4.021,81.86,628.4360109236,5.577428,6,P-GPS,
181000,2024-02-01 19:25:20,40.4291054316471,-86.9294492518739,5.577428,,,628.4360109236,6.233596,1.9908766,64.083335384,59.8589258,29,5,7.959,628.4360109236,5.577428,13.0637296,64.083335384,1.789552,-0.894776,0,318.5, 8.7, -3.5,0,0,1576,1024,1024,1024,84,0,0,0,324.7,0,0,87,3.982,3.97,0,0,0,0,4.021,81.86,628.4360109236,5.577428,6,P-GPS,
181100,2024-02-01 19:25:20,40.4291060916489,-86.9294497612594,5.577428,,,628.4360109236,6.233596,1.8119214,64.343177912,60.138125284,29,5,7.967,628.4360109236,5.577428,13.0637296,64.343177912,1.565858,-0.894776,0,319.1, -4.4, -5.2,0,0,1571,1024,1024,1024,83,0,0,0,324.7,0,0,87,3.987,3.96,0,0,0,0,3.667,81.86,628.4360109236,5.577428,6,P-GPS,
181200,2024-02-01 19:25:20,40.42910670709,-86.9294503095844,5.577428,,,628.4360109236,6.233596,1.9237684,64.601708104,60.409450752,29,5,7.967,628.4360109236,5.577428,13.0637296,64.601708104,1.565858,-1.11847,0,319.4, -10.7, -5.8,0,0,1579,1024,1024,1024,84,0,0,0,324.7,0,0,87,3.987,3.96,0,0,0,0,3.667,81.86,628.4360109236,5.577428,6,P-GPS,
181300,2024-02-01 19:25:20,40.4291074364896,-86.9294510168856,5.577428,,,628.4360109236,6.233596,2.23694,64.920605752,60.740159424,29,5,7.967,628.4360109236,5.577428,13.0637296,64.920605752,1.789552,-1.342164,0,319.3, -12.9, -5,0,0,1579,1024,1024,1024,84,0,0,0,324.7,0,0,87,3.987,3.96,0,0,0,0,3.667,81.86,628.4360109236,5.577428,6,P-GPS,
181400,2024-02-01 19:25:20,40.4291082613617,-86.9294518536545,5.249344,,,628.1079269236,6.233596,2.5501116,65.289372168,61.12040878,29,5,7.967,628.4360109236,5.577428,13.0637296,65.289372168,2.013246,-1.565858,0,319.3, -13.7, -4.2,0,0,1580,1024,1024,1024,84,0,0,0,324.7,0,0,87,3.987,3.96,0,0,0,0,3.667,81.86,628.1079269236,5.249344,6,P-GPS,
181500,2024-02-01 19:25:20,40.4291090614813,-86.9294530843414,5.249344,,,628.1079269236,6.233596,3.0422384,65.738519164,61.56988386,29,5,7.967,628.4360109236,5.577428,13.0637296,65.738519164,2.460634,-1.789552,0,319.3, -14.4, -4.1,0,0,1587,1024,1024,1024,85,0,0,0,324.7,0,0,87,3.987,3.96,0,0,0,0,3.667,81.86,628.1079269236,5.249344,6,P-GPS,
181600,2024-02-01 19:25:20,40.4291100594895,-86.929454241021,5.249344,,,628.1079269236,6.233596,3.4896264,66.216537552,62.05544818,29,5,7.967,628.4360109236,5.577428,13.0637296,66.216537552,2.684328,-2.23694,0,319.3, -15.4, -3.4,0,0,1619,1024,1024,1024,90,0,0,0,324.7,0,0,87,3.987,3.96,0,0,0,0,3.667,81.86,628.1079269236,5.249344,6,P-GPS,
181700,2024-02-01 19:25:21,40.4291112487747,-86.9294556234139,5.249344,,,628.1079269236,6.233596,3.9817532,66.786747544,62.634844524,29,5,7.967,628.4360109236,5.577428,13.0637296,66.786747544,3.131716,-2.460634,0,319.3, -15.9, -3.3,0,0,1684,1024,1024,1024,100,0,0,0,324.7,0,0,87,3.987,3.96,0,0,0,0,3.667,81.86,628.1079269236,5.249344,6,P-GPS,
181800,2024-02-01 19:25:21,40.4291125777153,-86.9294570950298,5.249344,,,628.1079269236,6.233596,3.9817532,67.408794808,63.269030896,29,5,7.967,628.4360109236,5.577428,13.0637296,67.408794808,3.579104,-2.908022,0,319.3, -16.8, -3.2,0,0,1684,1024,1024,1024,100,0,0,0,324.7,0,0,87,3.987,3.96,0,0,0,0,3.667,81.86,628.1079269236,5.249344,6,P-GPS,
181900,2024-02-01 19:25:21,40.4291139561215,-86.9294590244422,5.249344,,,628.1079269236,6.233596,5.2344396,68.141078296,64.003939056,29,5,7.967,628.4360109236,5.577428,13.0637296,68.141078296,4.026492,-3.35541,0,319.5, -20.2, -3.5,0,0,1684,1024,1024,1024,100,0,0,0,324.7,0,0,87,3.987,3.96,0,0,0,0,3.667,81.86,628.1079269236,5.249344,6,P-GPS,
182000,2024-02-01 19:25:21,40.4291156579823,-86.9294608801849,4.92126,,,627.7798429236,6.233596,6.039738,68.931760736,64.811025696,29,5,7.967,628.4360109236,5.577428,13.0637296,68.931760736,4.697574,-3.802798,0,319.5, -21.4, -3.7,0,0,1684,1024,1024,1024,100,0,0,0,324.7,0,0,87,3.987,3.96,0,0,0,0,3.667,81.86,627.7798429236,4.92126,6,P-GPS,
182100,2024-02-01 19:25:21,40.4291176602779,-86.9294630631534,4.92126,,,627.7798429236,6.233596,6.6660812,69.86220696,65.760172708,29,5,7.967,628.4360109236,5.577428,13.0637296,69.86220696,5.144962,-4.250186,0,319.5, -20.8, -3.8,0,0,1684,1024,1024,1024,100,0,0,0,324.7,0,0,87,3.987,3.96,0,0,0,0,3.667,81.86,627.7798429236,4.92126,6,P-GPS,
182200,2024-02-01 19:25:21,40.4291197849805,-86.9294653546345,4.92126,,,627.7798429236,6.233596,7.2924244,70.844490456,66.763125496,29,5,7.967,628.4360109236,5.577428,13.0637296,70.844490456,5.59235,-4.697574,0,319.4, -20.2, -4.1,0,0,1684,1024,1024,1024,100,0,0,0,324.7,0,0,87,3.987,3.96,0,0,0,0,3.667,81.86,627.7798429236,4.92126,6,P-GPS,
182300,2024-02-01 19:25:21,40.4291222131989,-86.9294679985057,4.92126,,,627.7798429236,6.233596,7.7845512,71.9734275,67.914044168,29,5,7.967,628.4360109236,5.577428,13.0637296,71.9734275,6.039738,-4.921268,0,319.4, -20.1, -4.2,0,0,1684,1024,1024,1024,100,0,0,0,324.7,0,0,87,3.987,3.96,0,0,0,0,3.667,81.86,627.7798429236,4.92126,6,P-GPS,
182400,2024-02-01 19:25:21,40.4291247049397,-86.9294707235869,4.92126,,,627.7798429236,6.233596,8.4108944,73.135172944,69.096786988,29,5,7.967,628.4360109236,5.577428,13.0637296,73.135172944,6.487126,-5.368656,0,319.3, -20.2, -4.1,0,0,1684,1024,1024,1024,100,0,0,0,324.7,0,0,87,3.972,3.961,0,0,0,0,3.667,81.86,627.7798429236,4.92126,6,P-GPS,
182500,2024-02-01 19:25:21,40.4291274887191,-86.9294737888362,4.92126,,,627.7798429236,6.233596,9.059607,74.438322592,70.421918264,29,5,7.967,628.4360109236,5.577428,13.0637296,74.438322592,6.934514,-5.816044,0,319.4, -20.3, -3.6,0,0,1661,1024,1024,1024,97,0,0,0,324.7,0,0,87,3.972,3.961,0,0,0,0,3.667,81.86,627.7798429236,4.92126,6,P-GPS,
182600,2024-02-01 19:25:21,40.4291303297937,-86.9294768402879,4.593176,,,627.4517589236,6.233596,9.5293644,75.75295518,71.760829068,29,5,7.967,628.4360109236,5.577428,13.0637296,75.75295518,7.381902,-6.039738,0,319.4, -20, -3.2,0,0,1666,1024,1024,1024,97,0,0,0,324.7,0,0,87,3.972,3.961,0,0,0,0,3.667,81.86,627.4517589236,4.593176,6,P-GPS,
182700,2024-02-01 19:25:22,40.4291336072261,-86.92948020438,4.593176,,,627.4517589236,6.233596,10.178077,77.236879112,73.278545652,29,5,7.967,628.4360109236,5.577428,13.0637296,77.236879112,7.82929,-6.487126,0,319.3, -18.7, -3.2,0,0,1679,1024,1024,1024,99,0,0,0,324.7,0,0,87,3.972,3.961,0,0,0,0,3.667,81.86,627.4517589236,4.593176,6,P-GPS,
182800,2024-02-01 19:25:22,40.4291367585519,-86.9294836174052,4.593176,,,627.4517589236,6.233596,10.4912486,78.702758424,74.76870318,29,5,7.967,628.4360109236,5.577428,13.0637296,78.702758424,8.052984,-6.71082,0,319.4, -18, -3.6,0,0,1684,1024,1024,1024,100,0,0,0,324.7,0,0,87,3.972,3.961,0,0,0,0,3.667,81.86,627.4517589236,4.593176,6,P-GPS,
182900,2024-02-01 19:25:22,40.4291402061893,-86.9294873718364,4.593176,,,627.4517589236,6.233596,10.8044202,80.312010444,76.4025615,29,5,7.967,628.4360109236,5.577428,13.0637296,80.312010444,8.276678,-6.934514,0,319.4, -18.4, -4.1,0,0,1679,1024,1024,1024,99,0,0,0,324.7,0,0,87,3.972,3.961,0,0,0,0,3.667,81.86,627.4517589236,4.593176,6,P-GPS,
183000,2024-02-01 19:25:22,40.4291436149525,-86.9294910288067,4.593176,,,627.4517589236,6.233596,11.2741776,81.892391072,78.008204596,29,5,7.967,628.4360109236,5.577428,13.0637296,81.892391072,8.724066,-7.158208,0,319.4, -19, -3.9,0,0,1668,1024,1024,1024,98,0,0,0,324.7,0,0,87,3.972,3.961,0,0,0,0,3.667,81.86,627.4517589236,4.593176,6,P-GPS,
183100,2024-02-01 19:25:22,40.4291473309835,-86.9294950077809,4.593176,,,627.4517589236,6.233596,11.743935,83.614832072,79.7572204,29,5,7.967,628.4360109236,5.577428,13.0637296,83.614832072,8.94776,-7.605596,0,319.4, -18.7, -4,0,0,1668,1024,1024,1024,98,0,0,0,324.7,0,0,87,3.972,3.961,0,0,0,0,3.667,81.86,627.4517589236,4.593176,6,P-GPS,
183200,2024-02-01 19:25:22,40.4291509648237,-86.9294989534427,4.593176,,,627.4517589236,6.233596,12.2360618,85.311354436,81.477364812,29,5,7.967,628.4360109236,5.577428,13.0637296,85.311354436,9.395148,-7.82929,0,319.4, -18.5, -4,0,0,1669,1024,1024,1024,98,0,0,0,324.7,0,0,87,3.972,3.961,0,0,0,0,3.667,81.86,627.4517589236,4.593176,6,P-GPS,
183300,2024-02-01 19:25:22,40.4291549055019,-86.9295032354463,4.265092,,,627.1236749236,6.233596,12.2360618,87.153218012,83.34317852,29,5,7.967,628.4360109236,5.577428,13.0637296,87.153218012,9.618842,-8.052984,0,319.5, -18.2, -4.3,0,0,1684,1024,1024,1024,100,0,0,0,324.7,0,0,87,3.972,3.961,0,0,0,0,3.667,81.86,627.1236749236,4.265092,6,P-GPS,
183400,2024-02-01 19:25:22,40.4291587671549,-86.9295074141142,4.265092,,,627.1236749236,6.233596,13.0413602,88.955383424,85.168309812,29,5,7.967,628.4360109236,5.577428,13.0637296,88.955383424,10.06623,-8.276678,0,319.5, -18.1, -4.8,0,0,1684,1024,1024,1024,100,0,0,0,324.7,0,0,87,3.972,3.961,0,0,0,0,3.667,81.86,627.1236749236,4.265092,6,P-GPS,
183500,2024-02-01 19:25:22,40.4291629359845,-86.929511923114,4.265092,,,627.1236749236,6.233596,13.3545318,90.901577712,87.138782316,29,5,7.967,628.4360109236,5.577428,13.3545318,90.901577712,10.289924,-8.500372,0,319.7, -18.7, -5,0,0,1684,1024,1024,1123,100,0,0,15,324.7,0,0,87,3.972,3.961,0,0,0,0,3.667,81.86,627.1236749236,4.265092,6,P-GPS,
183600,2024-02-01 19:25:22,40.4291670077199,-86.9295161850177,4.265092,,,627.1236749236,6.233596,13.6677034,92.773625016,89.038060592,29,5,7.967,628.4360109236,5.577428,13.6677034,92.773625016,10.513618,-8.724066,0,319.5, -18.1, -4.4,0,0,1684,1024,1024,1024,100,0,0,0,324.7,0,0,87,3.972,3.961,0,0,0,0,3.667,81.86,627.1236749236,4.265092,6,P-GPS,
183700,2024-02-01 19:25:22,40.4291714338437,-86.9295209424417,4.265092,,,627.1236749236,6.233596,13.980875,94.83596104,91.124674832,29,5,7.944,628.4360109236,5.577428,13.980875,94.83596104,10.737312,-8.94776,0,319.5, -17.9, -4.6,0,0,1684,1024,1024,1024,100,0,0,0,324.8,0,0,87,3.977,3.965,0,0,0,0,4.032,81.86,627.1236749236,4.265092,6,P-GPS,
183800,2024-02-01 19:25:23,40.429175746263,-86.9295256476015,4.265092,,,627.1236749236,6.233596,14.2940466,96.860567404,93.169950488,29,5,7.944,628.4360109236,5.577428,14.2940466,96.860567404,10.961006,-9.171454,0,319.5, -18.1, -4.3,0,0,1684,1024,1024,1041,100,0,0,3,324.8,0,0,87,3.977,3.965,0,0,0,0,4.032,81.86,627.1236749236,4.265092,6,P-GPS,
183900,2024-02-01 19:25:23,40.4291803727636,-86.9295307102833,4.265092,,,627.1236749236,5.905512,14.6072182,99.036748576,95.366800952,29,5,7.944,628.4360109236,5.577428,14.6072182,99.036748576,11.1847,-9.395148,0,319.4, -18, -4.5,0,0,1684,1024,1024,1041,100,0,0,3,324.8,0,0,87,3.977,3.965,0,0,0,0,4.032,81.86,627.1236749236,4.265092,6,P-GPS,
184000,2024-02-01 19:25:23,40.4291848106513,-86.9295356875236,4.265092,,,627.1236749236,5.905512,14.9203898,101.149609536,97.495738028,29,5,7.944,628.4360109236,5.577428,14.9203898,101.149609536,11.408394,-9.618842,0,319.4, -19.1, -4.9,0,0,1684,1024,1024,1257,100,0,0,35,324.8,0,0,87,3.977,3.965,0,0,0,0,4.032,81.86,627.1236749236,4.265092,6,P-GPS,
184100,2024-02-01 19:25:23,40.4291895658771,-86.9295409660826,4.265092,,,627.1236749236,5.905512,15.2335614,103.403218532,99.76706356,29,5,7.944,628.4360109236,5.577428,15.2335614,103.403218532,11.632088,-9.842536,0.223694,319.6, -18.5, -3.8,0,0,1684,1024,1024,1199,100,0,0,27,324.9,0,0,87,3.977,3.965,0,0,0,0,4.032,81.86,627.1236749236,4.265092,6,P-GPS,
184200,2024-02-01 19:25:23,40.4291942436932,-86.9295461088039,4.265092,,,627.1236749236,5.905512,15.546733,105.610895768,101.992457332,29,5,7.944,628.4360109236,5.577428,15.546733,105.610895768,11.855782,-10.06623,0,319.7, -17.7, -3.9,0,0,1679,1024,1024,1024,99,0,0,0,325.3,0,0,87,3.977,3.965,0,0,0,0,4.032,81.86,627.1236749236,4.265092,6,P-GPS,
184300,2024-02-01 19:25:23,40.4291992698791,-86.9295516469513,4.265092,,,627.1236749236,5.905512,15.8599046,107.985895844,104.386158196,29,5,7.944,628.4360109236,5.577428,15.8599046,107.985895844,12.079476,-10.289924,0,319.9, -16.8, -4,0,0,1657,1024,1024,1142,96,0,0,18,325.6,0,0,87,3.977,3.965,0,0,0,0,4.032,81.86,627.1236749236,4.265092,6,P-GPS,
184400,2024-02-01 19:25:23,40.4292041635097,-86.9295571092682,4.265092,,,627.1236749236,5.905512,16.1730762,110.313651824,106.72900604,29,5,7.944,628.4360109236,5.577428,16.1730762,110.313651824,12.30317,-10.513618,0,320, -16.5, -3.2,0,0,1648,1024,1024,1595,95,0,0,87,325.6,0,0,87,3.977,3.965,0,0,0,0,4.032,81.86,627.1236749236,4.265092,6,P-GPS,
184500,2024-02-01 19:25:23,40.4292092946715,-86.9295629215217,4.265092,,,627.1236749236,5.905512,16.5086172,112.771985236,109.200790896,29,5,7.944,628.4360109236,5.577428,16.5086172,112.771985236,12.526864,-10.737312,0,320, -15.6, -3,0,0,1645,1024,1024,1392,94,0,0,56,326,0,0,87,3.977,3.965,0,0,0,0,4.032,81.86,627.1236749236,4.265092,6,P-GPS,
184600,2024-02-01 19:25:23,40.4292142406598,-86.929568486634,4.593176,,,627.4517589236,5.577428,16.6428336,115.134846204,111.576775224,29,5,7.944,628.4360109236,5.577428,16.6428336,115.134846204,12.526864,-10.961006,0,320.8, -14.5, -2.5,0,0,1644,1024,1024,1187,94,0,0,25,328.7,0,0,87,3.977,3.965,0,0,0,0,4.032,81.86,627.4517589236,4.593176,6,P-GPS,
184700,2024-02-01 19:25:24,40.4292194932385,-86.929574390654,4.593176,,,627.4517589236,5.577428,16.8217888,117.643376468,114.099085016,29,5,7.944,628.4360109236,5.577428,16.8217888,117.643376468,12.750558,-10.961006,0,323.4, -13.5, -2.5,0,0,1645,1024,1024,1263,94,0,0,36,331.4,0,0,87,3.975,3.959,0,0,0,0,4.032,81.86,627.4517589236,4.593176,6,P-GPS,
184800,2024-02-01 19:25:24,40.4292245169231,-86.9295800638287,4.593176,,,627.4517589236,5.577428,16.9560052,120.048232188,116.516079844,29,5,7.944,628.4360109236,5.577428,16.9560052,120.048232188,12.750558,-11.1847,0,325.8, -14, -2.4,0,0,1645,1024,1024,1263,94,0,0,36,332.3,0,0,87,3.975,3.959,0,0,0,0,4.032,81.86,627.4517589236,4.593176,6,P-GPS,
184900,2024-02-01 19:25:24,40.4292298269403,-86.9295859859003,4.92126,,,627.7798429236,5.577428,17.1349604,122.575791324,119.057418508,29,5,7.944,628.4360109236,5.577428,17.1349604,122.575791324,12.974252,-11.1847,0,326.9, -14.3, -1.3,0,0,1645,1024,1024,1567,94,0,0,82,332.8,0,0,87,3.975,3.959,0,0,0,0,4.032,81.86,627.7798429236,4.92126,6,P-GPS,
185000,2024-02-01 19:25:24,40.4292350347041,-86.9295916874355,4.92126,,,627.7798429236,5.577428,17.2915462,125.034124736,121.5305157,29,5,7.944,628.4360109236,5.577428,17.2915462,125.034124736,13.197946,-11.1847,0,327.6, -13.7, -1.4,0,0,1646,1024,1024,1542,94,0,0,78,334.6,0,0,87,3.975,3.959,0,0,0,0,4.032,81.86,627.7798429236,4.92126,6,P-GPS,
185100,2024-02-01 19:25:24,40.4292406088289,-86.9295976736108,4.92126,,,627.7798429236,5.577428,17.2915462,127.64272062,124.157484288,29,5,7.944,628.4360109236,5.577428,17.2915462,127.64272062,13.42164,-11.1847,0,329.4, -12.6, -3,0,0,1627,1024,1024,1034,91,0,0,2,338,0,0,87,3.975,3.959,0,0,0,0,4.032,81.86,627.7798429236,4.92126,6,P-GPS,
185200,2024-02-01 19:25:24,40.4292459288642,-86.9296033454125,5.249344,,,628.1079269236,5.577428,17.6494566,130.125004164,126.657156284,29,5,7.944,628.4360109236,5.577428,17.6494566,130.125004164,13.645334,-11.1847,0,332.6, -13.1, -3.5,0,0,1557,1024,1024,1024,81,0,0,0,340.7,0,0,87,3.975,3.959,0,0,0,0,4.032,81.86,628.1079269236,5.249344,6,P-GPS,
185300,2024-02-01 19:25:24,40.4292515502789,-86.929609322787,5.249344,,,628.1079269236,5.577428,17.6494566,132.745082988,129.295935896,29,5,7.944,628.4360109236,5.577428,17.6494566,132.745082988,13.645334,-11.1847,0,335, -12.1, -2.1,0,0,1558,1024,1024,1024,81,0,0,0,341.4,0,0,87,3.975,3.959,0,0,0,0,4.032,81.86,628.1079269236,5.249344,6,P-GPS,
185400,2024-02-01 19:25:24,40.4292569851131,-86.9296149141665,5.577428,,,628.4360109236,5.577428,17.671826,135.242130312,131.81430868,29,5,7.944,628.4360109236,5.577428,17.671826,135.242130312,13.869028,-10.961006,0,335.8, -8.7, -1,0,0,1558,1024,1024,1112,81,0,0,13,341.4,0,0,87,3.975,3.959,0,0,0,0,4.032,81.86,628.4360109236,5.577428,6,P-GPS,
185500,2024-02-01 19:25:24,40.4292627557714,-86.9296207095389,5.577428,,,628.4360109236,5.577428,17.5376096,137.866146144,134.464571232,29,5,7.944,628.4360109236,5.577428,17.671826,137.866146144,13.869028,-10.737312,0,335.7, -6.4, -1.2,0,0,1497,1024,1024,1101,72,0,0,12,341.4,0,0,87,3.975,3.959,0,0,0,0,4.032,81.86,628.4360109236,5.577428,6,P-GPS,
185600,2024-02-01 19:25:24,40.429268249438,-86.9296262085668,5.577428,,,628.4360109236,5.577428,17.4033932,140.361553048,136.984584436,29,5,7.944,628.4360109236,5.577428,17.671826,140.361553048,13.869028,-10.513618,0,335.6, -6.8, -1.5,0,0,1497,1024,1024,1101,72,0,0,12,341.5,0,0,87,3.975,3.959,0,0,0,0,4.032,81.86,628.4360109236,5.577428,6,P-GPS,
185700,2024-02-01 19:25:24,40.4292740375012,-86.9296319525751,5.905512,,,628.7640949236,5.577428,17.2691768,142.981631872,139.63090998,29,5,7.944,628.7640949236,5.905512,17.671826,142.981631872,13.869028,-10.289924,0,335.6, -6.3, -1.4,0,0,1024,1024,1024,1024,0,0,0,0,341.5,0,0,87,3.975,3.959,0,0,0,0,4.032,81.86,628.7640949236,5.905512,6,P-GPS,
185800,2024-02-01 19:25:25,40.4292794665771,-86.9296372467999,5.905512,,,628.7640949236,5.577428,16.9560052,145.421920664,142.097773576,29,5,7.944,628.7640949236,5.905512,17.671826,145.421920664,13.645334,-10.06623,0,335.6, 1.7, -1.4,0,0,1024,1024,1024,1024,0,0,0,0,341.6,0,0,87,3.975,3.959,0,0,0,0,4.032,81.86,628.7640949236,5.905512,6,P-GPS,
185900,2024-02-01 19:25:25,40.4292850518013,-86.9296426518556,5.905512,,,628.7640949236,5.577428,16.329662,147.925201584,144.628941636,29,5,7.944,628.7640949236,5.905512,17.671826,147.925201584,13.197946,-9.618842,-0.223694,336.2, 17.8, 2.1,0,0,1024,1024,1024,1024,0,0,0,0,341.6,0,0,87,3.975,3.959,0,0,0,0,4.032,81.86,628.7640949236,5.905512,6,P-GPS,
186000,2024-02-01 19:25:25,40.4292901243392,-86.9296474625119,5.905512,,,628.7640949236,5.905512,15.3901472,150.180451,146.911422024,29,5,7.944,628.7640949236,5.905512,17.671826,150.180451,12.526864,-8.94776,-0.223694,336.6, 21.5, 4.6,0,0,1024,1024,1024,1024,0,0,0,0,341.6,0,0,87,3.975,3.959,0,0,0,0,4.032,81.86,628.7640949236,5.905512,6,P-GPS,
186100,2024-02-01 19:25:25,40.429295028457,-86.929652088555,6.233596,,,629.0921789236,5.905512,14.2716772,152.356632172,149.114178,29,5,7.944,629.0921789236,6.233596,17.671826,152.356632172,11.632088,-8.276678,0,336.8, 23.5, 6.2,0,0,1333,1024,1024,1024,47,0,0,0,341.6,0,0,87,3.975,3.959,0,0,0,0,4.032,81.86,629.0921789236,6.233596,6,P-GPS,
186200,2024-02-01 19:25:25,40.4292994733014,-86.929656161929,6.233596,,,629.0921789236,5.905512,13.0189908,154.306435384,151.091540268,29,5,7.956,629.0921789236,6.233596,17.671826,154.306435384,10.737312,-7.381902,0,336.9, 24.3, 6.7,0,0,1338,1024,1024,1024,48,0,0,0,341.6,0,0,87,3.974,3.972,0,0,0,0,3.806,82.04,629.0921789236,6.233596,6,P-GPS,
186300,2024-02-01 19:25:25,40.4293037956607,-86.9296600314227,6.233596,,,629.0921789236,5.905512,11.9228902,156.185372452,153.000004896,29,5,7.956,629.0921789236,6.233596,17.671826,156.185372452,9.842536,-6.71082,0,336.8, 23, 4.9,0,0,1328,1024,1024,1024,46,0,0,0,341.6,0,0,87,3.974,3.972,0,0,0,0,3.806,82.04,629.0921789236,6.233596,6,P-GPS,
186400,2024-02-01 19:25:25,40.4293075773767,-86.9296633414049,6.233596,,,629.0921789236,5.905512,10.9833754,157.815293764,154.657813348,29,5,7.956,629.0921789236,6.233596,17.671826,157.815293764,9.171454,-6.039738,0,336.6, 20.9, 3.8,0,0,1345,1024,1024,1024,49,0,0,0,341.6,0,0,87,3.974,3.972,0,0,0,0,3.806,82.04,629.0921789236,6.233596,6,P-GPS,
186500,2024-02-01 19:25:25,40.4293112403595,-86.9296664816293,6.233596,,,629.0921789236,5.905512,9.8649054,159.381894864,156.253613924,29,5,7.956,629.0921789236,6.233596,17.671826,159.381894864,8.276678,-5.368656,0,336.4, 20.9, 4,0,0,1351,1024,1024,1024,50,0,0,0,341.6,0,0,87,3.974,3.972,0,0,0,0,3.806,82.04,629.0921789236,6.233596,6,P-GPS,
186600,2024-02-01 19:25:25,40.4293143826572,-86.9296690321361,6.233596,,,629.0921789236,5.905512,8.94776,160.698495956,157.601382996,29,5,7.956,629.0921789236,6.233596,17.671826,160.698495956,7.605596,-4.697574,0,336.3, 21.1, 3.6,0,0,1351,1024,1024,1024,50,0,0,0,341.6,0,0,87,3.974,3.972,0,0,0,0,3.806,82.04,629.0921789236,6.233596,6,P-GPS,
186700,2024-02-01 19:25:25,40.4293173767013,-86.9296713596755,6.233596,,,629.0921789236,5.905512,8.94776,161.933732216,158.870739992,29,5,7.956,629.0921789236,6.233596,17.671826,161.933732216,6.71082,-4.026492,0,336.3, 21.5, 3.8,0,0,1183,1024,1024,1036,24,0,0,2,341.6,0,0,87,3.974,3.972,0,0,0,0,3.806,82.04,629.0921789236,6.233596,6,P-GPS,
186800,2024-02-01 19:25:26,40.4293198727021,-86.9296733323038,6.233596,,,629.0921789236,5.905512,6.9121446,162.970149572,159.933404068,29,5,7.956,629.0921789236,6.233596,17.671826,162.970149572,6.039738,-3.35541,0.223694,336.2, 21.8, 3.6,0,0,1024,1024,1024,1121,0,0,0,15,341.6,0,0,87,3.974,3.972,0,0,0,0,3.806,82.04,629.0921789236,6.233596,6,P-GPS,
186900,2024-02-01 19:25:26,40.4293221850144,-86.9296750886723,6.56168,,,629.4202629236,5.905512,5.9055216,163.916999996,160.907813548,29,5,7.956,629.4202629236,6.56168,17.671826,163.916999996,5.144962,-2.908022,0,336.1, 23.6, 2.7,0,0,1024,1024,1024,1124,0,0,0,15,341.6,0,0,87,3.974,3.972,0,0,0,0,3.806,82.04,629.4202629236,6.56168,6,P-GPS,
187000,2024-02-01 19:25:26,40.4293236921719,-86.9296765223167,6.56168,,,629.4202629236,5.905512,5.0107456,164.589572196,161.586619344,29,5,7.956,629.4202629236,6.56168,17.671826,164.589572196,4.47388,-2.23694,0,336, 24.4, 1.5,0,0,1024,1024,1024,1143,0,0,0,18,341.6,0,0,87,3.974,3.972,0,0,0,0,3.806,82.04,629.4202629236,6.56168,6,P-GPS,
187100,2024-02-01 19:25:26,40.4293253002408,-86.9296776495779,6.56168,,,629.4202629236,5.905512,3.914645,165.230320248,162.251645612,29,5,7.956,629.4202629236,6.56168,17.671826,165.230320248,3.579104,-1.565858,0,335.9, 23, 0.4,0,0,1024,1024,1024,1393,0,0,0,56,341.7,0,0,87,3.974,3.972,0,0,0,0,3.806,82.04,629.4202629236,6.56168,6,P-GPS,
187200,2024-02-01 19:25:26,40.4293264954926,-86.9296784512789,6.889764,,,629.7483469236,5.905512,2.908022,165.699808452,162.741475024,29,5,7.956,629.7483469236,6.889764,17.671826,165.699808452,2.684328,-1.11847,0,335.8, 21.1, -0.3,0,0,1024,1024,1024,1393,0,0,0,56,341.8,0,0,87,3.974,3.972,0,0,0,0,3.806,82.04,629.7483469236,6.889764,6,P-GPS,
187300,2024-02-01 19:25:26,40.4293274380621,-86.9296790363599,6.889764,,,629.7483469236,5.905512,1.901399,166.061028936,163.12172438,29,5,7.956,629.7483469236,6.889764,17.671826,166.061028936,1.789552,-0.671082,0,335.9, 16.1, -1.6,0,0,1024,1024,1024,1283,0,0,0,39,342.5,0,0,87,3.964,3.95,0,0,0,0,3.806,82.04,629.7483469236,6.889764,6,P-GPS,
187400,2024-02-01 19:25:26,40.4293278856106,-86.9296794216572,6.889764,,,629.7483469236,5.905512,1.4092722,166.25328616,163.31693436,29,5,7.956,629.7483469236,6.889764,17.671826,166.25328616,1.342164,-0.447388,0,336.7, 12.5, -2,0,0,1024,1024,1024,1283,0,0,0,39,343.9,0,0,87,3.964,3.95,0,0,0,0,3.806,82.04,629.7483469236,6.889764,6,P-GPS,
187500,2024-02-01 19:25:26,40.4293283654414,-86.9296796331903,6.889764,,,629.7483469236,5.905512,0.9171454,166.420609,163.501645652,29,5,7.956,629.7483469236,6.889764,17.671826,166.420609,0.894776,-0.223694,0,338, 9.8, -1.5,0,0,1024,1024,1024,1532,0,0,0,77,345,0,0,87,3.964,3.95,0,0,0,0,3.806,82.04,629.7483469236,6.889764,6,P-GPS,
187600,2024-02-01 19:25:26,40.4293287367005,-86.9296798325239,7.217848,,,630.0764309236,5.905512,0.7158208,166.557091944,163.647971116,29,5,7.956,630.0764309236,7.217848,17.671826,166.557091944,0.671082,-0.223694,0,339.3, 8, -1.3,0,0,1024,1024,1024,1557,0,0,0,81,346.7,0,0,87,3.964,3.95,0,0,0,0,3.806,82.04,630.0764309236,7.217848,6,P-GPS,
187700,2024-02-01 19:25:27,40.4293290445677,-86.9296799840949,7.217848,,,630.0764309236,5.905512,0.447388,166.667328168,163.76804986,29,5,7.956,630.0764309236,7.217848,17.671826,166.667328168,0.447388,0,0,341.2, 6.3, -1.4,0,0,1024,1024,1024,1653,0,0,0,95,349.7,0,0,87,3.964,3.95,0,0,0,0,3.806,82.04,630.0764309236,7.217848,6,P-GPS,
187800,2024-02-01 19:25:27,40.4293291728109,-86.9296800368093,7.217848,,,630.0764309236,5.905512,0.223694,166.711619508,163.816934376,29,5,7.956,630.0764309236,7.217848,17.671826,166.711619508,0.223694,0,0,344.3, 5.1, -1.2,0,0,1025,1024,1024,1520,0,0,0,75,353.4,0,0,87,3.964,3.95,0,0,0,0,3.806,82.04,630.0764309236,7.217848,6,P-GPS,
187900,2024-02-01 19:25:27,40.4293293159837,-86.9296799758118,7.217848,,,630.0764309236,5.905512,0.223694,166.737866228,163.872052488,29,5,7.956,630.0764309236,7.217848,17.671826,166.737866228,0.223694,0,0,348.1, 4.1, -1.1,0,0,1283,1024,1024,1216,39,0,0,29,358.2,0,0,87,3.964,3.95,0,0,0,0,3.806,82.04,630.0764309236,7.217848,6,P-GPS,
188000,2024-02-01 19:25:27,40.4293293721324,-86.9296799575351,7.545932,,,630.4045149236,5.905512,0.223694,166.749349168,163.893049864,29,5,7.956,630.4045149236,7.545932,17.671826,166.749349168,0.223694,0,0,352.5, 3.5, -1,0,0,1394,1024,1024,1024,56,0,0,0,1.7,0,0,87,3.964,3.95,0,0,0,0,3.806,82.04,630.4045149236,7.545932,6,P-GPS,
188100,2024-02-01 19:25:27,40.4293294084532,-86.9296799348917,7.545932,,,630.4045149236,5.905512,0.223694,166.754598512,163.907813644,29,5,7.956,630.4045149236,7.545932,17.671826,166.754598512,0.223694,0,0,355.7, 1.6, -0.9,0,0,1403,1024,1024,1024,57,0,0,0,2.8,0,0,87,3.964,3.95,0,0,0,0,3.806,82.04,630.4045149236,7.545932,6,P-GPS,
188200,2024-02-01 19:25:27,40.429329492507,-86.9296799117532,7.545932,,,630.4045149236,5.905512,0.223694,166.772315048,163.938981624,29,5,7.956,630.4045149236,7.545932,17.671826,166.772315048,0.223694,0,0,357.1, -2, -1.2,0,0,1403,1024,1024,1024,57,0,0,0,3,0,0,87,3.964,3.95,0,0,0,0,3.806,82.04,630.4045149236,7.545932,6,P-GPS,
188300,2024-02-01 19:25:27,40.4293295209852,-86.9296800445072,7.545932,,,630.4045149236,5.905512,0.447388,166.805123448,163.977367452,29,5,7.956,630.4045149236,7.545932,17.671826,166.805123448,0.447388,0,0,357.4, -4.7, -1.4,0,0,1403,1024,1024,1024,57,0,0,0,3,0,0,87,3.964,3.95,0,0,0,0,3.806,82.04,630.4045149236,7.545932,6,P-GPS,
188400,2024-02-01 19:25:27,40.4293297892746,-86.9296800306421,7.545932,,,630.4045149236,5.905512,0.671082,166.873693004,164.075136484,29,5,7.956,630.4045149236,7.545932,17.671826,166.873693004,0.671082,0,0,357.3, -5.5, -1.2,0,0,1482,1024,1024,1024,69,0,0,0,3,0,0,87,3.964,3.95,0,0,0,0,3.806,82.04,630.4045149236,7.545932,6,P-GPS,
188500,2024-02-01 19:25:27,40.4293301963596,-86.9296800275809,7.545932,,,630.4045149236,5.905512,0.671082,166.981304556,164.223758536,29,5,7.956,630.4045149236,7.545932,17.671826,166.981304556,1.11847,0,0,357.3, -5.7, -1.1,0,0,1501,1024,1024,1024,72,0,0,0,3,0,0,87,3.964,3.95,0,0,0,0,3.806,82.04,630.4045149236,7.545932,6,P-GPS,
188600,2024-02-01 19:25:27,40.4293307212657,-86.9296799988603,7.545932,,,630.4045149236,5.905512,1.342164,167.115162828,164.415359592,29,5,7.956,630.4045149236,7.545932,17.671826,167.115162828,1.342164,0,0,357.3, -7.8, -0.9,0,0,1534,1024,1024,1024,77,0,0,0,3,0,0,87,3.964,3.95,0,0,0,0,3.806,82.04,630.4045149236,7.545932,6,P-GPS,
188700,2024-02-01 19:25:27,40.4293314528149,-86.9296799885065,7.545932,,,630.4045149236,5.905512,1.342164,167.307420052,164.682419968,29,5,7.931,630.4045149236,7.545932,17.671826,167.307420052,1.789552,0,0,357.3, -9.6, -0.7,0,0,1569,1024,1024,1024,83,0,0,0,3,0,0,87,3.972,3.96,0,0,0,0,4.167,82.04,630.4045149236,7.545932,6,P-GPS,
188800,2024-02-01 19:25:28,40.429332300674,-86.9296799755417,7.545932,,,630.4045149236,5.905512,2.23694,167.530517172,164.99180318,29,5,7.931,630.4045149236,7.545932,17.671826,167.530517172,2.23694,0,0,357.3, -11.5, -0.8,0,0,1590,1024,1024,1024,86,0,0,0,3,0,0,87,3.972,3.96,0,0,0,0,4.167,82.04,630.4045149236,7.545932,6,P-GPS,
188900,2024-02-01 19:25:28,40.4293333887872,-86.9296799795032,7.545932,,,630.4045149236,5.905512,2.684328,167.821199596,165.38878482,29,5,7.931,630.4045149236,7.545932,17.671826,167.821199596,2.684328,0,0,357.3, -12.8, -0.8,0,0,1610,1024,1024,1024,89,0,0,0,3,0,0,87,3.972,3.96,0,0,0,0,4.167,82.04,630.4045149236,7.545932,6,P-GPS,
189000,2024-02-01 19:25:28,40.429334643575,-86.9296800039922,7.217848,,,630.0764309236,5.905512,3.35541,168.160438452,165.846462,29,5,7.931,630.4045149236,7.545932,17.671826,168.160438452,3.35541,0,0,357.3, -14.1, -0.6,0,0,1636,1024,1024,1024,93,0,0,0,3,0,0,87,3.972,3.96,0,0,0,0,4.167,82.04,630.0764309236,7.217848,6,P-GPS,
189100,2024-02-01 19:25:28,40.4293362475533,-86.9296800337482,7.217848,,,630.0764309236,5.905512,3.802798,168.594821668,166.431763856,29,5,7.931,630.4045149236,7.545932,17.671826,168.594821668,3.802798,0,0,357.3, -14.8, -0.2,0,0,1636,1024,1024,1024,93,0,0,0,3,0,0,87,3.972,3.96,0,0,0,0,4.167,82.04,630.0764309236,7.217848,6,P-GPS,
189200,2024-02-01 19:25:28,40.4293379312862,-86.9296800685911,7.217848,,,630.0764309236,5.905512,4.47388,169.052498848,167.046265188,29,5,7.931,630.4045149236,7.545932,17.671826,169.052498848,4.47388,0,0,357.3, -15.9, -0.2,0,0,1645,1024,1024,1024,94,0,0,0,3,0,0,87,3.972,3.96,0,0,0,0,4.167,82.04,630.0764309236,7.217848,6,P-GPS,
