time(millisecond),datetime(utc),latitude,longitude,height_above_takeoff(feet),height_above_ground_at_drone_location(feet),ground_elevation_at_drone_location(feet),altitude_above_seaLevel(feet),height_sonar(feet),speed(mph),distance(feet),mileage(feet),satellites,gpslevel,voltage(v),max_altitude(feet),max_ascent(feet),max_speed(mph),max_distance(feet), xSpeed(mph), ySpeed(mph), zSpeed(mph), compass_heading(degrees), pitch(degrees), roll(degrees),isPhoto,isVideo,rc_elevator,rc_aileron,rc_throttle,rc_rudder,rc_elevator(percent),rc_aileron(percent),rc_throttle(percent),rc_rudder(percent),gimbal_heading(degrees),gimbal_pitch(degrees),gimbal_roll(degrees),battery_percent,voltageCell1,voltageCell2,voltageCell3,voltageCell4,voltageCell5,voltageCell6,current(A),battery_temperature(f),altitude(feet),ascent(feet),flycStateRaw,flycState,message
42300,2024-02-01 19:22:21,40.4289967114725,-86.9292678534929,0,Available with any HD 360 subscription,Available with any HD 360 subscription,622.8585829236,0.328084,0,0,0,29,5,0,622.8585829236,0,0,0,0,0,0,174.3, -9.5, 7.4,0,0,1024,1024,1024,1024,0,0,0,0,179.4,-0.5,0,94,4.046,4.035,0,0,0,0,0,76.64,622.8585829236,0,41,Motors_Started,"Gimbal stuck Gimbal stuck. Check whether gimbal cover is removed and make sure gimbal can rotate freely on all three axes (Code: 40028). Remote ID functionality normal (Code: 30331)"
42400,2024-02-01 19:22:21,40.4289967051232,-86.9292678627058,0,,,622.8585829236,0.328084,0,0.0034515421052,0.0034515421052,29,5,0,622.8585829236,0,0,0.0034515421052,0,0,0,174.3, -9.5, 7.4,0,0,1024,1024,1024,1024,0,0,0,0,179.4,-0.5,0,94,4.046,4.035,0,0,0,0,0,76.64,622.8585829236,0,41,Motors_Started,
42500,2024-02-01 19:22:21,40.4289967218359,-86.9292678703537,0,,,622.8585829236,0.328084,0,0.0060186681716,0.0099085305008,29,5,0,622.8585829236,0,0,0.0060186681716,0,0,0,174.3, -9.5, 7.3,0,0,1024,1024,1024,1024,0,0,0,0,179.4,-0.5,0,94,4.046,4.035,0,0,0,0,0,76.64,622.8585829236,0,41,Motors_Started,"Aircraft in Warning Zone (Class D Airspace). Fly with caution"
42600,2024-02-01 19:22:21,40.4289967650214,-86.9292678777899,0,,,622.8585829236,0.328084,0,0.0206698169344,0.0257995086996,29,5,0,622.8585829236,0,0,0.0206698169344,0,0,0,174.3, -9.5, 7.3,0,0,1024,1024,1024,1024,0,0,0,0,179.4,-0.5,0,94,4.046,4.035,0,0,0,0,0,76.64,622.8585829236,0,41,Motors_Started,
42700,2024-02-01 19:22:22,40.4289967897233,-86.929267886336,0,,,622.8585829236,0.328084,0,0.029971457652,0.035119423696,29,5,0,622.8585829236,0,0,0.029971457652,0,0,0,174.2, -9.5, 7.4,0,0,1024,1024,1024,1024,0,0,0,0,179.4,-0.5,0,94,4.046,4.035,0,0,0,0,0,76.64,622.8585829236,0,41,Motors_Started,
42800,2024-02-01 19:22:22,40.4289968257779,-86.9292678996258,0,,,622.8585829236,0.328084,0,0.043627954152,0.048781825708,29,5,0,622.8585829236,0,0,0.043627954152,0,0,0,174.2, -9.5, 7.4,0,0,1024,1024,1024,1024,0,0,0,0,179.4,-0.5,0,94,4.046,4.035,0,0,0,0,0,76.64,622.8585829236,0,41,Motors_Started,
42900,2024-02-01 19:22:22,40.42899685423,-86.9292678781381,0,,,622.8585829236,0.328084,0,0.05253281008,0.060755579372,29,5,0,622.8585829236,0,0,0.05253281008,0,0,0,174.2, -9.5, 7.4,0,0,1024,1024,1024,1024,0,0,0,0,179.4,-0.5,0,94,4.046,4.035,0,0,0,0,0,76.64,622.8585829236,0,41,Motors_Started,
43000,2024-02-01 19:22:22,40.4289969016324,-86.9292678307715,0,,,622.8585829236,0.328084,0,0.069666012728,0.082484910776,29,5,0,622.8585829236,0,0,0.069666012728,0,0,0,174.2, -9.5, 7.4,0,0,1024,1024,1024,1024,0,0,0,0,179.4,-0.5,0,94,4.046,4.035,0,0,0,0,0,76.64,622.8585829236,0,41,Motors_Started,"Setting new Return-To-Home altitude to 100m (328 ft). Data Recorder File Index is 2. Setting new Maximum Flight Altitude to 120m (394 ft)"
43100,2024-02-01 19:22:22,40.4289969295032,-86.929267799997,0,,,622.8585829236,0.328084,0,0.080923887104,0.095768375768,29,5,0,622.8585829236,0,0,0.080923887104,0,0,0,174.2, -9.5, 7.4,0,0,1024,1024,1024,1024,0,0,0,0,179.4,-0.5,0,94,4.046,4.035,0,0,0,0,0,76.64,622.8585829236,0,41,Motors_Started,
43200,2024-02-01 19:22:22,40.4289969499834,-86.9292677050759,0,,,622.8585829236,0.328084,0,0.09628937316,0.123168967196,29,5,0,622.8585829236,0,0,0.09628937316,0,0,0,174.2, -9.5, 7.4,0,0,1024,1024,1024,1024,0,0,0,0,179.4,-0.5,0,94,4.046,4.035,0,0,0,0,0,76.64,622.8585829236,0,41,Motors_Started,
43300,2024-02-01 19:22:22,40.4289969489444,-86.9292677018143,0,,,622.8585829236,0.328084,0,0.096339570012,0.124150922608,29,5,0,622.8585829236,0,0,0.096339570012,0,0,0,174.2, -9.5, 7.4,0,0,1024,1024,1024,1024,0,0,0,0,179.4,-0.5,0,94,4.046,4.035,0,0,0,0,0,76.64,622.8585829236,0,41,Motors_Started,
43400,2024-02-01 19:22:22,40.4289969402184,-86.9292677063814,0,,,622.8585829236,0.328084,0,0.092921918984,0.127578088072,29,5,0,622.8585829236,0,0,0.096339570012,0,0,0,174.2, -9.5, 7.4,0,0,1024,1024,1024,1024,0,0,0,0,179.4,-0.5,0,94,4.046,4.035,0,0,0,0,0,76.64,622.8585829236,0,41,Motors_Started,
43500,2024-02-01 19:22:22,40.4289969552628,-86.9292677137142,0,,,622.8585829236,0.328084,0,0.097049215704,0.133432747052,29,5,0,622.8585829236,0,0,0.097049215704,0,0,0,174.1, -9.2, 7.2,0,0,1024,1024,1024,1024,0,0,0,0,179.4,-0.5,0,94,4.046,4.035,0,0,0,0,0,76.64,622.8585829236,0,11,AutoTakeoff,
43600,2024-02-01 19:22:23,40.42899701041,-86.9292677549325,0,,,622.8585829236,0.328084,0,0.112449806748,0.156581697924,29,5,0,622.8585829236,0,0,0.112449806748,0,0,0,173.9, -8.6, 6.3,0,0,1024,1024,1024,1024,0,0,0,0,179.4,-0.5,0,94,4.046,4.035,0,0,0,0,0,76.64,622.8585829236,0,11,AutoTakeoff,
43700,2024-02-01 19:22:23,40.4289970304537,-86.9292677614234,0,,,622.8585829236,0.328084,0,0.119156171792,0.164113522312,29,5,0,622.8585829236,0,0,0.119156171792,0,0,0,174, -8.3, 3.7,0,0,1024,1024,1024,1024,0,0,0,0,179.4,-0.5,0,94,4.046,4.035,0,0,0,0,0,76.64,622.8585829236,0,11,AutoTakeoff,
43800,2024-02-01 19:22:23,40.4289970231306,-86.9292677453468,0,,,622.8585829236,0.328084,0,0.11760827148,0.169316606468,29,5,0,622.8585829236,0,0,0.119156171792,0,0,0,173.7, -4.5, -0.3,0,0,1024,1024,1024,1024,0,0,0,0,179.4,-0.5,0,94,4.046,4.035,0,0,0,0,0,76.64,622.8585829236,0,11,AutoTakeoff,
43900,2024-02-01 19:22:23,40.4289970533839,-86.929267689574,0,,,622.8585829236,0.328084,0,0.132793311336,0.188336948284,29,5,0,622.8585829236,0,0,0.132793311336,0,0,0,173.5, 2.6, -2.8,0,0,1024,1024,1024,1024,0,0,0,0,179.4,-0.5,0,94,4.046,4.035,0,0,0,0,0,76.64,622.8585829236,0,11,AutoTakeoff,
44000,2024-02-01 19:22:23,40.4289971901129,-86.9292675585334,0,,,622.8585829236,0.328084,0.3131716,0.192890754204,0.250086622176,29,5,0,622.8585829236,0,0.3131716,0.192890754204,0.223694,0.223694,0,173.7, 4.1, -1,0,0,1024,1024,1024,1024,0,0,0,0,179.3,-0.5,0,94,4.046,4.035,0,0,0,0,0,76.64,622.8585829236,0,11,AutoTakeoff,
44100,2024-02-01 19:22:23,40.4289973739585,-86.92926732582,0,,,622.8585829236,0.328084,0.6263432,0.282664379124,0.34323491912,29,5,0,622.8585829236,0,0.6263432,0.282664379124,0.447388,0.447388,-0.447388,173.9, 2.8, 0,0,0,1024,1024,1024,1024,0,0,0,0,179.2,-0.5,0,94,4.046,4.035,0,0,0,0,0,76.64,622.8585829236,0,11,AutoTakeoff,
44200,2024-02-01 19:22:23,40.4289976306103,-86.9292670158208,0,,,622.8585829236,0.328084,0.8052984,0.40814305768,0.47043636676,29,5,0,622.8585829236,0,0.8052984,0.40814305768,0.671082,0.447388,-0.894776,173.9, -2, 0.9,0,0,1024,1024,1024,1024,0,0,0,0,179.2,-0.5,0,94,4.046,4.035,0,0,0,0,0,76.64,622.8585829236,0,11,AutoTakeoff,
44300,2024-02-01 19:22:23,40.428997887253,-86.9292667157379,0.328084,,,623.1866669236,0.656168,0.6263432,0.53279857348,0.59579070148,29,5,0,623.1866669236,0.328084,0.8052984,0.53279857348,0.447388,0.447388,-1.342164,173.6, -4.2, 2.5,0,0,1024,1024,1024,1024,0,0,0,0,179.2,-0.5,0,94,4.046,4.035,0,0,0,0,0,76.64,623.1866669236,0.328084,11,AutoTakeoff,
44400,2024-02-01 19:22:23,40.428998130247,-86.9292664218068,0.328084,,,623.1866669236,0.984252,0.6263432,0.65272639884,0.7163057972,29,5,0,623.1866669236,0.328084,0.8052984,0.65272639884,0.447388,0.447388,-1.789552,173.5, -4, 3.8,0,0,1024,1024,1024,1024,0,0,0,0,179.1,-0.5,0,94,4.046,4.035,0,0,0,0,0,76.64,623.1866669236,0.328084,11,AutoTakeoff,
44500,2024-02-01 19:22:23,40.428998262313,-86.9292661434556,0.656168,,,623.5147509236,1.312336,0.6263432,0.73872049608,0.8073983198,29,5,0,623.5147509236,0.656168,0.8052984,0.73872049608,0.447388,0.447388,-2.23694,173.5, -3.7, 4.7,0,0,1024,1024,1024,1024,0,0,0,0,179.1,-0.5,0,94,4.046,4.035,0,0,0,0,0,76.64,623.5147509236,0.656168,11,AutoTakeoff,
44600,2024-02-01 19:22:23,40.428998447888,-86.9292659195894,0.984252,,,623.8428349236,1.64042,0.3131716,0.8305610502,0.89932089492,29,5,0,623.8428349236,0.984252,0.8052984,0.8305610502,0.223694,0.223694,-2.23694,173.5, -3.8, 4.6,0,0,1024,1024,1024,1024,0,0,0,0,179.1,-0.5,0,94,4.046,4.035,0,0,0,0,0,76.64,623.8428349236,0.984252,11,AutoTakeoff,
44700,2024-02-01 19:22:24,40.4289986073217,-86.9292657254257,1.312336,,,624.1709189236,1.968504,0.3131716,0.9098097404,0.97863848276,29,5,0,624.1709189236,1.312336,0.8052984,0.9098097404,0.223694,0.223694,-2.23694,173.6, -3.5, 4.4,0,0,1024,1024,1024,1024,0,0,0,0,179.1,-0.5,0,94,4.046,4.035,0,0,0,0,0,76.64,624.1709189236,1.312336,11,AutoTakeoff,
44800,2024-02-01 19:22:24,40.4289987599834,-86.9292655400557,1.64042,,,624.4990029236,2.296588,0.3131716,0.98560370608,1.05448494188,29,5,0,624.4990029236,1.64042,0.8052984,0.98560370608,0.223694,0.223694,-2.23694,173.6, -3.7, 3.8,0,0,1024,1024,1024,1024,0,0,0,0,179,-0.5,0,94,4.046,4.035,0,0,0,0,0,76.64,624.4990029236,1.64042,11,AutoTakeoff,
44900,2024-02-01 19:22:24,40.4289988889415,-86.9292654163612,1.968504,,,624.8270869236,2.952756,0.3131716,1.04368769744,1.11274281776,28,5,0,624.8270869236,1.968504,0.8052984,1.04368769744,0.223694,0.223694,-2.013246,173.7, -3.5, 3.4,0,0,1024,1024,1024,1024,0,0,0,0,179,-0.5,0,94,4.046,4.035,0,0,0,0,0,76.64,624.8270869236,1.968504,6,P-GPS,
45000,2024-02-01 19:22:24,40.4289991542452,-86.9292652505397,2.296588,,,625.1551709236,3.28084,0.3131716,1.14756893436,1.21993770308,28,5,8.02,625.1551709236,2.296588,0.8052984,1.14756893436,0.223694,0.223694,-2.013246,173.8, -2.8, 2.9,0,0,1024,1024,1024,996,0,0,0,-4,179,-0.5,0,94,3.997,3.98,0,0,0,0,3.108,76.64,625.1551709236,2.296588,6,P-GPS,
45100,2024-02-01 19:22:24,40.4289993815816,-86.92926506773,2.624672,,,625.4832549236,3.608924,0.3131716,1.24403547288,1.31718508152,29,5,8.02,625.4832549236,2.624672,0.8052984,1.24403547288,0.223694,0.223694,-1.565858,173.9, -3.2, 2.6,0,0,1024,1024,1024,745,0,0,0,-42,179,-0.5,0,94,3.997,3.98,0,0,0,0,3.108,76.64,625.4832549236,2.624672,6,P-GPS,"Gimbal stuck. Check whether gimbal cover is removed and make sure gimbal can rotate freely on all three axes (Code: 40028)"
45200,2024-02-01 19:22:24,40.4289995971086,-86.9292648375375,2.624672,,,625.4832549236,3.608924,0.3131716,1.3453740588,1.41853022912,29,5,8.02,625.4832549236,2.624672,0.8052984,1.3453740588,0.223694,0.223694,-1.11847,174.2, -3.3, 3.7,0,0,1024,1024,1024,586,0,0,0,-66,179,-0.5,0,94,3.997,3.98,0,0,0,0,3.108,76.64,625.4832549236,2.624672,6,P-GPS,
45300,2024-02-01 19:22:24,40.4290000539124,-86.9292645258839,2.952756,,,625.8113389236,3.937008,0.3131716,1.53010831668,1.60632879156,29,5,8.02,625.8113389236,2.952756,0.8052984,1.53010831668,0.223694,0.223694,-0.671082,174.1, -4.4, 4.8,0,0,1024,1024,1024,533,0,0,0,-74,178.5,-0.5,0,94,3.997,3.98,0,0,0,0,3.108,76.64,625.8113389236,2.952756,6,P-GPS,
45400,2024-02-01 19:22:24,40.4290003188025,-86.9292643433148,2.952756,,,625.8113389236,3.937008,0.3131716,1.63785766396,1.71546593416,29,5,8.02,625.8113389236,2.952756,0.8052984,1.63785766396,0.223694,0.223694,-0.447388,173.5, -5.6, 5.9,0,0,1024,1024,1024,519,0,0,0,-77,176.8,-0.5,0,94,3.997,3.98,0,0,0,0,3.108,76.64,625.8113389236,2.952756,6,P-GPS,
45500,2024-02-01 19:22:24,40.4290005449559,-86.9292641921525,2.952756,,,625.8113389236,3.937008,0.3131716,1.72921921544,1.80804467728,29,5,8.02,625.8113389236,2.952756,0.8052984,1.72921921544,0.223694,0,-0.223694,171.8, -6.8, 6.6,0,0,1024,1024,1024,519,0,0,0,-77,174.1,-0.5,0,94,3.997,3.98,0,0,0,0,3.108,76.64,625.8113389236,2.952756,6,P-GPS,
45600,2024-02-01 19:22:24,40.4290007442799,-86.9292640738235,2.952756,,,625.8113389236,4.265092,0.223694,1.80743772188,1.88784782944,29,5,8.02,625.8113389236,2.952756,0.8052984,1.80743772188,0.223694,0,0,169.2, -5.8, 5.9,0,0,1024,1024,1024,416,0,0,0,-92,171,-0.5,0,94,3.997,3.98,0,0,0,0,3.108,76.64,625.8113389236,2.952756,6,P-GPS,
45700,2024-02-01 19:22:25,40.4290006767662,-86.929263949138,3.28084,,,626.1394229236,4.265092,0,1.80799546468,1.93034454996,29,5,8.02,626.1394229236,3.28084,0.8052984,1.80799546468,0,0,0,165.9, -6, 4.5,0,0,1024,1024,1024,395,0,0,0,-95,167.3,-0.5,0,94,3.997,3.98,0,0,0,0,3.108,76.64,626.1394229236,3.28084,6,P-GPS,
45800,2024-02-01 19:22:25,40.4290006922731,-86.9292639100636,3.28084,,,626.1394229236,4.265092,0,1.81903877212,1.94258208316,29,5,8.02,626.1394229236,3.28084,0.8052984,1.81903877212,0,0,0,162, -5.5, 4.1,0,0,1024,1024,1024,423,0,0,0,-91,162.4,-0.5,0,94,3.997,3.98,0,0,0,0,3.108,76.64,626.1394229236,3.28084,6,P-GPS,
45900,2024-02-01 19:22:25,40.429000703182,-86.9292638978929,3.28084,,,626.1394229236,4.265092,0,1.82425202688,1.94780518044,29,5,8.02,626.1394229236,3.28084,0.8052984,1.82425202688,0,0,0,157.1, -4.9, 4.4,0,0,1024,1024,1024,1024,0,0,0,0,157.1,-0.5,0,94,3.997,3.98,0,0,0,0,3.108,76.64,626.1394229236,3.28084,6,P-GPS,
46000,2024-02-01 19:22:25,40.4290007246416,-86.929263908201,3.28084,,,626.1394229236,4.265092,0,1.82879270944,1.95614179488,29,5,8.02,626.1394229236,3.28084,0.8052984,1.82879270944,0,0,0,152, -4.3, 4.6,0,0,1024,1024,1024,1294,0,0,0,41,152.8,-0.5,0,94,3.997,3.98,0,0,0,0,3.108,76.64,626.1394229236,3.28084,6,P-GPS,
46100,2024-02-01 19:22:25,40.4290007127695,-86.9292638781545,3.28084,,,626.1394229236,4.265092,0,1.8303478276,1.96554468232,29,5,8.02,626.1394229236,3.28084,0.8052984,1.8303478276,0,0,0,148.4, -3.2, 4.7,0,0,1024,1024,1024,1615,0,0,0,90,151.6,-0.5,0,94,3.997,3.98,0,0,0,0,3.108,76.64,626.1394229236,3.28084,6,P-GPS,
46200,2024-02-01 19:22:25,40.4290005527634,-86.9292638117367,3.28084,,,626.1394229236,4.265092,0,1.79560701284,2.02676515672,29,5,8.02,626.1394229236,3.28084,0.8052984,1.8303478276,0,0,0,147.2, -3.1, 4.3,0,0,1024,1024,1024,1684,0,0,0,100,151.7,-0.5,0,94,3.997,3.98,0,0,0,0,3.108,76.64,626.1394229236,3.28084,6,P-GPS,
46300,2024-02-01 19:22:25,40.4290005459606,-86.9292637440289,3.28084,,,626.1394229236,4.265092,0,1.8054954646,2.0457349736,29,5,8.02,626.1394229236,3.28084,0.8052984,1.8303478276,0,0,0,147.7, -2.7, 5.4,0,0,1024,1024,1024,1684,0,0,0,100,154.2,-0.5,0,94,3.997,3.98,0,0,0,0,3.108,76.64,626.1394229236,3.28084,6,P-GPS,
46400,2024-02-01 19:22:25,40.4290005672672,-86.9292636793794,3.28084,,,626.1394229236,4.265092,0,1.82289375912,2.06529862252,29,5,8.02,626.1394229236,3.28084,0.8052984,1.8303478276,0,0,0,150.5, -2.2, 6.6,0,0,1024,1024,1024,1684,0,0,0,100,159,-0.5,0,94,3.997,3.98,0,0,0,0,3.108,76.64,626.1394229236,3.28084,6,P-GPS,
46500,2024-02-01 19:22:25,40.4290005946088,-86.9292636045238,3.28084,,,626.1394229236,4.265092,0,1.84383864168,2.08835964688,29,5,8.02,626.1394229236,3.28084,0.8052984,1.84383864168,0,0,0,155.5, -2.4, 7.5,0,0,1024,1024,1024,1684,0,0,0,100,164.8,-0.5,0,94,3.997,3.98,0,0,0,0,3.108,76.64,626.1394229236,3.28084,6,P-GPS,
46600,2024-02-01 19:22:25,40.4290006992298,-86.9292635165248,3.28084,,,626.1394229236,4.265092,0,1.88881567724,2.13368445148,29,5,8.02,626.1394229236,3.28084,0.8052984,1.88881567724,0,0,0,161.3, -3, 7.6,0,0,1024,1024,1024,1684,0,0,0,100,170.8,-0.5,0,94,4.004,3.988,0,0,0,0,3.108,76.64,626.1394229236,3.28084,6,P-GPS,
46700,2024-02-01 19:22:26,40.4290007404351,-86.929263521492,3.28084,,,626.1394229236,4.265092,0,1.89954730488,2.14877959632,29,5,8.02,626.1394229236,3.28084,0.8052984,1.89954730488,0,0,0,167.4, -4, 6.3,0,0,1024,1024,1024,1684,0,0,0,100,176.8,-0.5,0,94,4.004,3.988,0,0,0,0,3.108,76.64,626.1394229236,3.28084,6,P-GPS,
46800,2024-02-01 19:22:26,40.4290007900912,-86.9292635794495,3.28084,,,626.1394229236,4.265092,0,1.90352368296,2.1730151614,29,5,8.02,626.1394229236,3.28084,0.8052984,1.90352368296,0,0,0,173.5, -4.7, 4.7,0,0,1024,1024,1024,1684,0,0,0,100,182.9,-0.5,0,94,4.004,3.988,0,0,0,0,3.108,76.64,626.1394229236,3.28084,6,P-GPS,
46900,2024-02-01 19:22:26,40.4290008338663,-86.9292636598528,3.28084,,,626.1394229236,4.265092,0,1.9022802446,2.20046923052,29,5,8.02,626.1394229236,3.28084,0.8052984,1.90352368296,0,0,0,179.6, -5.2, 3.6,0,0,1024,1024,1024,1684,0,0,0,100,188.9,-0.5,0,94,4.004,3.988,0,0,0,0,3.108,76.64,626.1394229236,3.28084,6,P-GPS,
47000,2024-02-01 19:22:26,40.4290009784876,-86.9292637119222,3.28084,,,626.1394229236,4.265092,0,1.93563982572,2.25518051836,29,5,8.02,626.1394229236,3.28084,0.8052984,1.93563982572,0,0,0,185.8, -5.1, 2,0,0,1024,1024,1024,1684,0,0,0,100,194.9,-0.5,0,94,4.004,3.988,0,0,0,0,3.108,76.64,626.1394229236,3.28084,6,P-GPS,
47100,2024-02-01 19:22:26,40.4290010169498,-86.9292637811585,3.28084,,,626.1394229236,4.265092,0,1.9356463874,2.27898301256,29,5,8.02,626.1394229236,3.28084,0.8052984,1.9356463874,0,0,0,191.8, -5.5, 0.8,0,0,1024,1024,1024,1684,0,0,0,100,200.9,-0.5,0,94,4.004,3.988,0,0,0,0,3.108,76.64,626.1394229236,3.28084,6,P-GPS,
47200,2024-02-01 19:22:26,40.4290010520831,-86.9292638180707,3.28084,,,626.1394229236,4.265092,0,1.940124734,2.29539705508,29,5,8.02,626.1394229236,3.28084,0.8052984,1.940124734,0,0,0,197.8, -5.7, 0.3,0,0,1024,1024,1024,1684,0,0,0,100,206.9,-0.5,0,94,4.004,3.988,0,0,0,0,3.108,76.64,626.1394229236,3.28084,6,P-GPS,
47300,2024-02-01 19:22:26,40.4290010852626,-86.9292638494009,3.28084,,,626.1394229236,4.265092,0,1.9450295898,2.31030519204,29,5,8.02,626.1394229236,3.28084,0.8052984,1.9450295898,0,0,0,203.8, -6.4, 0,0,0,1024,1024,1024,1684,0,0,0,100,212.9,-0.5,0,94,4.004,3.988,0,0,0,0,3.108,76.64,626.1394229236,3.28084,6,P-GPS,"Home Point updated. RTH altitude adjusted to 100 m (Code: 120852)"
47400,2024-02-01 19:22:26,40.4290011616,-86.9292638480236,3.28084,,,626.1394229236,4.265092,0,1.9681595118,2.33815952364,29,5,8.02,626.1394229236,3.28084,0.8052984,1.9681595118,0,0,0,209.7, -6.5, -0.5,0,0,1024,1024,1024,1684,0,0,0,100,219,-0.5,0,94,4.004,3.988,0,0,0,0,3.108,76.64,626.1394229236,3.28084,6,P-GPS,
47500,2024-02-01 19:22:26,40.4290011518554,-86.9292638492968,3.28084,,,626.1394229236,4.265092,0,1.96502959044,2.3417323584,29,5,8.02,626.1394229236,3.28084,0.8052984,1.9681595118,0,0,0,215.8, -5.9, -0.2,0,0,1024,1024,1024,1684,0,0,0,100,224.9,-0.5,0,94,4.004,3.988,0,0,0,0,3.108,76.64,626.1394229236,3.28084,6,P-GPS,
47600,2024-02-01 19:22:26,40.4290011171886,-86.929263828025,3.28084,,,626.1394229236,4.265092,0,1.95798234612,2.3556923326,29,5,8.02,626.1394229236,3.28084,0.8052984,1.9681595118,0,0,0,221.9, -5.7, -0.8,0,0,1024,1024,1024,1684,0,0,0,100,231,-0.5,0,94,4.004,3.988,0,0,0,0,3.108,76.64,626.1394229236,3.28084,6,P-GPS,
47700,2024-02-01 19:22:27,40.4290011100068,-86.92926381503,3.28084,,,626.1394229236,4.265092,0,1.95789704428,2.360154275,29,5,8.02,626.1394229236,3.28084,0.8052984,1.9681595118,0,0,0,227.9, -6.1, -1.6,0,0,1024,1024,1024,1684,0,0,0,100,236.9,-0.5,0,94,4.004,3.988,0,0,0,0,3.108,76.64,626.1394229236,3.28084,6,P-GPS,
47800,2024-02-01 19:22:27,40.4290011239801,-86.9292638117135,3.28084,,,626.1394229236,4.265092,0,1.96260504968,2.36533472136,29,5,8.02,626.1394229236,3.28084,0.8052984,1.9681595118,0,0,0,234, -6.1, -2.5,0,0,1024,1024,1024,1684,0,0,0,100,243,-0.5,0,94,4.004,3.988,0,0,0,0,3.108,76.64,626.1394229236,3.28084,6,P-GPS,
47900,2024-02-01 19:22:27,40.429001109092,-86.9292637582521,3.28084,,,626.1394229236,4.265092,0,1.966699538,2.38114508932,29,5,8.02,626.1394229236,3.28084,0.8052984,1.9681595118,0,0,0,240, -5.7, -3.2,0,0,1024,1024,1024,1684,0,0,0,100,248.9,-0.5,0,94,4.004,3.988,0,0,0,0,3.108,76.64,626.1394229236,3.28084,6,P-GPS,
48000,2024-02-01 19:22:27,40.4290010814932,-86.9292637548807,3.28084,,,626.1394229236,4.265092,0,1.9590387766,2.3912566382,29,5,8.02,626.1394229236,3.28084,0.8052984,1.9681595118,0,0,0,246, -5.3, -3.3,0,0,1024,1024,1024,1684,0,0,0,100,255,-0.5,0,94,4.004,3.988,0,0,0,0,3.108,76.64,626.1394229236,3.28084,6,P-GPS,
48100,2024-02-01 19:22:27,40.4290010494645,-86.9292637669178,3.28084,,,626.1394229236,4.265092,0,1.947588645,2.4034121504,29,5,8.02,626.1394229236,3.28084,0.8052984,1.9681595118,0,0,0,252, -4.7, -3.4,0,0,1024,1024,1024,1684,0,0,0,100,260.9,-0.5,0,94,4.004,3.988,0,0,0,0,3.108,76.64,626.1394229236,3.28084,6,P-GPS,
48200,2024-02-01 19:22:27,40.4290010165182,-86.9292637958712,3.28084,,,626.1394229236,4.265092,0,1.93313326396,2.41787409312,29,5,8.02,626.1394229236,3.28084,0.8052984,1.9681595118,0,0,0,258, -4.5, -3.8,0,0,1024,1024,1024,1684,0,0,0,100,267,-0.5,0,94,4.004,3.988,0,0,0,0,3.108,76.64,626.1394229236,3.28084,6,P-GPS,
48300,2024-02-01 19:22:27,40.4290010261953,-86.9292638275713,3.28084,,,626.1394229236,4.265092,0,1.93089245024,2.42735900156,29,5,8.003,626.1394229236,3.28084,0.8052984,1.9681595118,0,0,0,264, -3.6, -4.2,0,0,1024,1024,1024,1684,0,0,0,100,272.9,-0.5,0,94,4.004,3.988,0,0,0,0,3.748,76.82,626.1394229236,3.28084,6,P-GPS,
48400,2024-02-01 19:22:27,40.4290010524995,-86.9292638234769,3.28084,,,626.1394229236,4.265092,0,1.93937998332,2.43702107536,29,5,8.003,626.1394229236,3.28084,0.8052984,1.9681595118,0,0,0,270, -3.1, -3.7,0,0,1024,1024,1024,1684,0,0,0,100,279,-0.5,0,94,4.004,3.988,0,0,0,0,3.748,76.82,626.1394229236,3.28084,6,P-GPS,
48500,2024-02-01 19:22:27,40.4290010618126,-86.9292638405059,3.28084,,,626.1394229236,4.265092,0,1.9394357576,2.44284456636,29,5,8.003,626.1394229236,3.28084,0.8052984,1.9681595118,0,0,0,276, -2.3, -4.2,0,0,1024,1024,1024,1684,0,0,0,100,284.9,-0.5,0,94,4.004,3.988,0,0,0,0,3.748,76.82,626.1394229236,3.28084,6,P-GPS,
48600,2024-02-01 19:22:27,40.4290010613379,-86.9292638752193,3.28084,,,626.1394229236,4.265092,0,1.93376974692,2.45248695512,29,5,8.003,626.1394229236,3.28084,0.8052984,1.9681595118,0,0,0,281.9, -1.3, -5.3,0,0,1024,1024,1024,1684,0,0,0,100,291,-0.5,0,94,4.004,3.988,0,0,0,0,3.748,76.82,626.1394229236,3.28084,6,P-GPS,
48700,2024-02-01 19:22:28,40.4290011892343,-86.9292639427365,3.608924,,,626.4675069236,4.265092,0,1.96180124388,2.50277895148,29,5,8.003,626.4675069236,3.608924,0.8052984,1.9681595118,0,0,0,287.8, -0.8, -6.5,0,0,1024,1024,1024,1684,0,0,0,100,296.9,-0.5,0,94,4.004,3.988,0,0,0,0,3.748,76.82,626.4675069236,3.608924,6,P-GPS,
48800,2024-02-01 19:22:28,40.4290012389226,-86.9292640085002,3.608924,,,626.4675069236,4.265092,0,1.96694888184,2.5285105796,29,5,8.003,626.4675069236,3.608924,0.8052984,1.9681595118,0,0,0,293.8, 0, -6.8,0,0,1024,1024,1024,1684,0,0,0,100,302.9,-0.5,0,94,4.004,3.988,0,0,0,0,3.748,76.82,626.4675069236,3.608924,6,P-GPS,
48900,2024-02-01 19:22:28,40.4290012538566,-86.9292640341048,3.608924,,,626.4675069236,4.265092,0,1.96768379,2.53747055364,29,5,8.003,626.4675069236,3.608924,0.8052984,1.9681595118,0,0,0,299.9, 0, -6.8,0,0,1024,1024,1024,1684,0,0,0,100,308.9,-0.5,0,94,4.004,3.988,0,0,0,0,3.748,76.82,626.4675069236,3.608924,6,P-GPS,
49000,2024-02-01 19:22:28,40.429001245368,-86.9292640399998,3.608924,,,626.4675069236,4.265092,0,1.96419297624,2.54097449076,29,5,8.003,626.4675069236,3.608924,0.8052984,1.9681595118,0,0,0,305.8, 0, -7.1,0,0,1024,1024,1024,1030,0,0,0,1,315,-0.5,0,94,4.004,3.988,0,0,0,0,3.748,76.82,626.4675069236,3.608924,6,P-GPS,
49100,2024-02-01 19:22:28,40.4290011918125,-86.9292641522509,3.937008,,,626.7955909236,4.265092,0,1.93099087544,2.57776583052,29,5,8.003,626.7955909236,3.937008,0.8052984,1.9681595118,0,0,0,311.7, 1.2, -6.2,0,0,1284,1024,1024,1024,39,0,0,0,320.7,-0.5,0,94,4.004,3.988,0,0,0,0,3.748,76.82,626.7955909236,3.937008,6,P-GPS,
49200,2024-02-01 19:22:28,40.42900119414,-86.929264291329,3.937008,,,626.7955909236,4.265092,0,1.91143706904,2.61640100236,29,5,8.003,626.7955909236,3.937008,0.8052984,1.9681595118,0,0,0,316.6, 2.9, -5.1,0,0,1611,1024,1024,1024,89,0,0,0,323.1,-0.5,0,94,4.004,3.988,0,0,0,0,3.748,76.82,626.7955909236,3.937008,6,P-GPS,
49300,2024-02-01 19:22:28,40.429001201724,-86.9292643997382,4.265092,,,627.1236749236,4.265092,0,1.89841541508,2.6466372238,29,5,8.003,627.1236749236,4.265092,0.8052984,1.9681595118,0,0,0,318.9, 0.2, -3.6,0,0,1643,1024,1024,1024,94,0,0,0,323.3,-0.5,0,94,4.004,3.988,0,0,0,0,3.748,76.82,627.1236749236,4.265092,6,P-GPS,
49400,2024-02-01 19:22:28,40.4290012561035,-86.9292645013639,4.265092,,,627.1236749236,4.265092,0,1.90158798736,2.6811352564,29,5,8.003,627.1236749236,4.265092,0.8052984,1.9681595118,0.223694,-0.223694,0,319.6, -9.6, -4.3,0,0,1594,1024,1024,1024,86,0,0,0,323.3,-0.5,0,94,4.004,3.988,0,0,0,0,3.748,76.82,627.1236749236,4.265092,6,P-GPS,
49500,2024-02-01 19:22:28,40.4290014329822,-86.9292647382083,4.265092,,,627.1236749236,4.265092,0.9395148,1.9277067546,2.77328420948,29,5,8.003,627.1236749236,4.265092,0.9395148,1.9681595118,0.671082,-0.671082,0,320, -17.5, -5.2,0,0,1594,1024,1024,1024,86,0,0,0,323.3,-0.5,0,94,4.004,3.988,0,0,0,0,3.748,76.82,627.1236749236,4.265092,6,P-GPS,
49600,2024-02-01 19:22:28,40.429001754867,-86.9292652159008,4.593176,,,627.4517589236,4.265092,1.7448132,1.9805282786,2.95046597368,29,5,8.003,627.4517589236,4.593176,1.7448132,1.9805282786,1.342164,-1.11847,0,319.9, -16.3, -5.1,0,0,1594,1024,1024,1024,86,0,0,0,323.3,-0.5,0,94,4.004,3.988,0,0,0,0,3.748,76.82,627.4517589236,4.593176,6,P-GPS,
49700,2024-02-01 19:22:29,40.4290024123366,-86.9292659570692,4.593176,,,627.4517589236,4.265092,2.3711564,2.1456037432,3.26655522264,29,5,8.003,627.4517589236,4.593176,2.3711564,2.1456037432,1.789552,-1.565858,0,319.8, -13.8, -5.1,0,0,1593,1024,1024,1024,86,0,0,0,323.3,-0.5,0,94,4.004,3.988,0,0,0,0,3.748,76.82,627.4517589236,4.593176,6,P-GPS,
49800,2024-02-01 19:22:29,40.4290033456056,-86.9292669537105,4.593176,,,627.4517589236,4.265092,2.8632832,2.43332356868,3.705380696,29,5,8.003,627.4517589236,4.593176,2.8632832,2.43332356868,2.23694,-1.789552,0,319.7, -13, -5.5,0,0,1583,1024,1024,1024,85,0,0,0,323.3,-0.5,0,94,4.004,3.988,0,0,0,0,3.748,76.82,627.4517589236,4.593176,6,P-GPS,
49900,2024-02-01 19:22:29,40.4290043745562,-86.9292680509548,4.593176,,,627.4517589236,4.265092,3.4896264,2.79641085064,4.1888780868,29,5,7.975,627.4517589236,4.593176,3.4896264,2.79641085064,2.684328,-2.23694,0,319.8, -13, -6.1,0,0,1573,1024,1024,1024,83,0,0,0,323.3,-0.5,0,94,3.997,3.98,0,0,0,0,4.001,76.82,627.4517589236,4.593176,6,P-GPS,
50000,2024-02-01 19:22:29,40.4290056765937,-86.9292693276487,4.593176,,,627.4517589236,4.265092,3.9817532,3.2964567984,4.7816930664,29,5,7.975,627.4517589236,4.593176,3.9817532,3.2964567984,3.131716,-2.460634,0,319.7, -13.2, -5.8,0,0,1556,1024,1024,1024,81,0,0,0,323.3,-0.5,0,94,3.997,3.98,0,0,0,0,4.001,76.82,627.4517589236,4.593176,6,P-GPS,
50100,2024-02-01 19:22:29,40.4290069667684,-86.929270787601,4.593176,,,627.4517589236,4.265092,4.4291412,3.8293308312,5.4029529288,29,5,7.975,627.4517589236,4.593176,4.4291412,3.8293308312,3.35541,-2.908022,0,319.8, -12.7, -5.4,0,0,1543,1024,1024,1024,79,0,0,0,323.3,-0.5,0,94,3.997,3.98,0,0,0,0,4.001,76.82,627.4517589236,4.593176,6,P-GPS,
50200,2024-02-01 19:22:29,40.4290084663952,-86.9292725313986,4.593176,,,627.4517589236,4.265092,4.921268,4.4812337392,6.1336288052,29,5,7.975,627.4517589236,4.593176,4.921268,4.4812337392,3.802798,-3.131716,0,319.6, -11.3, -5.4,0,0,1541,1024,1024,1024,78,0,0,0,323.3,-0.5,0,94,3.997,3.98,0,0,0,0,4.001,76.82,627.4517589236,4.593176,6,P-GPS,
50300,2024-02-01 19:22:29,40.4290099577461,-86.9292743332747,4.593176,,,627.4517589236,4.265092,5.2344396,5.1570867792,6.8729004824,29,5,7.975,627.4517589236,4.593176,5.2344396,5.1570867792,4.026492,-3.35541,0,319.6, -11.3, -5.4,0,0,1541,1024,1024,1024,78,0,0,0,323.3,-0.5,0,94,3.997,3.98,0,0,0,0,4.001,76.82,627.4517589236,4.593176,6,P-GPS,
50400,2024-02-01 19:22:29,40.4290115047919,-86.9292765671022,4.593176,,,627.4517589236,4.265092,5.5476112,5.915026436,7.71161442,29,5,7.975,627.4517589236,4.593176,5.5476112,5.915026436,4.250186,-3.579104,0,319.8, -12.3, -4.5,0,0,1540,1024,1024,1024,78,0,0,0,323.3,-0.5,0,94,3.997,3.98,0,0,0,0,4.001,76.82,627.4517589236,4.593176,6,P-GPS,
50500,2024-02-01 19:22:29,40.4290132053646,-86.9292786129543,4.593176,,,627.4517589236,4.265092,5.8607828,6.7188650444,8.5529530296,29,5,7.975,627.4517589236,4.593176,5.8607828,6.7188650444,4.250186,-4.026492,0,318, -12.4, -4,0,0,1540,1024,1024,1024,78,0,0,0,323.3,-0.5,0,94,3.997,3.98,0,0,0,0,4.001,76.82,627.4517589236,4.593176,6,P-GPS,
50600,2024-02-01 19:22:29,40.4290151685417,-86.929280881363,4.593176,,,627.4517589236,4.265092,6.3305402,7.644521242,9.5068572596,29,5,7.975,627.4517589236,4.593176,6.3305402,7.644521242,4.697574,-4.250186,0,318, -11.8, -5,0,0,1538,1024,1024,1024,78,0,0,0,323.3,-0.5,0,94,3.997,3.98,0,0,0,0,4.001,76.82,627.4517589236,4.593176,6,P-GPS,
50700,2024-02-01 19:22:30,40.4290171233227,-86.9292831614422,4.265092,,,627.1236749236,4.265092,6.6437118,8.5753283584,10.4605974476,29,5,7.975,627.4517589236,4.593176,6.6437118,8.5753283584,4.921268,-4.47388,0,317.9, -11.7, -5.6,0,0,1536,1024,1024,1024,78,0,0,0,323.3,-0.5,0,94,3.997,3.98,0,0,0,0,4.001,76.82,627.1236749236,4.265092,6,P-GPS,
50800,2024-02-01 19:22:30,40.4290192206103,-86.9292858510812,4.265092,,,627.1236749236,4.265092,6.8002976,9.6139766856,11.5299544372,29,5,7.975,627.4517589236,4.593176,6.8002976,9.6139766856,4.921268,-4.697574,0,318, -12.2, -5.6,0,0,1536,1024,1024,1024,78,0,0,0,323.3,-0.5,0,94,3.997,3.98,0,0,0,0,4.001,76.82,627.1236749236,4.265092,6,P-GPS,
50900,2024-02-01 19:22:30,40.4290212779645,-86.929288431901,4.265092,,,627.1236749236,4.265092,7.1134692,10.6301512588,12.5678153628,29,5,7.975,627.4517589236,4.593176,7.1134692,10.6301512588,5.144962,-4.921268,0,317.9, -11.9, -4.5,0,0,1522,1024,1024,1024,75,0,0,0,323.3,-0.5,0,94,3.997,3.98,0,0,0,0,4.001,76.82,627.1236749236,4.265092,6,P-GPS,
51000,2024-02-01 19:22:30,40.4290235012213,-86.9292912963761,4.265092,,,627.1236749236,4.265092,7.1134692,11.7441604808,13.7039702548,29,5,7.975,627.4517589236,4.593176,7.1134692,11.7441604808,5.368656,-5.144962,0,317.8, -11.7, -3.8,0,0,1521,1024,1024,1024,75,0,0,0,323.3,-0.5,0,94,3.997,3.98,0,0,0,0,4.001,76.82,627.1236749236,4.265092,6,P-GPS,
51100,2024-02-01 19:22:30,40.4290256910404,-86.9292941344434,4.265092,,,627.1236749236,4.593176,7.7621818,12.8478350568,14.8263128104,29,5,7.975,627.4517589236,4.593176,7.7621818,12.8478350568,5.59235,-5.368656,0,317.7, -12.1, -3.4,0,0,1520,1024,1024,1024,75,0,0,0,323.3,-0.5,0,94,3.997,3.98,0,0,0,0,4.001,76.82,627.1236749236,4.265092,6,P-GPS,
51200,2024-02-01 19:22:30,40.4290280741119,-86.9292972249386,4.265092,,,627.1236749236,4.593176,8.0753534,14.0525595048,16.0480320096,29,5,7.975,627.4517589236,4.593176,8.0753534,14.0525595048,5.816044,-5.59235,0,317.7, -12.2, -2.9,0,0,1521,1024,1024,1024,75,0,0,0,323.3,-0.5,0,94,3.997,3.98,0,0,0,0,4.001,76.82,627.1236749236,4.265092,6,P-GPS,
51300,2024-02-01 19:22:30,40.4290305193247,-86.9293003516693,4.265092,,,627.1236749236,4.593176,8.388525,15.2842524576,17.2930451728,29,5,7.975,627.4517589236,4.593176,8.388525,15.2842524576,6.039738,-5.816044,0,317.8, -12.3, -2.2,0,0,1501,1024,1024,1024,72,0,0,0,323.3,-0.5,0,94,3.997,3.98,0,0,0,0,4.001,76.82,627.1236749236,4.265092,6,P-GPS,
51400,2024-02-01 19:22:30,40.4290331323015,-86.9293035523905,4.265092,,,627.1236749236,4.593176,8.5451108,16.5792656224,18.5965229048,29,5,7.975,627.4517589236,4.593176,8.5451108,16.5792656224,6.039738,-6.039738,0,317.7, -12.3, -2.8,0,0,1501,1024,1024,1024,72,0,0,0,323.3,-0.5,0,94,3.997,3.98,0,0,0,0,4.001,76.82,627.1236749236,4.265092,6,P-GPS,
51500,2024-02-01 19:22:30,40.429035649617,-86.9293067177371,4.265092,,,627.1236749236,4.593176,8.7016966,17.8417984712,19.8678812132,29,5,7.978,627.4517589236,4.593176,8.7016966,17.8417984712,6.263432,-6.039738,0,317.8, -12.3, -2.8,0,0,1507,1024,1024,1024,73,0,0,0,323.3,-0.5,0,94,4,3.984,0,0,0,0,4.131,76.82,627.1236749236,4.265092,6,P-GPS,
51600,2024-02-01 19:22:30,40.4290383263458,-86.9293101743327,4.265092,,,627.1236749236,4.265092,9.0148682,19.200952058,21.2373038292,29,5,7.978,627.4517589236,4.593176,9.0148682,19.200952058,6.487126,-6.263432,0,317.7, -11, -2.6,0,0,1455,1024,1024,1024,65,0,0,0,323.3,-0.5,0,94,4,3.984,0,0,0,0,4.131,76.82,627.1236749236,4.265092,6,P-GPS,
51700,2024-02-01 19:22:31,40.429041032012,-86.9293135406082,4.265092,,,627.1236749236,4.593176,9.3280398,20.554298558,22.5969167336,29,5,7.978,627.4517589236,4.593176,9.3280398,20.554298558,6.71082,-6.487126,0,317.6, -10.4, -1.9,0,0,1024,1024,1024,1024,0,0,0,0,323.3,-0.5,0,94,4,3.984,0,0,0,0,4.131,76.82,627.1236749236,4.265092,6,P-GPS,
51800,2024-02-01 19:22:31,40.4290439298151,-86.929317053801,4.265092,,,627.1236749236,4.593176,9.4846256,21.988681806,24.035597882,29,5,7.978,627.4517589236,4.593176,9.4846256,21.988681806,6.934514,-6.487126,0,317.6, -6.9, -2,0,0,1024,1024,1024,1024,0,0,0,0,323.3,-0.5,0,94,4,3.984,0,0,0,0,4.131,76.82,627.1236749236,4.265092,6,P-GPS,
51900,2024-02-01 19:22:31,40.4290466990264,-86.9293204190692,4.265092,,,627.1236749236,4.265092,9.3280398,23.3612868368,25.4119430704,29,5,7.978,627.4517589236,4.593176,9.4846256,23.3612868368,6.71082,-6.487126,0,317.5, 7, -2,0,0,1024,1024,1024,1024,0,0,0,0,323.3,-0.5,0,94,4,3.984,0,0,0,0,4.131,76.82,627.1236749236,4.265092,6,P-GPS,
52000,2024-02-01 19:22:31,40.4290494972046,-86.9293238370293,3.937008,,,626.7955909236,4.265092,8.5451108,24.7517068288,26.8059719864,29,5,7.978,627.4517589236,4.593176,9.4846256,24.7517068288,6.263432,-5.816044,0,317.3, 22.6, -0.7,0,0,1024,1024,1024,1024,0,0,0,0,323.3,-0.5,0,94,4,3.984,0,0,0,0,4.131,76.82,626.7955909236,3.937008,6,P-GPS,
52100,2024-02-01 19:22:31,40.4290520062329,-86.9293265838985,3.937008,,,626.7955909236,4.593176,7.605596,25.9432094916,27.9976058828,29,5,7.978,627.4517589236,4.593176,9.4846256,25.9432094916,5.59235,-5.144962,0,317.3, 25.6, -0.5,0,0,1024,1024,1024,1024,0,0,0,0,323.3,-0.5,0,94,4,3.984,0,0,0,0,4.131,76.82,626.7955909236,3.937008,6,P-GPS,
52200,2024-02-01 19:22:31,40.4290542220273,-86.9293291439544,3.937008,,,626.7955909236,4.593176,6.3305402,27.0189313108,29.0742135288,29,5,7.978,627.4517589236,4.593176,9.4846256,27.0189313108,4.697574,-4.250186,0,317.3, 24.3, 0.2,0,0,1024,1024,1024,1024,0,0,0,0,323.3,-0.5,0,94,4,3.984,0,0,0,0,4.131,76.82,626.7955909236,3.937008,6,P-GPS,
52300,2024-02-01 19:22:31,40.4290560481514,-86.9293311661967,4.265092,,,627.1236749236,4.593176,5.2344396,27.8901583728,29.9456046328,29,5,7.978,627.4517589236,4.593176,9.4846256,27.8901583728,4.026492,-3.35541,0,317.3, 23.6, 0.2,0,0,1024,1024,1024,1024,0,0,0,0,323.3,-0.5,0,94,4,3.984,0,0,0,0,4.131,76.82,627.1236749236,4.265092,6,P-GPS,
52400,2024-02-01 19:22:31,40.4290576799533,-86.9293328672961,4.265092,,,627.1236749236,4.593176,4.1607084,28.6501649588,30.7056440272,29,5,7.978,627.4517589236,4.593176,9.4846256,28.6501649588,3.35541,-2.460634,0,317.1, 22.8, -1.3,0,0,1024,1024,1024,1024,0,0,0,0,323.3,-0.5,0,94,4,3.984,0,0,0,0,4.131,76.82,627.1236749236,4.265092,6,P-GPS,
52500,2024-02-01 19:22:31,40.4290591040503,-86.9293340062729,4.265092,,,627.1236749236,4.593176,3.0422384,29.2530521172,31.3139445716,29,5,7.978,627.4517589236,4.593176,9.4846256,29.2530521172,2.460634,-1.789552,0,317, 22.7, -2.7,0,0,1024,1024,1024,1024,0,0,0,0,323.3,-0.5,0,94,4,3.984,0,0,0,0,4.131,76.82,627.1236749236,4.265092,6,P-GPS,
52600,2024-02-01 19:22:32,40.4290601781329,-86.9293349125137,4.265092,,,627.1236749236,4.593176,2.1027236,29.7161098748,31.779692618,29,5,7.978,627.4517589236,4.593176,9.4846256,29.7161098748,1.789552,-1.11847,0,317, 19.6, -3.4,0,0,1024,1024,1024,1024,0,0,0,0,323.3,-0.5,0,94,4,3.984,0,0,0,0,4.131,76.82,627.1236749236,4.265092,6,P-GPS,
52700,2024-02-01 19:22:32,40.4290608888771,-86.9293354653741,4.265092,,,627.1236749236,4.593176,1.4987498,30.014436656,32.081037772,29,5,7.978,627.4517589236,4.593176,9.4846256,30.014436656,1.342164,-0.671082,0,317.2, 13.7, -3.1,0,0,1024,1024,1024,1024,0,0,0,0,323.3,-0.5,0,94,4,3.984,0,0,0,0,4.131,76.82,627.1236749236,4.265092,6,P-GPS,
52800,2024-02-01 19:22:32,40.4290613859726,-86.9293358197787,4.265092,,,627.1236749236,4.593176,1.4987498,30.217520652,32.287402608,29,5,7.978,627.4517589236,4.593176,9.4846256,30.217520652,0.894776,-0.671082,0,317.3, 9.6, -2.3,0,0,1024,1024,1024,1024,0,0,0,0,323.3,-0.5,0,94,4,3.984,0,0,0,0,4.131,76.82,627.1236749236,4.265092,6,P-GPS,
52900,2024-02-01 19:22:32,40.42906173842,-86.9293360641627,4.265092,,,627.1236749236,4.593176,0.8052984,30.3603356172,32.4328094368,29,5,7.978,627.4517589236,4.593176,9.4846256,30.3603356172,0.671082,-0.447388,0,317.4, 7.5, -1.9,0,0,1024,1024,1024,1024,0,0,0,0,323.3,-0.5,0,94,4,3.984,0,0,0,0,4.131,76.82,627.1236749236,4.265092,6,P-GPS,
53000,2024-02-01 19:22:32,40.4290618981801,-86.9293360789732,4.265092,,,627.1236749236,4.593176,0.4921268,30.40846554,32.4912411972,29,5,7.978,627.4517589236,4.593176,9.4846256,30.40846554,0.447388,-0.223694,0,317.3, 6.5, -1.7,0,0,1024,1024,1024,1024,0,0,0,0,323.3,-0.5,0,94,4,3.984,0,0,0,0,4.131,76.82,627.1236749236,4.265092,6,P-GPS,
53100,2024-02-01 19:22:32,40.4290621092981,-86.9293361907326,4.265092,,,627.1236749236,4.593176,0.223694,30.4880587184,32.5742792576,29,5,7.978,627.4517589236,4.593176,9.4846256,30.4880587184,0.223694,0,0,317.3, 5.2, -1.7,0,0,1024,1024,1024,1024,0,0,0,0,323.3,-0.5,0,94,4,3.984,0,0,0,0,4.131,76.82,627.1236749236,4.265092,6,P-GPS,
53200,2024-02-01 19:22:32,40.4290622793696,-86.9293362430475,4.265092,,,627.1236749236,4.593176,0.223694,30.5457030772,32.6379931704,29,5,7.974,627.4517589236,4.593176,9.4846256,30.5457030772,0.223694,0,0,317.2, 4, -2,0,0,1024,1024,1024,1024,0,0,0,0,323.3,-0.5,0,94,3.987,3.97,0,0,0,0,3.838,76.82,627.1236749236,4.265092,6,P-GPS,
53300,2024-02-01 19:22:32,40.4290623674163,-86.9293362792859,4.593176,,,627.4517589236,4.593176,0,30.577100716,32.6716545888,29,5,7.974,627.4517589236,4.593176,9.4846256,30.577100716,0,0,0,317.2, 2.6, -2.1,0,0,1024,1024,1024,1024,0,0,0,0,323.3,-0.5,0,94,3.987,3.97,0,0,0,0,3.838,76.82,627.4517589236,4.593176,6,P-GPS,
53400,2024-02-01 19:22:32,40.4290623047831,-86.9293364048485,4.593176,,,627.4517589236,4.593176,0,30.5809064904,32.7133540652,29,5,7.974,627.4517589236,4.593176,9.4846256,30.5809064904,0,0,0,317.3, 2.4, -0.6,0,0,1024,1024,1024,1024,0,0,0,0,323.3,-0.5,0,94,3.987,3.97,0,0,0,0,3.838,76.82,627.4517589236,4.593176,6,P-GPS,
53500,2024-02-01 19:22:32,40.4290623233832,-86.9293363772758,4.593176,,,627.4517589236,4.593176,0,30.5814642332,32.723590286,29,5,7.974,627.4517589236,4.593176,9.4846256,30.5814642332,0,0,0,317.5, 1.9, -0.7,0,0,1024,1024,1024,1024,0,0,0,0,323.3,-0.5,0,94,3.987,3.97,0,0,0,0,3.838,76.82,627.4517589236,4.593176,6,P-GPS,
53600,2024-02-01 19:22:32,40.4290623426314,-86.9293362787232,4.593176,,,627.4517589236,4.593176,0,30.5699156764,32.7518383184,29,5,7.974,627.4517589236,4.593176,9.4846256,30.5814642332,0,0,0,317.5, 1.4, -3.1,0,0,1024,1024,1024,1024,0,0,0,0,323.3,-0.5,0,94,3.987,3.97,0,0,0,0,3.838,76.82,627.4517589236,4.593176,6,P-GPS,
53700,2024-02-01 19:22:33,40.4290623629869,-86.9293361613479,4.593176,,,627.4517589236,4.593176,0,30.5555127888,32.785270078,29,5,7.974,627.4517589236,4.593176,9.4846256,30.5814642332,0,0,0,317.5, 0.1, -3.8,0,0,1024,1024,1024,1024,0,0,0,0,323.3,-0.5,0,94,3.987,3.97,0,0,0,0,3.838,76.82,627.4517589236,4.593176,6,P-GPS,
53800,2024-02-01 19:22:33,40.4290624580913,-86.9293360103566,4.593176,,,627.4517589236,4.593176,0,30.5567266996,32.83956798,29,5,7.974,627.4517589236,4.593176,9.4846256,30.5814642332,0,0,0,317.5, -0.2, -2.9,0,0,1024,1024,1024,1024,0,0,0,0,323.3,-0.5,0,94,3.987,3.97,0,0,0,0,3.838,76.82,627.4517589236,4.593176,6,P-GPS,
53900,2024-02-01 19:22:33,40.429062480883,-86.9293359514579,4.593176,,,627.4517589236,4.593176,0,30.5531177756,32.857940684,29,5,7.974,627.4517589236,4.593176,9.4846256,30.5814642332,0,0,0,317.4, 0.1, -1.7,0,0,1024,1024,1024,1024,0,0,0,0,323.3,-0.5,0,94,3.987,3.97,0,0,0,0,3.838,76.82,627.4517589236,4.593176,6,P-GPS,
54000,2024-02-01 19:22:33,40.4290625056191,-86.9293359115732,4.593176,,,627.4517589236,4.593176,0,30.5533474344,32.87237638,29,5,7.974,627.4517589236,4.593176,9.4846256,30.5814642332,0,0,0,317.5, 0.7, -2,0,0,1024,1024,1024,1024,0,0,0,0,323.3,-0.5,0,94,3.987,3.97,0,0,0,0,3.838,76.82,627.4517589236,4.593176,6,P-GPS,
54100,2024-02-01 19:22:33,40.4290625191775,-86.9293358604568,4.593176,,,627.4517589236,4.593176,0,30.5484589828,32.887468244,29,5,7.974,627.4517589236,4.593176,9.4846256,30.5814642332,0,0,0,317.5, 0.5, -2.4,0,0,1024,1024,1024,1024,0,0,0,0,323.3,-0.5,0,94,3.987,3.97,0,0,0,0,3.838,76.82,627.4517589236,4.593176,6,P-GPS,
54200,2024-02-01 19:22:33,40.4290626100642,-86.9293357986209,4.593176,,,627.4517589236,4.593176,0,30.5639117392,32.92486982,29,5,7.974,627.4517589236,4.593176,9.4846256,30.5814642332,0,0,0,317.6, 0, -2.4,0,0,1024,1024,1024,1024,0,0,0,0,323.3,-0.5,0,94,3.987,3.97,0,0,0,0,3.838,76.82,627.4517589236,4.593176,6,P-GPS,
54300,2024-02-01 19:22:33,40.429062589878,-86.9293357253001,4.593176,,,627.4517589236,4.593176,0,30.5455390352,32.946523364,29,5,7.974,627.4517589236,4.593176,9.4846256,30.5814642332,0,0,0,317.6, -0.6, -2.3,0,0,1024,1024,1024,1024,0,0,0,0,323.3,-0.5,0,94,3.987,3.97,0,0,0,0,3.838,76.82,627.4517589236,4.593176,6,P-GPS,
54400,2024-02-01 19:22:33,40.4290625558696,-86.9293356490813,4.593176,,,627.4517589236,4.593176,0,30.5227371972,32.97080158,29,5,7.974,627.4517589236,4.593176,9.4846256,30.5814642332,0,0,0,317.6, -1.3, -2.1,0,0,1024,1024,1024,1024,0,0,0,0,323.3,-0.5,0,94,3.987,3.97,0,0,0,0,3.838,76.82,627.4517589236,4.593176,6,P-GPS,
54500,2024-02-01 19:22:33,40.429062555368,-86.9293355870315,4.593176,,,627.4517589236,4.593176,0,30.5119432336,32.988190032,29,5,7.974,627.4517589236,4.593176,9.4846256,30.5814642332,0,0,0,317.6, -1.5, -2.3,0,0,1024,1024,1024,1024,0,0,0,0,323.3,-0.5,0,94,3.987,3.97,0,0,0,0,3.838,76.82,627.4517589236,4.593176,6,P-GPS,
54600,2024-02-01 19:22:34,40.4290625905229,-86.9293355307045,4.593176,,,627.4517589236,4.593176,0,30.5124025512,33.00853124,29,5,7.974,627.4517589236,4.593176,9.4846256,30.5814642332,0,0,0,317.6, -1.3, -3,0,0,1024,1024,1024,1024,0,0,0,0,323.3,-0.5,0,94,3.987,3.97,0,0,0,0,3.838,76.82,627.4517589236,4.593176,6,P-GPS,
54700,2024-02-01 19:22:34,40.4290626345625,-86.9293354083155,4.265092,,,627.1236749236,4.593176,0,30.5041676428,33.045932816,29,5,7.974,627.4517589236,4.593176,9.4846256,30.5814642332,0,0,0,317.6, -2, -3.3,0,0,1024,1024,1024,1024,0,0,0,0,323.3,-0.5,0,94,3.987,3.97,0,0,0,0,3.838,76.82,627.1236749236,4.265092,6,P-GPS,
54800,2024-02-01 19:22:34,40.4290626083185,-86.9293353430696,4.265092,,,627.1236749236,4.593176,0,30.4854668548,33.066602108,29,5,7.974,627.4517589236,4.593176,9.4846256,30.5814642332,0,0,0,317.6, -1.9, -2.9,0,0,1024,1024,1024,1024,0,0,0,0,323.3,-0.5,0,94,3.987,3.97,0,0,0,0,3.838,76.82,627.1236749236,4.265092,6,P-GPS,
54900,2024-02-01 19:22:34,40.4290626093086,-86.9293353258789,4.265092,,,627.1236749236,4.593176,0,30.4828093744,33.071195284,29,5,7.961,627.4517589236,4.593176,9.4846256,30.5814642332,0,0,0,317.5, -1.5, -2.4,0,0,1024,1024,1024,1024,0,0,0,0,323.3,-0.5,0,94,3.992,3.976,0,0,0,0,4.176,77,627.1236749236,4.265092,6,P-GPS,
55000,2024-02-01 19:22:34,40.4290626402165,-86.9293353461532,4.265092,,,627.1236749236,4.593176,0,30.4951781412,33.08399056,29,5,7.961,627.4517589236,4.593176,9.4846256,30.5814642332,0,0,0,317.6, -1.2, -2.8,0,0,1024,1024,1024,1024,0,0,0,0,323.3,-0.5,0,94,3.992,3.976,0,0,0,0,4.176,77,627.1236749236,4.265092,6,P-GPS,
55100,2024-02-01 19:22:34,40.4290626268828,-86.9293353386748,4.265092,,,627.1236749236,4.593176,0,30.4900600308,33.089239904,29,5,7.961,627.4517589236,4.593176,9.4846256,30.5814642332,0,0,0,317.5, -1.3, -2.8,0,0,1024,1024,1024,1024,0,0,0,0,323.3,-0.5,0,94,3.992,3.976,0,0,0,0,4.176,77,627.1236749236,4.265092,6,P-GPS,
55200,2024-02-01 19:22:34,40.429062669522,-86.9293353341394,4.265092,,,627.1236749236,4.593176,0,30.5015429708,33.104659852,29,5,7.961,627.4517589236,4.593176,9.4846256,30.5814642332,0,0,0,317.5, -0.7, -2.7,0,0,1024,1024,1024,1024,0,0,0,0,323.3,-0.5,0,94,3.992,3.976,0,0,0,0,4.176,77,627.1236749236,4.265092,6,P-GPS,
55300,2024-02-01 19:22:34,40.4290626781397,-86.9293353456637,4.265092,,,627.1236749236,4.593176,0,30.5060049132,33.109253028,29,5,7.961,627.4517589236,4.593176,9.4846256,30.5814642332,0,0,0,317.5, -0.7, -2.9,0,0,1024,1024,1024,1024,0,0,0,0,323.3,-0.5,0,94,3.992,3.976,0,0,0,0,4.176,77,627.1236749236,4.265092,6,P-GPS,
55400,2024-02-01 19:22:34,40.4290626535111,-86.9293353777211,4.265092,,,627.1236749236,4.593176,0,30.5043973016,33.122048304,29,5,7.961,627.4517589236,4.593176,9.4846256,30.5814642332,0,0,0,317.5, -0.5, -2.8,0,0,1024,1024,1024,1024,0,0,0,0,323.3,-0.5,0,94,3.992,3.976,0,0,0,0,4.176,77,627.1236749236,4.265092,6,P-GPS,
55500,2024-02-01 19:22:34,40.4290626302765,-86.9293354012085,4.265092,,,627.1236749236,4.593176,0,30.5017070128,33.132546992,29,5,7.961,627.4517589236,4.593176,9.4846256,30.5814642332,0,0,0,317.5, -0.1, -1.5,0,0,1024,1024,1024,1024,0,0,0,0,323.3,-0.5,0,94,3.992,3.976,0,0,0,0,4.176,77,627.1236749236,4.265092,6,P-GPS,
55600,2024-02-01 19:22:34,40.4290626637638,-86.9293354649014,4.265092,,,627.1236749236,4.593176,0,30.5222122628,33.154200536,29,5,7.961,627.4517589236,4.593176,9.4846256,30.5814642332,0,0,0,317.5, 0, -1.6,0,0,1024,1024,1024,1024,0,0,0,0,323.3,-0.5,0,94,3.992,3.976,0,0,0,0,4.176,77,627.1236749236,4.265092,6,P-GPS,
55700,2024-02-01 19:22:35,40.4290626827384,-86.9293355093272,4.265092,,,627.1236749236,4.593176,0,30.535270006,33.168308148,29,5,7.961,627.4517589236,4.593176,9.4846256,30.5814642332,0,0,0,317.5, -0.2, -1.8,0,0,1024,1024,1024,1024,0,0,0,0,323.3,-0.5,0,94,3.992,3.976,0,0,0,0,4.176,77,627.1236749236,4.265092,6,P-GPS,
55800,2024-02-01 19:22:35,40.4290626865294,-86.929335548351,4.265092,,,627.1236749236,4.593176,0,30.5430455968,33.17913492,29,5,7.961,627.4517589236,4.593176,9.4846256,30.5814642332,0,0,0,317.4, -0.7, -1.9,0,0,1024,1024,1024,1024,0,0,0,0,323.3,-0.5,0,94,3.992,3.976,0,0,0,0,4.176,77,627.1236749236,4.265092,6,P-GPS,
55900,2024-02-01 19:22:35,40.4290626305696,-86.9293356079305,4.265092,,,627.1236749236,4.593176,0,30.5371400848,33.20538164,29,5,7.961,627.4517589236,4.593176,9.4846256,30.5814642332,0,0,0,317.5, -0.2, -1.7,0,0,1024,1024,1024,1024,0,0,0,0,323.3,-0.5,0,94,3.992,3.976,0,0,0,0,4.176,77,627.1236749236,4.265092,6,P-GPS,
56000,2024-02-01 19:22:35,40.4290626230527,-86.929335673289,4.265092,,,627.1236749236,4.593176,0,30.5461623948,33.223754344,29,5,7.961,627.4517589236,4.593176,9.4846256,30.5814642332,0,0,0,317.5, 0.4, -1.3,0,0,1024,1024,1024,1024,0,0,0,0,323.3,-0.5,0,94,3.992,3.976,0,0,0,0,4.176,77,627.1236749236,4.265092,6,P-GPS,
56100,2024-02-01 19:22:35,40.4290626117578,-86.9293357201119,4.265092,,,627.1236749236,4.593176,0,30.5509524212,33.237533872,29,5,7.961,627.4517589236,4.593176,9.4846256,30.5814642332,0,0,0,317.5, -0.2, -1.3,0,0,1024,1024,1024,1024,0,0,0,0,323.3,-0.5,0,94,3.992,3.976,0,0,0,0,4.176,77,627.1236749236,4.265092,6,P-GPS,
56200,2024-02-01 19:22:35,40.429062599349,-86.9293357539475,4.265092,,,627.1236749236,4.593176,0,30.5531833924,33.24803256,29,5,7.961,627.4517589236,4.593176,9.4846256,30.5814642332,0,0,0,317.5, -0.2, -1.6,0,0,1024,1024,1024,1024,0,0,0,0,323.3,-0.5,0,94,3.992,3.976,0,0,0,0,4.176,77,627.1236749236,4.265092,6,P-GPS,
56300,2024-02-01 19:22:35,40.4290625852402,-86.9293357836079,4.265092,,,627.1236749236,4.593176,0,30.5542332612,33.257546996,29,5,7.961,627.4517589236,4.593176,9.4846256,30.5814642332,0,0,0,317.5, -0.5, -1.6,0,0,1024,1024,1024,1024,0,0,0,0,323.3,-0.5,0,94,3.992,3.976,0,0,0,0,4.176,77,627.1236749236,4.265092,6,P-GPS,
56400,2024-02-01 19:22:35,40.4290625516747,-86.929335825704,4.265092,,,627.1236749236,4.593176,0,30.5518054396,33.274607364,29,5,7.961,627.4517589236,4.593176,9.4846256,30.5814642332,0,0,0,317.5, -0.4, -1.4,0,0,1024,1024,1024,1024,0,0,0,0,323.3,-0.5,0,94,3.992,3.976,0,0,0,0,4.176,77,627.1236749236,4.265092,6,P-GPS,
56500,2024-02-01 19:22:35,40.4290625419822,-86.929335853665,4.265092,,,627.1236749236,4.593176,0,30.5538395604,33.283137548,29,5,7.961,627.4517589236,4.593176,9.4846256,30.5814642332,0,0,0,317.5, -0.3, -1.1,0,0,1024,1024,1024,1024,0,0,0,0,323.3,-0.5,0,94,3.992,3.976,0,0,0,0,4.176,77,627.1236749236,4.265092,6,P-GPS,
56600,2024-02-01 19:22:35,40.4290625356769,-86.9293358696121,4.265092,,,627.1236749236,4.593176,0,30.5547581956,33.288058808,29,5,7.969,627.4517589236,4.593176,9.4846256,30.5814642332,0,0,0,317.5, -0.6, -1.2,0,0,1024,1024,1024,1024,0,0,0,0,323.3,-0.5,0,94,3.993,3.977,0,0,0,0,3.981,77,627.1236749236,4.265092,6,P-GPS,
56700,2024-02-01 19:22:36,40.4290625379307,-86.9293358851485,4.265092,,,627.1236749236,4.593176,0,30.558071844,33.2923239,29,5,7.969,627.4517589236,4.593176,9.4846256,30.5814642332,0,0,0,317.5, -0.4, -1,0,0,1024,1024,1024,1024,0,0,0,0,323.3,-0.5,0,94,3.993,3.977,0,0,0,0,3.981,77,627.1236749236,4.265092,6,P-GPS,
56800,2024-02-01 19:22:36,40.4290625557589,-86.9293359131488,4.265092,,,627.1236749236,4.593176,0,30.5679799808,33.302494504,29,5,7.969,627.4517589236,4.593176,9.4846256,30.5814642332,0,0,0,317.5, -0.6, -1,0,0,1024,1024,1024,1024,0,0,0,0,323.3,-0.5,0,94,3.993,3.977,0,0,0,0,3.981,77,627.1236749236,4.265092,6,P-GPS,
56900,2024-02-01 19:22:36,40.4290625810779,-86.9293359271771,4.265092,,,627.1236749236,4.593176,0,30.5776584588,33.312665108,29,5,7.969,627.4517589236,4.593176,9.4846256,30.5814642332,0,0,0,317.5, -0.7, -1.6,0,0,1024,1024,1024,1024,0,0,0,0,323.3,-0.5,0,94,3.993,3.977,0,0,0,0,3.981,77,627.1236749236,4.265092,6,P-GPS,
57000,2024-02-01 19:22:36,40.4290626150147,-86.9293359454257,4.265092,,,627.1236749236,4.593176,0,30.5905193516,33.326116552,29,5,7.969,627.4517589236,4.593176,9.4846256,30.5905193516,0,0,0,317.5, -0.2, -2.1,0,0,1024,1024,1024,1024,0,0,0,0,323.3,-0.5,0,94,3.993,3.977,0,0,0,0,3.981,77,627.1236749236,4.265092,6,P-GPS,
57100,2024-02-01 19:22:36,40.4290626396107,-86.9293359453357,4.265092,,,627.1236749236,4.593176,0,30.5975731576,33.33497482,29,5,7.969,627.4517589236,4.593176,9.4846256,30.5975731576,0,0,0,317.4, -0.2, -2,0,0,1024,1024,1024,1024,0,0,0,0,323.3,-0.5,0,94,3.993,3.977,0,0,0,0,3.981,77,627.1236749236,4.265092,6,P-GPS,
57200,2024-02-01 19:22:36,40.4290626823411,-86.9293359207228,4.265092,,,627.1236749236,4.593176,0,30.6056112156,33.352035188,29,5,7.969,627.4517589236,4.593176,9.4846256,30.6056112156,0,0,0,317.4, -0.4, -1.6,0,0,1024,1024,1024,1024,0,0,0,0,323.3,-0.5,0,94,3.993,3.977,0,0,0,0,3.981,77,627.1236749236,4.265092,6,P-GPS,
57300,2024-02-01 19:22:36,40.4290626881514,-86.9293359356796,4.265092,,,627.1236749236,4.593176,0,30.6098434992,33.356628364,29,5,7.969,627.4517589236,4.593176,9.4846256,30.6098434992,0,0,0,317.5, -0.6, -1.2,0,0,1024,1024,1024,1024,0,0,0,0,323.3,-0.5,0,94,3.993,3.977,0,0,0,0,3.981,77,627.1236749236,4.265092,6,P-GPS,
57400,2024-02-01 19:22:36,40.4290626909979,-86.9293359775732,4.265092,,,627.1236749236,4.593176,0,30.6178487488,33.368439388,29,5,7.969,627.4517589236,4.593176,9.4846256,30.6178487488,0,0,0,317.5, -0.3, -1,0,0,1024,1024,1024,1024,0,0,0,0,323.3,-0.5,0,94,3.993,3.977,0,0,0,0,3.981,77,627.1236749236,4.265092,6,P-GPS,
57500,2024-02-01 19:22:36,40.4290626901315,-86.9293360043131,4.265092,,,627.1236749236,4.593176,0,30.6221794576,33.375657236,29,5,7.969,627.4517589236,4.593176,9.4846256,30.6221794576,0,0,0,317.5, -0.3, -1.3,0,0,1024,1024,1024,1024,0,0,0,0,323.3,-0.5,0,94,3.993,3.977,0,0,0,0,3.981,77,627.1236749236,4.265092,6,P-GPS,
57600,2024-02-01 19:22:36,40.4290626189295,-86.929336073543,4.265092,,,627.1236749236,4.593176,0,30.6136492736,33.408137552,29,5,7.969,627.4517589236,4.593176,9.4846256,30.6221794576,0,0,0,317.5, -0.5, -1.5,0,0,1024,1024,1024,1024,0,0,0,0,323.3,-0.5,0,94,3.993,3.977,0,0,0,0,3.981,77,627.1236749236,4.265092,6,P-GPS,
57700,2024-02-01 19:22:37,40.4290626165194,-86.9293360863278,4.265092,,,627.1236749236,4.593176,0,30.61515846,33.411746476,29,5,7.969,627.4517589236,4.593176,9.4846256,30.6221794576,0,0,0,317.4, -0.2, -1.2,0,0,1024,1024,1024,1024,0,0,0,0,323.3,-0.5,0,94,3.993,3.977,0,0,0,0,3.981,77,627.1236749236,4.265092,6,P-GPS,
57800,2024-02-01 19:22:37,40.4290626168776,-86.9293360928158,4.265092,,,627.1236749236,4.593176,0,30.6163723708,33.413386896,29,5,7.969,627.4517589236,4.593176,9.4846256,30.6221794576,0,0,0,317.4, 0.2, -0.8,0,0,1024,1024,1024,1024,0,0,0,0,323.3,-0.5,0,94,3.993,3.977,0,0,0,0,3.981,77,627.1236749236,4.265092,6,P-GPS,
57900,2024-02-01 19:22:37,40.4290626187796,-86.9293361108618,4.265092,,,627.1236749236,4.593176,0,30.6200141032,33.41863624,29,5,7.969,627.4517589236,4.593176,9.4846256,30.6221794576,0,0,0,317.4, 0, -0.9,0,0,1024,1024,1024,1024,0,0,0,0,323.3,-0.5,0,94,3.993,3.977,0,0,0,0,3.981,77,627.1236749236,4.265092,6,P-GPS,
58000,2024-02-01 19:22:37,40.4290626248896,-86.92933614149,4.265092,,,627.1236749236,4.593176,0,30.6270351008,33.427494508,29,5,7.969,627.4517589236,4.593176,9.4846256,30.6270351008,0,0,0,317.4, -0.1, -1.2,0,0,1024,1024,1024,1024,0,0,0,0,323.3,-0.5,0,94,3.993,3.977,0,0,0,0,3.981,77,627.1236749236,4.265092,6,P-GPS,
58100,2024-02-01 19:22:37,40.4290626115428,-86.9293361825789,4.265092,,,627.1236749236,4.593176,0,30.6302831324,33.4399617,28,5,7.969,627.4517589236,4.593176,9.4846256,30.6302831324,0,0,0,317.4, -0.2, -0.5,0,0,1024,1024,1024,1024,0,0,0,0,323.3,-0.5,0,94,3.993,3.977,0,0,0,0,3.981,77,627.1236749236,4.265092,6,P-GPS,
58200,2024-02-01 19:22:37,40.42906262203,-86.9293361635369,4.265092,,,627.1236749236,4.593176,0,30.6300206652,33.446195296,28,5,7.969,627.4517589236,4.593176,9.4846256,30.6302831324,0,0,0,317.4, -0.1, -0.7,0,0,1024,1024,1024,1024,0,0,0,0,323.3,-0.5,0,94,3.988,3.97,0,0,0,0,3.981,77,627.1236749236,4.265092,6,P-GPS,
58300,2024-02-01 19:22:37,40.4290626610671,-86.9293361223973,4.265092,,,627.1236749236,4.593176,0,30.6341217152,33.464568,28,5,7.969,627.4517589236,4.593176,9.4846256,30.6341217152,0,0,0,317.4, -0.1, -1.4,0,0,1024,1024,1024,1024,0,0,0,0,323.3,-0.5,0,94,3.988,3.97,0,0,0,0,3.981,77,627.1236749236,4.265092,6,P-GPS,
58400,2024-02-01 19:22:37,40.4290627247457,-86.9293360644047,4.265092,,,627.1236749236,4.593176,0,30.6424222404,33.492783224,28,5,7.969,627.4517589236,4.593176,9.4846256,30.6424222404,0,0,0,317.4, -0.1, -2,0,0,1024,1024,1024,1024,0,0,0,0,323.3,-0.5,0,94,3.988,3.97,0,0,0,0,3.981,77,627.1236749236,4.265092,6,P-GPS,
58500,2024-02-01 19:22:37,40.4290628319755,-86.9293359899078,4.265092,,,627.1236749236,4.593176,0,30.6604012436,33.537074564,28,5,7.969,627.4517589236,4.593176,9.4846256,30.6604012436,0,0,0,317.4, -0.2, -2.2,0,0,1024,1024,1024,1024,0,0,0,0,323.3,-0.5,0,94,3.988,3.97,0,0,0,0,3.981,77,627.1236749236,4.265092,6,P-GPS,
58600,2024-02-01 19:22:37,40.4290628509306,-86.9293360059506,4.593176,,,627.4517589236,4.593176,0,30.6686033436,33.545276664,28,5,7.969,627.4517589236,4.593176,9.4846256,30.6686033436,0,0,0,317.4, -0.4, -2,0,0,1024,1024,1024,1024,0,0,0,0,323.3,-0.5,0,94,3.988,3.97,0,0,0,0,3.981,77,627.4517589236,4.593176,6,P-GPS,
58700,2024-02-01 19:22:38,40.4290628518751,-86.92933602461,4.593176,,,627.4517589236,4.593176,0,30.672081034,33.550526008,28,5,7.969,627.4517589236,4.593176,9.4846256,30.672081034,0,0,0,317.4, -0.4, -1.8,0,0,1024,1024,1024,1024,0,0,0,0,323.3,-0.5,0,94,3.988,3.97,0,0,0,0,3.981,77,627.4517589236,4.593176,6,P-GPS,
58800,2024-02-01 19:22:38,40.4290628406454,-86.929336043123,4.593176,,,627.4517589236,4.593176,0,30.6720154172,33.557087688,28,5,7.969,627.4517589236,4.593176,9.4846256,30.672081034,0,0,0,317.4, -0.5, -1.5,0,0,1024,1024,1024,1024,0,0,0,0,323.3,-0.5,0,94,3.988,3.97,0,0,0,0,3.981,77,627.4517589236,4.593176,6,P-GPS,
58900,2024-02-01 19:22:38,40.4290627248435,-86.929336093401,4.593176,,,627.4517589236,4.593176,0,30.6474419256,33.601707112,28,5,7.969,627.4517589236,4.593176,9.4846256,30.672081034,0,0,0,317.4, -0.4, -1.6,0,0,1024,1024,1024,1024,0,0,0,0,323.3,-0.5,0,94,3.988,3.97,0,0,0,0,3.981,77,627.4517589236,4.593176,6,P-GPS,
59000,2024-02-01 19:22:38,40.4290627069436,-86.9293360746122,4.593176,,,627.4517589236,4.593176,0,30.6390757836,33.609909212,28,5,7.969,627.4517589236,4.593176,9.4846256,30.672081034,0,0,0,317.5, -0.1, -1.7,0,0,1024,1024,1024,1024,0,0,0,0,323.3,-0.5,0,94,3.988,3.97,0,0,0,0,3.981,77,627.4517589236,4.593176,6,P-GPS,
59100,2024-02-01 19:22:38,40.4290627157372,-86.9293360658677,4.593176,,,627.4517589236,4.593176,0,30.640092844,33.61384622,28,5,7.969,627.4517589236,4.593176,9.4846256,30.672081034,0,0,0,317.5, 0.1, -1.7,0,0,1024,1024,1024,1024,0,0,0,0,323.3,-0.5,0,94,3.988,3.97,0,0,0,0,3.981,77,627.4517589236,4.593176,6,P-GPS,
59200,2024-02-01 19:22:38,40.4290627476026,-86.929336063313,4.593176,,,627.4517589236,4.593176,0,30.64878707,33.625657244,28,5,7.969,627.4517589236,4.593176,9.4846256,30.672081034,0,0,0,317.5, -0.4, -1.5,0,0,1024,1024,1024,1024,0,0,0,0,323.3,-0.5,0,94,3.988,3.97,0,0,0,0,3.981,77,627.4517589236,4.593176,6,P-GPS,
59300,2024-02-01 19:22:38,40.4290628197296,-86.9293360613267,4.593176,,,627.4517589236,4.593176,0,30.669128278,33.651903964,29,5,7.969,627.4517589236,4.593176,9.4846256,30.672081034,0,0,0,317.5, -0.7, -1.6,0,0,1024,1024,1024,1024,0,0,0,0,323.3,-0.5,0,94,3.988,3.97,0,0,0,0,3.981,77,627.4517589236,4.593176,6,P-GPS,
59400,2024-02-01 19:22:38,40.4290628265365,-86.9293360456665,4.593176,,,627.4517589236,4.593176,0,30.6684064932,33.656825224,29,5,7.969,627.4517589236,4.593176,9.4846256,30.672081034,0,0,0,317.6, -1, -1.6,0,0,1024,1024,1024,1024,0,0,0,0,323.3,-0.5,0,94,3.988,3.97,0,0,0,0,3.981,77,627.4517589236,4.593176,6,P-GPS,
59500,2024-02-01 19:22:38,40.4290628323859,-86.9293360348287,4.593176,,,627.4517589236,4.593176,0,30.6682424512,33.660762232,29,5,7.969,627.4517589236,4.593176,9.4846256,30.672081034,0,0,0,317.5, -1, -1.4,0,0,1024,1024,1024,1024,0,0,0,0,323.3,-0.5,0,94,3.988,3.97,0,0,0,0,3.981,77,627.4517589236,4.593176,6,P-GPS,
59600,2024-02-01 19:22:39,40.4290628413423,-86.9293360268158,4.593176,,,627.4517589236,4.593176,0,30.6694235536,33.66469924,29,5,7.969,627.4517589236,4.593176,9.4846256,30.672081034,0,0,0,317.5, -1, -1.3,0,0,1024,1024,1024,1024,0,0,0,0,323.3,-0.5,0,94,3.988,3.97,0,0,0,0,3.981,77,627.4517589236,4.593176,6,P-GPS,
59700,2024-02-01 19:22:39,40.4290628359815,-86.9293360277217,4.593176,,,627.4517589236,4.593176,0,30.6680456008,33.666667744,29,5,7.969,627.4517589236,4.593176,9.4846256,30.672081034,0,0,0,317.4, -0.6, -1.4,0,0,1024,1024,1024,1024,0,0,0,0,323.3,-0.5,0,94,3.988,3.97,0,0,0,0,3.981,77,627.4517589236,4.593176,6,P-GPS,
59800,2024-02-01 19:22:39,40.4290626963652,-86.9293360401126,4.265092,,,627.1236749236,4.593176,0,30.6301190904,33.717520764,29,5,7.969,627.4517589236,4.593176,9.4846256,30.672081034,0,0,0,317.4, -0.4, -1.7,0,0,1024,1024,1024,1024,0,0,0,0,323.3,-0.5,0,94,3.988,3.97,0,0,0,0,3.981,77,627.1236749236,4.265092,6,P-GPS,
59900,2024-02-01 19:22:39,40.4290626933754,-86.9293360544053,4.265092,,,627.1236749236,4.593176,0,30.6316938936,33.721785856,29,5,7.969,627.4517589236,4.593176,9.4846256,30.672081034,0,0,0,317.4, -0.1, -1.8,0,0,1024,1024,1024,1024,0,0,0,0,323.3,-0.5,0,94,3.988,3.97,0,0,0,0,3.981,77,627.1236749236,4.265092,6,P-GPS,
60000,2024-02-01 19:22:39,40.4290627065658,-86.9293360751186,4.265092,,,627.1236749236,4.593176,0,30.6390429752,33.729331788,29,5,7.969,627.4517589236,4.593176,9.4846256,30.672081034,0,0,0,317.4, -0.2, -1.6,0,0,1024,1024,1024,1024,0,0,0,0,323.3,-0.5,0,94,3.988,3.97,0,0,0,0,3.981,77,627.1236749236,4.265092,6,P-GPS,
60100,2024-02-01 19:22:39,40.4290627178998,-86.9293360897546,4.265092,,,627.1236749236,4.593176,0,30.6448172536,33.734909216,29,5,7.969,627.4517589236,4.593176,9.4846256,30.672081034,0,0,0,317.4, -0.5, -1.4,0,0,1024,1024,1024,1024,0,0,0,0,323.3,-0.5,0,94,3.988,3.97,0,0,0,0,3.981,77,627.1236749236,4.265092,6,P-GPS,
60200,2024-02-01 19:22:39,40.4290627477068,-86.9293361185878,4.265092,,,627.1236749236,4.593176,0,30.658301506,33.748688744,29,5,7.964,627.4517589236,4.593176,9.4846256,30.672081034,0,0,0,317.5, -0.8, -1.2,0,0,1024,1024,1024,1024,0,0,0,0,323.3,-0.5,0,93,3.988,3.972,0,0,0,0,3.963,77.18,627.1236749236,4.265092,6,P-GPS,
60300,2024-02-01 19:22:39,40.4290627630012,-86.929336120591,4.265092,,,627.1236749236,4.593176,0,30.6630259156,33.754266172,29,5,7.964,627.4517589236,4.593176,9.4846256,30.672081034,0,0,0,317.5, -0.5, -1.5,0,0,1024,1024,1024,1024,0,0,0,0,323.3,-0.5,0,93,3.988,3.972,0,0,0,0,3.963,77.18,627.1236749236,4.265092,6,P-GPS,
